%time,field.header.seq,field.header.stamp,field.header.frame_id,field.child_frame_id,field.pose.pose.position.x,field.pose.pose.position.y,field.pose.pose.position.z,field.pose.pose.orientation.x,field.pose.pose.orientation.y,field.pose.pose.orientation.z,field.pose.pose.orientation.w,field.pose.covariance0,field.pose.covariance1,field.pose.covariance2,field.pose.covariance3,field.pose.covariance4,field.pose.covariance5,field.pose.covariance6,field.pose.covariance7,field.pose.covariance8,field.pose.covariance9,field.pose.covariance10,field.pose.covariance11,field.pose.covariance12,field.pose.covariance13,field.pose.covariance14,field.pose.covariance15,field.pose.covariance16,field.pose.covariance17,field.pose.covariance18,field.pose.covariance19,field.pose.covariance20,field.pose.covariance21,field.pose.covariance22,field.pose.covariance23,field.pose.covariance24,field.pose.covariance25,field.pose.covariance26,field.pose.covariance27,field.pose.covariance28,field.pose.covariance29,field.pose.covariance30,field.pose.covariance31,field.pose.covariance32,field.pose.covariance33,field.pose.covariance34,field.pose.covariance35,field.twist.twist.linear.x,field.twist.twist.linear.y,field.twist.twist.linear.z,field.twist.twist.angular.x,field.twist.twist.angular.y,field.twist.twist.angular.z,field.twist.covariance0,field.twist.covariance1,field.twist.covariance2,field.twist.covariance3,field.twist.covariance4,field.twist.covariance5,field.twist.covariance6,field.twist.covariance7,field.twist.covariance8,field.twist.covariance9,field.twist.covariance10,field.twist.covariance11,field.twist.covariance12,field.twist.covariance13,field.twist.covariance14,field.twist.covariance15,field.twist.covariance16,field.twist.covariance17,field.twist.covariance18,field.twist.covariance19,field.twist.covariance20,field.twist.covariance21,field.twist.covariance22,field.twist.covariance23,field.twist.covariance24,field.twist.covariance25,field.twist.covariance26,field.twist.covariance27,field.twist.covariance28,field.twist.covariance29,field.twist.covariance30,field.twist.covariance31,field.twist.covariance32,field.twist.covariance33,field.twist.covariance34,field.twist.covariance35
1663040616988277912,0,1663040616988277912,odom,base_link,0.0,0.0,0.0,0.0,0.0,0.0,1.0,19998.0,0.0,0.0,0.0,0.0,0.0,0.0,19998.0,0.0,0.0,0.0,0.0,0.0,0.0,19998.0,0.0,0.0,0.0,0.0,0.0,0.0,19998.0,0.0,0.0,0.0,0.0,0.0,0.0,19998.0,0.0,0.0,0.0,0.0,0.0,0.0,19998.0,0.0,0.0,0.0,0.0,0.0,0.0,9999.0,0.0,0.0,0.0,0.0,0.0,0.0,9999.0,0.0,0.0,0.0,0.0,0.0,0.0,9999.0,0.0,0.0,0.0,0.0,0.0,0.0,9999.0,0.0,0.0,0.0,0.0,0.0,0.0,9999.0,0.0,0.0,0.0,0.0,0.0,0.0,9999.0
1663040617080476761,1,1663040617080476761,odom,base_link,-0.00108013220597,0.00238258414902,-0.0053480216302,-0.000210230575175,-0.000332856285578,-0.000133389471893,0.999999913609,0.000100236093599,0.0,0.0,0.0,0.0,0.0,0.0,0.000100236093599,0.0,0.0,0.0,0.0,0.0,0.0,0.000100236093599,0.0,0.0,0.0,0.0,0.0,0.0,1.00236093599e-05,0.0,0.0,0.0,0.0,0.0,0.0,1.00236093599e-05,0.0,0.0,0.0,0.0,0.0,0.0,1.00236093599e-05,-0.0117152463645,0.0258417986333,-0.0580052956939,-0.00455940980464,-0.0072210081853,-0.00289199897088,5.01180467993e-05,0.0,0.0,0.0,0.0,0.0,0.0,5.01180467993e-05,0.0,0.0,0.0,0.0,0.0,0.0,5.01180467993e-05,0.0,0.0,0.0,0.0,0.0,0.0,5.01180467993e-06,0.0,0.0,0.0,0.0,0.0,0.0,5.01180467993e-06,0.0,0.0,0.0,0.0,0.0,0.0,5.01180467993e-06
1663040617175204515,2,1663040617175204515,odom,base_link,-0.000205465534236,-0.000161919509992,0.00351075502113,-0.000130790629554,0.000571446829409,0.000100116379964,0.99999982316,5.70760586648e-05,0.0,0.0,0.0,0.0,0.0,0.0,5.70760586648e-05,0.0,0.0,0.0,0.0,0.0,0.0,5.70760586648e-05,0.0,0.0,0.0,0.0,0.0,0.0,5.70760586648e-06,0.0,0.0,0.0,0.0,0.0,0.0,5.70760586648e-06,0.0,0.0,0.0,0.0,0.0,0.0,5.70760586648e-06,0.00930289924145,-0.0268980693072,0.0935008078814,0.00168078381103,0.0190914683044,0.00493501732126,2.85380293324e-05,0.0,0.0,0.0,0.0,0.0,0.0,2.85380293324e-05,0.0,0.0,0.0,0.0,0.0,0.0,2.85380293324e-05,0.0,0.0,0.0,0.0,0.0,0.0,2.85380293324e-06,0.0,0.0,0.0,0.0,0.0,0.0,2.85380293324e-06,0.0,0.0,0.0,0.0,0.0,0.0,2.85380293324e-06
1663040617284197569,3,1663040617284197569,odom,base_link,0.00218176376075,0.00114446354564,0.00116379465908,5.06315764386e-05,0.000297715961822,-0.000196153032199,0.999999935163,6.14568746154e-05,0.0,0.0,0.0,0.0,0.0,0.0,6.14568746154e-05,0.0,0.0,0.0,0.0,0.0,0.0,6.14568746154e-05,0.0,0.0,0.0,0.0,0.0,0.0,6.14568746154e-06,0.0,0.0,0.0,0.0,0.0,0.0,6.14568746154e-06,0.0,0.0,0.0,0.0,0.0,0.0,6.14568746154e-06,0.0219295751303,0.0119871702045,-0.0215049367398,0.00333315110765,-0.00502153998241,-0.00543614896014,3.07284373077e-05,0.0,0.0,0.0,0.0,0.0,0.0,3.07284373077e-05,0.0,0.0,0.0,0.0,0.0,0.0,3.07284373077e-05,0.0,0.0,0.0,0.0,0.0,0.0,3.07284373077e-06,0.0,0.0,0.0,0.0,0.0,0.0,3.07284373077e-06,0.0,0.0,0.0,0.0,0.0,0.0,3.07284373077e-06
1663040617379127264,4,1663040617379127264,odom,base_link,0.00275621423498,0.00161580415443,-0.00119449314661,-0.000110647999659,9.20455402984e-06,-0.000201638049509,0.999999973507,8.47496063006e-05,0.0,0.0,0.0,0.0,0.0,0.0,8.47496063006e-05,0.0,0.0,0.0,0.0,0.0,0.0,8.47496063006e-05,0.0,0.0,0.0,0.0,0.0,0.0,8.47496063006e-06,0.0,0.0,0.0,0.0,0.0,0.0,8.47496063006e-06,0.0,0.0,0.0,0.0,0.0,0.0,8.47496063006e-06,0.00606416771188,0.00496501475573,-0.0248393639922,-0.00339661398903,-0.00607911404222,-0.000115282440674,4.23748031503e-05,0.0,0.0,0.0,0.0,0.0,0.0,4.23748031503e-05,0.0,0.0,0.0,0.0,0.0,0.0,4.23748031503e-05,0.0,0.0,0.0,0.0,0.0,0.0,4.23748031503e-06,0.0,0.0,0.0,0.0,0.0,0.0,4.23748031503e-06,0.0,0.0,0.0,0.0,0.0,0.0,4.23748031503e-06
1663040617471569061,5,1663040617471569061,odom,base_link,0.00128036807291,0.00224420707673,0.000497858854942,-3.02831576202e-05,0.000293870619063,-0.000187782799879,0.99999993873,6.46589664588e-05,0.0,0.0,0.0,0.0,0.0,0.0,6.46589664588e-05,0.0,0.0,0.0,0.0,0.0,0.0,6.46589664588e-05,0.0,0.0,0.0,0.0,0.0,0.0,6.46589664588e-06,0.0,0.0,0.0,0.0,0.0,0.0,6.46589664588e-06,0.0,0.0,0.0,0.0,0.0,0.0,6.46589664588e-06,-0.0159682147205,0.00678733224049,0.0183084253222,0.00173755304422,0.00615911092609,0.000300954299746,3.23294832294e-05,0.0,0.0,0.0,0.0,0.0,0.0,3.23294832294e-05,0.0,0.0,0.0,0.0,0.0,0.0,3.23294832294e-05,0.0,0.0,0.0,0.0,0.0,0.0,3.23294832294e-06,0.0,0.0,0.0,0.0,0.0,0.0,3.23294832294e-06,0.0,0.0,0.0,0.0,0.0,0.0,3.23294832294e-06
1663040617569268703,6,1663040617569268703,odom,base_link,-1.33907888085e-05,0.000640430138446,-0.000836007879116,6.42802051501e-05,-0.000130414397086,0.000101062717995,0.999999984323,7.47924061673e-05,0.0,0.0,0.0,0.0,0.0,0.0,7.47924061673e-05,0.0,0.0,0.0,0.0,0.0,0.0,7.47924061673e-05,0.0,0.0,0.0,0.0,0.0,0.0,7.47924061673e-06,0.0,0.0,0.0,0.0,0.0,0.0,7.47924061673e-06,0.0,0.0,0.0,0.0,0.0,0.0,7.47924061673e-06,-0.0132280141115,-0.0164195243269,-0.0136615028605,0.00193318224046,-0.00868587289006,0.00591241521761,3.73962030836e-05,0.0,0.0,0.0,0.0,0.0,0.0,3.73962030836e-05,0.0,0.0,0.0,0.0,0.0,0.0,3.73962030836e-05,0.0,0.0,0.0,0.0,0.0,0.0,3.73962030836e-06,0.0,0.0,0.0,0.0,0.0,0.0,3.73962030836e-06,0.0,0.0,0.0,0.0,0.0,0.0,3.73962030836e-06
1663040617661376715,7,1663040617661376715,odom,base_link,0.000209166639252,0.000422317301854,-1.48207764141e-05,2.79251252632e-08,6.25484534358e-05,1.97729932126e-05,0.999999997848,5.46236615314e-05,0.0,0.0,0.0,0.0,0.0,0.0,5.46236615314e-05,0.0,0.0,0.0,0.0,0.0,0.0,5.46236615314e-05,0.0,0.0,0.0,0.0,0.0,0.0,5.46236615314e-06,0.0,0.0,0.0,0.0,0.0,0.0,5.46236615314e-06,0.0,0.0,0.0,0.0,0.0,0.0,5.46236615314e-06,0.00241811247543,-0.00236735399812,0.00891515333205,-0.00139529816806,0.00418983958662,-0.00176545232534,2.73118307657e-05,0.0,0.0,0.0,0.0,0.0,0.0,2.73118307657e-05,0.0,0.0,0.0,0.0,0.0,0.0,2.73118307657e-05,0.0,0.0,0.0,0.0,0.0,0.0,2.73118307657e-06,0.0,0.0,0.0,0.0,0.0,0.0,2.73118307657e-06,0.0,0.0,0.0,0.0,0.0,0.0,2.73118307657e-06
1663040617770068884,8,1663040617770068884,odom,base_link,-0.000266664108494,-0.000611594645306,-0.000148513005115,6.61671951006e-06,6.83413822146e-05,0.000119811703104,0.999999990465,6.45411343512e-05,0.0,0.0,0.0,0.0,0.0,0.0,6.45411343512e-05,0.0,0.0,0.0,0.0,0.0,0.0,6.45411343512e-05,0.0,0.0,0.0,0.0,0.0,0.0,6.45411343512e-06,0.0,0.0,0.0,0.0,0.0,0.0,6.45411343512e-06,0.0,0.0,0.0,0.0,0.0,0.0,6.45411343512e-06,-0.00437800539657,-0.00951212085783,-0.00123055512086,0.000121135330119,0.000106578903797,0.00184077932499,3.22705671756e-05,0.0,0.0,0.0,0.0,0.0,0.0,3.22705671756e-05,0.0,0.0,0.0,0.0,0.0,0.0,3.22705671756e-05,0.0,0.0,0.0,0.0,0.0,0.0,3.22705671756e-06,0.0,0.0,0.0,0.0,0.0,0.0,3.22705671756e-06,0.0,0.0,0.0,0.0,0.0,0.0,3.22705671756e-06
1663040617864693165,9,1663040617864693165,odom,base_link,-0.000309849856421,-0.000695933762472,-0.000508917088155,-0.000306069986843,5.27465960623e-05,0.000120406024905,0.999999944521,6.53596833406e-05,0.0,0.0,0.0,0.0,0.0,0.0,6.53596833406e-05,0.0,0.0,0.0,0.0,0.0,0.0,6.53596833406e-05,0.0,0.0,0.0,0.0,0.0,0.0,6.53596833406e-06,0.0,0.0,0.0,0.0,0.0,0.0,6.53596833406e-06,0.0,0.0,0.0,0.0,0.0,0.0,6.53596833406e-06,-0.000456084875623,-0.000891246192623,-0.00380884110928,-0.00660905614495,-0.000328819238348,1.22149012896e-05,3.26798416703e-05,0.0,0.0,0.0,0.0,0.0,0.0,3.26798416703e-05,0.0,0.0,0.0,0.0,0.0,0.0,3.26798416703e-05,0.0,0.0,0.0,0.0,0.0,0.0,3.26798416703e-06,0.0,0.0,0.0,0.0,0.0,0.0,3.26798416703e-06,0.0,0.0,0.0,0.0,0.0,0.0,3.26798416703e-06
1663040617959779978,10,1663040617959779978,odom,base_link,-0.000665747036692,0.000109411834273,-0.00242262310348,2.66336200154e-05,-0.000219270171676,9.58234333903e-05,0.999999971015,7.92045497595e-05,0.0,0.0,0.0,0.0,0.0,0.0,7.92045497595e-05,0.0,0.0,0.0,0.0,0.0,0.0,7.92045497595e-05,0.0,0.0,0.0,0.0,0.0,0.0,7.92045497595e-06,0.0,0.0,0.0,0.0,0.0,0.0,7.92045497595e-06,0.0,0.0,0.0,0.0,0.0,0.0,7.92045497595e-06,-0.00373870204203,0.00848280172795,-0.0201210882515,0.00699737062678,-0.00572195043787,-0.0005203417968,3.96022748797e-05,0.0,0.0,0.0,0.0,0.0,0.0,3.96022748797e-05,0.0,0.0,0.0,0.0,0.0,0.0,3.96022748797e-05,0.0,0.0,0.0,0.0,0.0,0.0,3.96022748797e-06,0.0,0.0,0.0,0.0,0.0,0.0,3.96022748797e-06,0.0,0.0,0.0,0.0,0.0,0.0,3.96022748797e-06
1663040618052186966,11,1663040618052186966,odom,base_link,4.27870545536e-05,-0.00149890477769,-0.00201863888651,7.5034537673e-05,-0.000217886008353,-4.13704414901e-05,0.999999972592,8.23079694476e-05,0.0,0.0,0.0,0.0,0.0,0.0,8.23079694476e-05,0.0,0.0,0.0,0.0,0.0,0.0,8.23079694476e-05,0.0,0.0,0.0,0.0,0.0,0.0,8.23079694476e-06,0.0,0.0,0.0,0.0,0.0,0.0,8.23079694476e-06,0.0,0.0,0.0,0.0,0.0,0.0,8.23079694476e-06,0.00766611890867,-0.0174059420824,0.00436935899779,0.00104690704029,2.99230487144e-05,-0.00296956859529,4.11539847238e-05,0.0,0.0,0.0,0.0,0.0,0.0,4.11539847238e-05,0.0,0.0,0.0,0.0,0.0,0.0,4.11539847238e-05,0.0,0.0,0.0,0.0,0.0,0.0,4.11539847238e-06,0.0,0.0,0.0,0.0,0.0,0.0,4.11539847238e-06,0.0,0.0,0.0,0.0,0.0,0.0,4.11539847238e-06
1663040618147260904,12,1663040618147260904,odom,base_link,0.000352966046194,-0.00129237363581,0.00200582528487,3.21491170835e-06,0.000427342930036,4.56471683166e-05,0.999999907642,8.11348110027e-05,0.0,0.0,0.0,0.0,0.0,0.0,8.11348110027e-05,0.0,0.0,0.0,0.0,0.0,0.0,8.11348110027e-05,0.0,0.0,0.0,0.0,0.0,0.0,8.11348110027e-06,0.0,0.0,0.0,0.0,0.0,0.0,8.11348110027e-06,0.0,0.0,0.0,0.0,0.0,0.0,8.11348110027e-06,0.00328076863661,0.00217894441448,0.0423280820251,-0.00150979903992,0.0135734081268,0.00182886153925,4.05674055014e-05,0.0,0.0,0.0,0.0,0.0,0.0,4.05674055014e-05,0.0,0.0,0.0,0.0,0.0,0.0,4.05674055014e-05,0.0,0.0,0.0,0.0,0.0,0.0,4.05674055014e-06,0.0,0.0,0.0,0.0,0.0,0.0,4.05674055014e-06,0.0,0.0,0.0,0.0,0.0,0.0,4.05674055014e-06
1663040618255867481,13,1663040618255867481,odom,base_link,0.000509258708917,-0.000229093129747,0.00178139004856,1.36470601767e-05,0.0004201805073,3.24641871062e-05,0.999999911104,7.17170322992e-05,0.0,0.0,0.0,0.0,0.0,0.0,7.17170322992e-05,0.0,0.0,0.0,0.0,0.0,0.0,7.17170322992e-05,0.0,0.0,0.0,0.0,0.0,0.0,7.17170322992e-06,0.0,0.0,0.0,0.0,0.0,0.0,7.17170322992e-06,0.0,0.0,0.0,0.0,0.0,0.0,7.17170322992e-06,0.00144173088484,0.00979005917907,-0.00206532934681,0.000192208375665,-0.000131904875161,-0.000242684691329,3.58585161496e-05,0.0,0.0,0.0,0.0,0.0,0.0,3.58585161496e-05,0.0,0.0,0.0,0.0,0.0,0.0,3.58585161496e-05,0.0,0.0,0.0,0.0,0.0,0.0,3.58585161496e-06,0.0,0.0,0.0,0.0,0.0,0.0,3.58585161496e-06,0.0,0.0,0.0,0.0,0.0,0.0,3.58585161496e-06
1663040618351059914,14,1663040618351059914,odom,base_link,4.24972386099e-05,0.000191895494936,-0.00081596057862,-0.000144598061571,-0.000109950503938,2.83941812111e-05,0.999999983098,7.45389574219e-05,0.0,0.0,0.0,0.0,0.0,0.0,7.45389574219e-05,0.0,0.0,0.0,0.0,0.0,0.0,7.45389574219e-05,0.0,0.0,0.0,0.0,0.0,0.0,7.45389574219e-06,0.0,0.0,0.0,0.0,0.0,0.0,7.45389574219e-06,0.0,0.0,0.0,0.0,0.0,0.0,7.45389574219e-06,-0.00488012796268,0.00442207371816,-0.0272894948721,-0.00332502252422,-0.0111379977316,-8.49934440339e-05,3.7269478711e-05,0.0,0.0,0.0,0.0,0.0,0.0,3.7269478711e-05,0.0,0.0,0.0,0.0,0.0,0.0,3.7269478711e-05,0.0,0.0,0.0,0.0,0.0,0.0,3.7269478711e-06,0.0,0.0,0.0,0.0,0.0,0.0,3.7269478711e-06,0.0,0.0,0.0,0.0,0.0,0.0,3.7269478711e-06
1663040618443505049,15,1663040618443505049,odom,base_link,-8.04243900348e-05,-0.00124091189355,-0.000718232709914,4.43331676346e-05,2.60554759462e-05,0.000250600750775,0.999999967277,7.07487030211e-05,0.0,0.0,0.0,0.0,0.0,0.0,7.07487030211e-05,0.0,0.0,0.0,0.0,0.0,0.0,7.07487030211e-05,0.0,0.0,0.0,0.0,0.0,0.0,7.07487030211e-06,0.0,0.0,0.0,0.0,0.0,0.0,7.07487030211e-06,0.0,0.0,0.0,0.0,0.0,0.0,7.07487030211e-06,-0.00133031920996,-0.0154992332682,0.00105295481626,0.00408868957311,0.00294069526717,0.00480784848332,3.53743515105e-05,0.0,0.0,0.0,0.0,0.0,0.0,3.53743515105e-05,0.0,0.0,0.0,0.0,0.0,0.0,3.53743515105e-05,0.0,0.0,0.0,0.0,0.0,0.0,3.53743515105e-06,0.0,0.0,0.0,0.0,0.0,0.0,3.53743515105e-06,0.0,0.0,0.0,0.0,0.0,0.0,3.53743515105e-06
1663040618536106825,16,1663040618536106825,odom,base_link,0.00166567554697,0.000100857345387,-0.000703002267983,5.21110121688e-05,1.37176411511e-05,-5.96732932426e-05,0.999999996768,7.56206918671e-05,0.0,0.0,0.0,0.0,0.0,0.0,7.56206918671e-05,0.0,0.0,0.0,0.0,0.0,0.0,7.56206918671e-05,0.0,0.0,0.0,0.0,0.0,0.0,7.56206918671e-06,0.0,0.0,0.0,0.0,0.0,0.0,7.56206918671e-06,0.0,0.0,0.0,0.0,0.0,0.0,7.56206918671e-06,0.018863260746,0.0144802331924,0.000164170734934,0.000168175349245,-0.000266757822828,-0.00670124031603,3.78103459335e-05,0.0,0.0,0.0,0.0,0.0,0.0,3.78103459335e-05,0.0,0.0,0.0,0.0,0.0,0.0,3.78103459335e-05,0.0,0.0,0.0,0.0,0.0,0.0,3.78103459335e-06,0.0,0.0,0.0,0.0,0.0,0.0,3.78103459335e-06,0.0,0.0,0.0,0.0,0.0,0.0,3.78103459335e-06
1663040618644891500,17,1663040618644891500,odom,base_link,0.0018910903018,-0.000383692560717,0.000324501830619,-0.00016070828492,0.000135414087097,2.33252308801e-05,0.999999977646,6.57741396589e-05,0.0,0.0,0.0,0.0,0.0,0.0,6.57741396589e-05,0.0,0.0,0.0,0.0,0.0,0.0,6.57741396589e-05,0.0,0.0,0.0,0.0,0.0,0.0,6.57741396589e-06,0.0,0.0,0.0,0.0,0.0,0.0,6.57741396589e-06,0.0,0.0,0.0,0.0,0.0,0.0,6.57741396589e-06,0.00207239040174,-0.00445297919214,0.00944582279772,-0.00391263887286,0.00223755231127,0.00152527668979,3.28870698294e-05,0.0,0.0,0.0,0.0,0.0,0.0,3.28870698294e-05,0.0,0.0,0.0,0.0,0.0,0.0,3.28870698294e-05,0.0,0.0,0.0,0.0,0.0,0.0,3.28870698294e-06,0.0,0.0,0.0,0.0,0.0,0.0,3.28870698294e-06,0.0,0.0,0.0,0.0,0.0,0.0,3.28870698294e-06
1663040618740256310,18,1663040618740256310,odom,base_link,0.000139768235385,0.000689837615937,0.00055087468354,-9.65911038236e-05,6.83972041499e-05,-0.000108699905485,0.999999987088,7.99710757998e-05,0.0,0.0,0.0,0.0,0.0,0.0,7.99710757998e-05,0.0,0.0,0.0,0.0,0.0,0.0,7.99710757998e-05,0.0,0.0,0.0,0.0,0.0,0.0,7.99710757998e-06,0.0,0.0,0.0,0.0,0.0,0.0,7.99710757998e-06,0.0,0.0,0.0,0.0,0.0,0.0,7.99710757998e-06,-0.018364565447,0.0112571837381,0.00237240130082,0.00134519953281,-0.00140489335172,-0.00276897801086,3.99855378999e-05,0.0,0.0,0.0,0.0,0.0,0.0,3.99855378999e-05,0.0,0.0,0.0,0.0,0.0,0.0,3.99855378999e-05,0.0,0.0,0.0,0.0,0.0,0.0,3.99855378999e-06,0.0,0.0,0.0,0.0,0.0,0.0,3.99855378999e-06,0.0,0.0,0.0,0.0,0.0,0.0,3.99855378999e-06
1663040618835064173,19,1663040618835064173,odom,base_link,0.000594084151089,0.000458723137854,0.00126580125652,0.000149740268245,0.000325141560622,-0.000169194085093,0.999999921617,5.69021221224e-05,0.0,0.0,0.0,0.0,0.0,0.0,5.69021221224e-05,0.0,0.0,0.0,0.0,0.0,0.0,5.69021221224e-05,0.0,0.0,0.0,0.0,0.0,0.0,5.69021221224e-06,0.0,0.0,0.0,0.0,0.0,0.0,5.69021221224e-06,0.0,0.0,0.0,0.0,0.0,0.0,5.69021221224e-06,0.00479146372527,-0.00243812915869,0.00754097755998,0.00519560463727,0.00541710061952,-0.00127393007278,2.84510610612e-05,0.0,0.0,0.0,0.0,0.0,0.0,2.84510610612e-05,0.0,0.0,0.0,0.0,0.0,0.0,2.84510610612e-05,0.0,0.0,0.0,0.0,0.0,0.0,2.84510610612e-06,0.0,0.0,0.0,0.0,0.0,0.0,2.84510610612e-06,0.0,0.0,0.0,0.0,0.0,0.0,2.84510610612e-06
1663040618940900564,20,1663040618940900564,odom,base_link,-5.70616102777e-05,0.000271428492852,0.000694471818861,0.000154717231384,3.5857993387e-05,-1.25548947265e-06,0.999999987388,6.66062573492e-05,0.0,0.0,0.0,0.0,0.0,0.0,6.66062573492e-05,0.0,0.0,0.0,0.0,0.0,0.0,6.66062573492e-05,0.0,0.0,0.0,0.0,0.0,0.0,6.66062573492e-06,0.0,0.0,0.0,0.0,0.0,0.0,6.66062573492e-06,0.0,0.0,0.0,0.0,0.0,0.0,6.66062573492e-06,-0.00614826986566,-0.00177336041816,-0.00540170120075,9.30243404582e-05,-0.00546614313498,0.00317437341437,3.33031286746e-05,0.0,0.0,0.0,0.0,0.0,0.0,3.33031286746e-05,0.0,0.0,0.0,0.0,0.0,0.0,3.33031286746e-05,0.0,0.0,0.0,0.0,0.0,0.0,3.33031286746e-06,0.0,0.0,0.0,0.0,0.0,0.0,3.33031286746e-06,0.0,0.0,0.0,0.0,0.0,0.0,3.33031286746e-06
1663040619033646345,21,1663040619033646345,odom,base_link,0.000677759584505,0.000455517554656,0.00271737365983,-4.1500231413e-05,0.000530933576991,-7.66759884957e-05,0.999999855254,6.9487952567e-05,0.0,0.0,0.0,0.0,0.0,0.0,6.9487952567e-05,0.0,0.0,0.0,0.0,0.0,0.0,6.9487952567e-05,0.0,0.0,0.0,0.0,0.0,0.0,6.9487952567e-06,0.0,0.0,0.0,0.0,0.0,0.0,6.9487952567e-06,0.0,0.0,0.0,0.0,0.0,0.0,6.9487952567e-06,0.00792139209807,0.00199164706282,0.021811209619,-0.00423205876723,0.0106753893197,-0.001630290295,3.47439762835e-05,0.0,0.0,0.0,0.0,0.0,0.0,3.47439762835e-05,0.0,0.0,0.0,0.0,0.0,0.0,3.47439762835e-05,0.0,0.0,0.0,0.0,0.0,0.0,3.47439762835e-06,0.0,0.0,0.0,0.0,0.0,0.0,3.47439762835e-06,0.0,0.0,0.0,0.0,0.0,0.0,3.47439762835e-06
1663040619126332521,22,1663040619126332521,odom,base_link,0.00106253940612,0.000918280216865,-0.0027416779194,1.48932575078e-05,-0.000159565624328,-0.000413597374185,0.999999901627,7.19750167395e-05,0.0,0.0,0.0,0.0,0.0,0.0,7.19750167395e-05,0.0,0.0,0.0,0.0,0.0,0.0,7.19750167395e-05,0.0,0.0,0.0,0.0,0.0,0.0,7.19750167395e-06,0.0,0.0,0.0,0.0,0.0,0.0,7.19750167395e-06,0.0,0.0,0.0,0.0,0.0,0.0,7.19750167395e-06,0.00421320041642,0.00499831978232,-0.0588933750987,0.00122689234558,-0.0148989148438,-0.00727097177878,3.59875083697e-05,0.0,0.0,0.0,0.0,0.0,0.0,3.59875083697e-05,0.0,0.0,0.0,0.0,0.0,0.0,3.59875083697e-05,0.0,0.0,0.0,0.0,0.0,0.0,3.59875083697e-06,0.0,0.0,0.0,0.0,0.0,0.0,3.59875083697e-06,0.0,0.0,0.0,0.0,0.0,0.0,3.59875083697e-06
1663040619234708309,23,1663040619234708309,odom,base_link,0.00333269056864,0.00108662631828,0.000230100704357,3.72795982087e-05,0.000217688470927,-0.00056579009561,0.999999815552,8.24031038888e-05,0.0,0.0,0.0,0.0,0.0,0.0,8.24031038888e-05,0.0,0.0,0.0,0.0,0.0,0.0,8.24031038888e-05,0.0,0.0,0.0,0.0,0.0,0.0,8.24031038888e-06,0.0,0.0,0.0,0.0,0.0,0.0,8.24031038888e-06,0.0,0.0,0.0,0.0,0.0,0.0,8.24031038888e-06,0.0209544897079,0.00157150253654,0.0274143256247,0.00040873727994,0.00696215266362,-0.00280862743966,4.12015519444e-05,0.0,0.0,0.0,0.0,0.0,0.0,4.12015519444e-05,0.0,0.0,0.0,0.0,0.0,0.0,4.12015519444e-05,0.0,0.0,0.0,0.0,0.0,0.0,4.12015519444e-06,0.0,0.0,0.0,0.0,0.0,0.0,4.12015519444e-06,0.0,0.0,0.0,0.0,0.0,0.0,4.12015519444e-06
1663040619327573061,24,1663040619327573061,odom,base_link,0.00987133476883,0.000800771638751,-0.00100702338386,2.63697165613e-05,0.000228161563448,-0.00233603307904,0.999997245094,0.000160865399013,0.0,0.0,0.0,0.0,0.0,0.0,0.000160865399013,0.0,0.0,0.0,0.0,0.0,0.0,0.000160865399013,0.0,0.0,0.0,0.0,0.0,0.0,1.60865399013e-05,0.0,0.0,0.0,0.0,0.0,0.0,1.60865399013e-05,0.0,0.0,0.0,0.0,0.0,0.0,1.60865399013e-05,0.0704196244478,-0.00299949478358,-0.0132908998057,-0.00022718514083,0.000223611976253,-0.038125295192,8.04326995066e-05,0.0,0.0,0.0,0.0,0.0,0.0,8.04326995066e-05,0.0,0.0,0.0,0.0,0.0,0.0,8.04326995066e-05,0.0,0.0,0.0,0.0,0.0,0.0,8.04326995066e-06,0.0,0.0,0.0,0.0,0.0,0.0,8.04326995066e-06,0.0,0.0,0.0,0.0,0.0,0.0,8.04326995066e-06
1663040619420053959,25,1663040619420053959,odom,base_link,0.0193784441799,0.000831430661492,-0.00153042841703,-2.27068092395e-05,-0.000185674045283,-0.00453007596487,0.999989721658,0.000466765355179,0.0,0.0,0.0,0.0,0.0,0.0,0.000466765355179,0.0,0.0,0.0,0.0,0.0,0.0,0.000466765355179,0.0,0.0,0.0,0.0,0.0,0.0,4.66765355179e-05,0.0,0.0,0.0,0.0,0.0,0.0,4.66765355179e-05,0.0,0.0,0.0,0.0,0.0,0.0,4.66765355179e-05,0.102800697088,0.000811513164081,-0.00561272120103,-0.00100994727109,-0.00895555131137,-0.0474484227598,0.00023338267759,0.0,0.0,0.0,0.0,0.0,0.0,0.00023338267759,0.0,0.0,0.0,0.0,0.0,0.0,0.00023338267759,0.0,0.0,0.0,0.0,0.0,0.0,2.3338267759e-05,0.0,0.0,0.0,0.0,0.0,0.0,2.3338267759e-05,0.0,0.0,0.0,0.0,0.0,0.0,2.3338267759e-05
1663040619528228760,26,1663040619528228760,odom,base_link,0.0310578383505,0.00134314433672,-0.00396001525223,8.86982154115e-05,-0.000213557069424,-0.00647431419115,0.999979014671,0.000754735843758,0.0,0.0,0.0,0.0,0.0,0.0,0.000754735843758,0.0,0.0,0.0,0.0,0.0,0.0,0.000754735843758,0.0,0.0,0.0,0.0,0.0,0.0,7.54735843758e-05,0.0,0.0,0.0,0.0,0.0,0.0,7.54735843758e-05,0.0,0.0,0.0,0.0,0.0,0.0,7.54735843758e-05,0.107912138104,0.005709416233,-0.0224996674806,0.00205633649603,-0.000501405389514,-0.0359472371638,0.000377367921879,0.0,0.0,0.0,0.0,0.0,0.0,0.000377367921879,0.0,0.0,0.0,0.0,0.0,0.0,0.000377367921879,0.0,0.0,0.0,0.0,0.0,0.0,3.77367921879e-05,0.0,0.0,0.0,0.0,0.0,0.0,3.77367921879e-05,0.0,0.0,0.0,0.0,0.0,0.0,3.77367921879e-05
1663040619621171951,27,1663040619621171951,odom,base_link,0.0439615622163,0.0073428247124,-0.00481859687716,-0.000821023780807,0.000297766275721,-0.00754726065424,0.999971137639,0.000938669339209,0.0,0.0,0.0,0.0,0.0,0.0,0.000938669339209,0.0,0.0,0.0,0.0,0.0,0.0,0.000938669339209,0.0,0.0,0.0,0.0,0.0,0.0,9.38669339209e-05,0.0,0.0,0.0,0.0,0.0,0.0,9.38669339209e-05,0.0,0.0,0.0,0.0,0.0,0.0,9.38669339209e-05,0.137983083725,0.0663427188993,-0.00930843222886,-0.0196632798761,0.0108527736738,-0.0230955667794,0.000469334669604,0.0,0.0,0.0,0.0,0.0,0.0,0.000469334669604,0.0,0.0,0.0,0.0,0.0,0.0,0.000469334669604,0.0,0.0,0.0,0.0,0.0,0.0,4.69334669604e-05,0.0,0.0,0.0,0.0,0.0,0.0,4.69334669604e-05,0.0,0.0,0.0,0.0,0.0,0.0,4.69334669604e-05
1663040619713820934,28,1663040619713820934,odom,base_link,0.0588049516082,0.00526423705742,-0.00624040560797,-0.00089404447951,0.000730540750015,-0.00817294971096,0.999965934364,0.00120561467486,0.0,0.0,0.0,0.0,0.0,0.0,0.00120561467486,0.0,0.0,0.0,0.0,0.0,0.0,0.00120561467486,0.0,0.0,0.0,0.0,0.0,0.0,0.000120561467486,0.0,0.0,0.0,0.0,0.0,0.0,0.000120561467486,0.0,0.0,0.0,0.0,0.0,0.0,0.000120561467486,0.160540342331,-0.0199890714139,-0.0152855087072,-0.00164865958504,0.00934016425163,-0.0135005973279,0.000602807337432,0.0,0.0,0.0,0.0,0.0,0.0,0.000602807337432,0.0,0.0,0.0,0.0,0.0,0.0,0.000602807337432,0.0,0.0,0.0,0.0,0.0,0.0,6.02807337432e-05,0.0,0.0,0.0,0.0,0.0,0.0,6.02807337432e-05,0.0,0.0,0.0,0.0,0.0,0.0,6.02807337432e-05
1663040619808561325,29,1663040619808561325,odom,base_link,0.0707118362188,0.00621287757531,-0.00189708871767,-0.000842248477735,0.00163098680771,-0.00930346288177,0.999955037028,0.00138019396811,0.0,0.0,0.0,0.0,0.0,0.0,0.00138019396811,0.0,0.0,0.0,0.0,0.0,0.0,0.00138019396811,0.0,0.0,0.0,0.0,0.0,0.0,0.000138019396811,0.0,0.0,0.0,0.0,0.0,0.0,0.000138019396811,0.0,0.0,0.0,0.0,0.0,0.0,0.000138019396811,0.125432178378,0.0119832819328,0.0460475236177,0.000933757284656,0.0190395656973,-0.0238479394466,0.000690096984054,0.0,0.0,0.0,0.0,0.0,0.0,0.000690096984054,0.0,0.0,0.0,0.0,0.0,0.0,0.000690096984054,0.0,0.0,0.0,0.0,0.0,0.0,6.90096984054e-05,0.0,0.0,0.0,0.0,0.0,0.0,6.90096984054e-05,0.0,0.0,0.0,0.0,0.0,0.0,6.90096984054e-05
1663040619914510489,30,1663040619914510489,odom,base_link,0.084620885551,-0.00756487017497,-0.00488446373492,-0.000560135556719,0.000402170873279,-0.0126440101997,0.999919823542,0.0018692375307,0.0,0.0,0.0,0.0,0.0,0.0,0.0018692375307,0.0,0.0,0.0,0.0,0.0,0.0,0.0018692375307,0.0,0.0,0.0,0.0,0.0,0.0,0.00018692375307,0.0,0.0,0.0,0.0,0.0,0.0,0.00018692375307,0.0,0.0,0.0,0.0,0.0,0.0,0.00018692375307,0.133768409491,-0.127527818084,-0.0279809441417,0.00572043517604,-0.0230725686997,-0.0630807653069,0.000934618765349,0.0,0.0,0.0,0.0,0.0,0.0,0.000934618765349,0.0,0.0,0.0,0.0,0.0,0.0,0.000934618765349,0.0,0.0,0.0,0.0,0.0,0.0,9.34618765349e-05,0.0,0.0,0.0,0.0,0.0,0.0,9.34618765349e-05,0.0,0.0,0.0,0.0,0.0,0.0,9.34618765349e-05
1663040620007158518,31,1663040620007158518,odom,base_link,0.0945580974221,-0.0171169340611,-0.0230978503823,0.000350812637143,-0.00233610641434,-0.0143886324361,0.999893687746,0.00202932266224,0.0,0.0,0.0,0.0,0.0,0.0,0.00202932266224,0.0,0.0,0.0,0.0,0.0,0.0,0.00202932266224,0.0,0.0,0.0,0.0,0.0,0.0,0.000202932266224,0.0,0.0,0.0,0.0,0.0,0.0,0.000202932266224,0.0,0.0,0.0,0.0,0.0,0.0,0.000202932266224,0.109985694289,-0.100133247674,-0.19661334157,0.0205282960087,-0.058800984174,-0.0377466753125,0.00101466133112,0.0,0.0,0.0,0.0,0.0,0.0,0.00101466133112,0.0,0.0,0.0,0.0,0.0,0.0,0.00101466133112,0.0,0.0,0.0,0.0,0.0,0.0,0.000101466133112,0.0,0.0,0.0,0.0,0.0,0.0,0.000101466133112,0.0,0.0,0.0,0.0,0.0,0.0,0.000101466133112
1663040620099196911,32,1663040620099196911,odom,base_link,0.106041066349,-0.0174565091729,-0.0215983185917,0.000102763147774,-0.00209279358204,-0.0113922903398,0.999932910437,0.00194653918052,0.0,0.0,0.0,0.0,0.0,0.0,0.00194653918052,0.0,0.0,0.0,0.0,0.0,0.0,0.00194653918052,0.0,0.0,0.0,0.0,0.0,0.0,0.000194653918052,0.0,0.0,0.0,0.0,0.0,0.0,0.000194653918052,0.0,0.0,0.0,0.0,0.0,0.0,0.000194653918052,0.124891929328,-8.5686413513e-05,0.0157105047256,-0.0052981171757,0.00524982996285,0.0651256218553,0.00097326959026,0.0,0.0,0.0,0.0,0.0,0.0,0.00097326959026,0.0,0.0,0.0,0.0,0.0,0.0,0.00097326959026,0.0,0.0,0.0,0.0,0.0,0.0,9.7326959026e-05,0.0,0.0,0.0,0.0,0.0,0.0,9.7326959026e-05,0.0,0.0,0.0,0.0,0.0,0.0,9.7326959026e-05
1663040620210475683,33,1663040620210475683,odom,base_link,0.119213066995,-0.0100864320993,-0.0159301850945,-0.00145103928867,8.97019236109e-05,-0.00934630812107,0.999955265481,0.00187214999699,0.0,0.0,0.0,0.0,0.0,0.0,0.00187214999699,0.0,0.0,0.0,0.0,0.0,0.0,0.00187214999699,0.0,0.0,0.0,0.0,0.0,0.0,0.000187214999699,0.0,0.0,0.0,0.0,0.0,0.0,0.000187214999699,0.0,0.0,0.0,0.0,0.0,0.0,0.000187214999699,0.117041759193,0.0689232200384,0.0504297502339,-0.0282148029655,0.038967449218,0.0367677472532,0.000936074998495,0.0,0.0,0.0,0.0,0.0,0.0,0.000936074998495,0.0,0.0,0.0,0.0,0.0,0.0,0.000936074998495,0.0,0.0,0.0,0.0,0.0,0.0,9.36074998495e-05,0.0,0.0,0.0,0.0,0.0,0.0,9.36074998495e-05,0.0,0.0,0.0,0.0,0.0,0.0,9.36074998495e-05
1663040620302913904,34,1663040620302913904,odom,base_link,0.137218952179,0.00323640182614,-0.0123987225816,-5.91767064358e-05,-8.36473426525e-05,-0.0109488878539,0.999940053881,0.0016091661846,0.0,0.0,0.0,0.0,0.0,0.0,0.0016091661846,0.0,0.0,0.0,0.0,0.0,0.0,0.0016091661846,0.0,0.0,0.0,0.0,0.0,0.0,0.00016091661846,0.0,0.0,0.0,0.0,0.0,0.0,0.00016091661846,0.0,0.0,0.0,0.0,0.0,0.0,0.00016091661846,0.19205442071,0.147631078959,0.0386615619063,0.0301562324166,-0.00337029574439,-0.0346824899316,0.000804583092299,0.0,0.0,0.0,0.0,0.0,0.0,0.000804583092299,0.0,0.0,0.0,0.0,0.0,0.0,0.000804583092299,0.0,0.0,0.0,0.0,0.0,0.0,8.04583092299e-05,0.0,0.0,0.0,0.0,0.0,0.0,8.04583092299e-05,0.0,0.0,0.0,0.0,0.0,0.0,8.04583092299e-05
1663040620395395517,35,1663040620395395517,odom,base_link,0.151775166392,-0.00362114561722,-0.0213878601789,0.000233966771641,-0.00171310530007,-0.0143657808833,0.999895311955,0.00175286989594,0.0,0.0,0.0,0.0,0.0,0.0,0.00175286989594,0.0,0.0,0.0,0.0,0.0,0.0,0.00175286989594,0.0,0.0,0.0,0.0,0.0,0.0,0.000175286989594,0.0,0.0,0.0,0.0,0.0,0.0,0.000175286989594,0.0,0.0,0.0,0.0,0.0,0.0,0.000175286989594,0.158965289593,-0.0706748738885,-0.0972342118621,0.00683885160834,-0.0351395532489,-0.0739135444164,0.000876434947969,0.0,0.0,0.0,0.0,0.0,0.0,0.000876434947969,0.0,0.0,0.0,0.0,0.0,0.0,0.000876434947969,0.0,0.0,0.0,0.0,0.0,0.0,8.76434947969e-05,0.0,0.0,0.0,0.0,0.0,0.0,8.76434947969e-05,0.0,0.0,0.0,0.0,0.0,0.0,8.76434947969e-05
1663040620490047455,36,1663040620490047455,odom,base_link,0.178556978703,-0.0185228176415,-0.0396210923791,-0.000607752515,-0.00507847242402,-0.0116786214502,0.999918721475,0.00190438078567,0.0,0.0,0.0,0.0,0.0,0.0,0.00190438078567,0.0,0.0,0.0,0.0,0.0,0.0,0.00190438078567,0.0,0.0,0.0,0.0,0.0,0.0,0.000190438078567,0.0,0.0,0.0,0.0,0.0,0.0,0.000190438078567,0.0,0.0,0.0,0.0,0.0,0.0,0.000190438078567,0.286696404219,-0.149342626333,-0.193538725376,-0.0168571006507,-0.0712993144989,0.0568853914738,0.000952190392837,0.0,0.0,0.0,0.0,0.0,0.0,0.000952190392837,0.0,0.0,0.0,0.0,0.0,0.0,0.000952190392837,0.0,0.0,0.0,0.0,0.0,0.0,9.52190392837e-05,0.0,0.0,0.0,0.0,0.0,0.0,9.52190392837e-05,0.0,0.0,0.0,0.0,0.0,0.0,9.52190392837e-05
1663040620599017382,37,1663040620599017382,odom,base_link,0.198800891638,-0.0203034505248,-0.0197414848953,-0.0014915764732,-0.00220803908788,-0.00903317168821,0.999955649803,0.00163351640491,0.0,0.0,0.0,0.0,0.0,0.0,0.00163351640491,0.0,0.0,0.0,0.0,0.0,0.0,0.00163351640491,0.0,0.0,0.0,0.0,0.0,0.0,0.000163351640491,0.0,0.0,0.0,0.0,0.0,0.0,0.000163351640491,0.0,0.0,0.0,0.0,0.0,0.0,0.000163351640491,0.187951937318,-0.0121962232515,0.180516600609,-0.0164494048804,0.0525070987642,0.0486253537238,0.000816758202456,0.0,0.0,0.0,0.0,0.0,0.0,0.000816758202456,0.0,0.0,0.0,0.0,0.0,0.0,0.000816758202456,0.0,0.0,0.0,0.0,0.0,0.0,8.16758202456e-05,0.0,0.0,0.0,0.0,0.0,0.0,8.16758202456e-05,0.0,0.0,0.0,0.0,0.0,0.0,8.16758202456e-05
1663040620691596985,38,1663040620691596985,odom,base_link,0.216559112072,-0.0187935493886,-0.018368948251,-0.00135362265034,-0.000709203911298,-0.00621447302264,0.999979522321,0.00130580417044,0.0,0.0,0.0,0.0,0.0,0.0,0.00130580417044,0.0,0.0,0.0,0.0,0.0,0.0,0.00130580417044,0.0,0.0,0.0,0.0,0.0,0.0,0.000130580417044,0.0,0.0,0.0,0.0,0.0,0.0,0.000130580417044,0.0,0.0,0.0,0.0,0.0,0.0,0.000130580417044,0.191553816199,0.019729366526,0.0140326907858,0.00291397399269,0.0323071032763,0.0609406195581,0.000652902085218,0.0,0.0,0.0,0.0,0.0,0.0,0.000652902085218,0.0,0.0,0.0,0.0,0.0,0.0,0.000652902085218,0.0,0.0,0.0,0.0,0.0,0.0,6.52902085218e-05,0.0,0.0,0.0,0.0,0.0,0.0,6.52902085218e-05,0.0,0.0,0.0,0.0,0.0,0.0,6.52902085218e-05
1663040620784382820,39,1663040620784382820,odom,base_link,0.236428871751,-0.0244621001184,-0.0209159161896,-0.00114842136926,-0.00105564385228,-0.00310238574043,0.999993970955,0.000823503887504,0.0,0.0,0.0,0.0,0.0,0.0,0.000823503887504,0.0,0.0,0.0,0.0,0.0,0.0,0.000823503887504,0.0,0.0,0.0,0.0,0.0,0.0,8.23503887504e-05,0.0,0.0,0.0,0.0,0.0,0.0,8.23503887504e-05,0.0,0.0,0.0,0.0,0.0,0.0,8.23503887504e-05,0.214849576354,-0.0583518519998,-0.0279158987105,0.00449398113415,-0.00754447933286,0.0670669525862,0.000411751943752,0.0,0.0,0.0,0.0,0.0,0.0,0.000411751943752,0.0,0.0,0.0,0.0,0.0,0.0,0.000411751943752,0.0,0.0,0.0,0.0,0.0,0.0,4.11751943752e-05,0.0,0.0,0.0,0.0,0.0,0.0,4.11751943752e-05,0.0,0.0,0.0,0.0,0.0,0.0,4.11751943752e-05
1663040620895295382,40,1663040620895295382,odom,base_link,0.254685461521,-0.0253433827311,-0.00952079892159,-0.0013073291973,0.000328390170867,-0.000611797994208,0.999998904376,0.00049231356191,0.0,0.0,0.0,0.0,0.0,0.0,0.00049231356191,0.0,0.0,0.0,0.0,0.0,0.0,0.00049231356191,0.0,0.0,0.0,0.0,0.0,0.0,4.9231356191e-05,0.0,0.0,0.0,0.0,0.0,0.0,4.9231356191e-05,0.0,0.0,0.0,0.0,0.0,0.0,4.9231356191e-05,0.164866775274,-0.00715915346518,0.102374494076,-0.00283330609091,0.0249038338661,0.0449387021363,0.000246156780955,0.0,0.0,0.0,0.0,0.0,0.0,0.000246156780955,0.0,0.0,0.0,0.0,0.0,0.0,0.000246156780955,0.0,0.0,0.0,0.0,0.0,0.0,2.46156780955e-05,0.0,0.0,0.0,0.0,0.0,0.0,2.46156780955e-05,0.0,0.0,0.0,0.0,0.0,0.0,2.46156780955e-05
1663040620987960815,41,1663040620987960815,odom,base_link,0.274591863155,-0.0231149271131,-0.0183383971453,-0.000976249367525,-0.000926596475394,-0.000998907255051,0.999998595269,0.000593973671787,0.0,0.0,0.0,0.0,0.0,0.0,0.000593973671787,0.0,0.0,0.0,0.0,0.0,0.0,0.000593973671787,0.0,0.0,0.0,0.0,0.0,0.0,5.93973671787e-05,0.0,0.0,0.0,0.0,0.0,0.0,5.93973671787e-05,0.0,0.0,0.0,0.0,0.0,0.0,5.93973671787e-05,0.214852944016,0.0245598051697,-0.0949505567551,0.00717554194853,-0.0270682908595,-0.00839705113322,0.000296986835893,0.0,0.0,0.0,0.0,0.0,0.0,0.000296986835893,0.0,0.0,0.0,0.0,0.0,0.0,0.000296986835893,0.0,0.0,0.0,0.0,0.0,0.0,2.96986835893e-05,0.0,0.0,0.0,0.0,0.0,0.0,2.96986835893e-05,0.0,0.0,0.0,0.0,0.0,0.0,2.96986835893e-05
1663040621083019018,42,1663040621083019018,odom,base_link,0.296110898256,-0.0253867283463,-0.00868653412908,-0.00163362880205,0.000621227193416,-0.000568505399623,0.999998311066,0.000749954440864,0.0,0.0,0.0,0.0,0.0,0.0,0.000749954440864,0.0,0.0,0.0,0.0,0.0,0.0,0.000749954440864,0.0,0.0,0.0,0.0,0.0,0.0,7.49954440864e-05,0.0,0.0,0.0,0.0,0.0,0.0,7.49954440864e-05,0.0,0.0,0.0,0.0,0.0,0.0,7.49954440864e-05,0.226612597704,-0.023644361645,0.101070202887,-0.0138411875814,0.0325490944088,0.00907873548567,0.000374977220432,0.0,0.0,0.0,0.0,0.0,0.0,0.000374977220432,0.0,0.0,0.0,0.0,0.0,0.0,0.000374977220432,0.0,0.0,0.0,0.0,0.0,0.0,3.74977220432e-05,0.0,0.0,0.0,0.0,0.0,0.0,3.74977220432e-05,0.0,0.0,0.0,0.0,0.0,0.0,3.74977220432e-05
1663040621175159216,43,1663040621175159216,odom,base_link,0.317890554667,-0.027256352827,-0.0162769332528,-0.00200590772664,-0.000577109881252,0.000723698550606,0.999997559766,0.000773023970299,0.0,0.0,0.0,0.0,0.0,0.0,0.000773023970299,0.0,0.0,0.0,0.0,0.0,0.0,0.000773023970299,0.0,0.0,0.0,0.0,0.0,0.0,7.73023970299e-05,0.0,0.0,0.0,0.0,0.0,0.0,7.73023970299e-05,0.0,0.0,0.0,0.0,0.0,0.0,7.73023970299e-05,0.236500039697,-0.0197534766048,-0.0821504592896,-0.00811697822064,-0.0260510835797,0.0280108507723,0.00038651198515,0.0,0.0,0.0,0.0,0.0,0.0,0.00038651198515,0.0,0.0,0.0,0.0,0.0,0.0,0.00038651198515,0.0,0.0,0.0,0.0,0.0,0.0,3.8651198515e-05,0.0,0.0,0.0,0.0,0.0,0.0,3.8651198515e-05,0.0,0.0,0.0,0.0,0.0,0.0,3.8651198515e-05
1663040621270035744,44,1663040621270035744,odom,base_link,0.344393372536,-0.0262313038111,-0.0160424113274,-0.00151468082657,-0.000801525396906,-0.000545089731383,0.999998383087,0.000953728409233,0.0,0.0,0.0,0.0,0.0,0.0,0.000953728409233,0.0,0.0,0.0,0.0,0.0,0.0,0.000953728409233,0.0,0.0,0.0,0.0,0.0,0.0,9.53728409233e-05,0.0,0.0,0.0,0.0,0.0,0.0,9.53728409233e-05,0.0,0.0,0.0,0.0,0.0,0.0,9.53728409233e-05,0.279357999563,0.0103903394192,0.00219194707461,0.0103421704844,-0.00467137945816,-0.0267638098449,0.000476864204616,0.0,0.0,0.0,0.0,0.0,0.0,0.000476864204616,0.0,0.0,0.0,0.0,0.0,0.0,0.000476864204616,0.0,0.0,0.0,0.0,0.0,0.0,4.76864204616e-05,0.0,0.0,0.0,0.0,0.0,0.0,4.76864204616e-05,0.0,0.0,0.0,0.0,0.0,0.0,4.76864204616e-05
1663040621379058838,45,1663040621379058838,odom,base_link,0.363791227341,-0.0168979912996,-0.0299692340195,-0.00152417506402,-0.00282360588618,-0.000650116114766,0.99999464073,0.000936931010149,0.0,0.0,0.0,0.0,0.0,0.0,0.000936931010149,0.0,0.0,0.0,0.0,0.0,0.0,0.000936931010149,0.0,0.0,0.0,0.0,0.0,0.0,9.36931010149e-05,0.0,0.0,0.0,0.0,0.0,0.0,9.36931010149e-05,0.0,0.0,0.0,0.0,0.0,0.0,9.36931010149e-05,0.177625760436,0.0861893966794,-0.127766728401,-0.000151589454617,-0.0370917506516,-0.00198245979846,0.000468465505075,0.0,0.0,0.0,0.0,0.0,0.0,0.000468465505075,0.0,0.0,0.0,0.0,0.0,0.0,0.000468465505075,0.0,0.0,0.0,0.0,0.0,0.0,4.68465505075e-05,0.0,0.0,0.0,0.0,0.0,0.0,4.68465505075e-05,0.0,0.0,0.0,0.0,0.0,0.0,4.68465505075e-05
1663040621471091986,46,1663040621471091986,odom,base_link,0.393136799335,-0.0227554775774,-0.0446221530437,-0.000254127191627,-0.0059961770007,-0.00167553540092,0.999980586742,0.0011457966255,0.0,0.0,0.0,0.0,0.0,0.0,0.0011457966255,0.0,0.0,0.0,0.0,0.0,0.0,0.0011457966255,0.0,0.0,0.0,0.0,0.0,0.0,0.00011457966255,0.0,0.0,0.0,0.0,0.0,0.0,0.00011457966255,0.0,0.0,0.0,0.0,0.0,0.0,0.00011457966255,0.318036228418,-0.0627429708838,-0.161204472184,0.0276527162641,-0.0688641667366,-0.022554544732,0.000572898312751,0.0,0.0,0.0,0.0,0.0,0.0,0.000572898312751,0.0,0.0,0.0,0.0,0.0,0.0,0.000572898312751,0.0,0.0,0.0,0.0,0.0,0.0,5.72898312751e-05,0.0,0.0,0.0,0.0,0.0,0.0,5.72898312751e-05,0.0,0.0,0.0,0.0,0.0,0.0,5.72898312751e-05
1663040621566200972,47,1663040621566200972,odom,base_link,0.416992753744,-0.0195411853492,-0.0312573090196,-0.000477376926645,-0.00402641835357,-0.00237705927519,0.999988954767,0.00117759833361,0.0,0.0,0.0,0.0,0.0,0.0,0.00117759833361,0.0,0.0,0.0,0.0,0.0,0.0,0.00117759833361,0.0,0.0,0.0,0.0,0.0,0.0,0.000117759833361,0.0,0.0,0.0,0.0,0.0,0.0,0.000117759833361,0.0,0.0,0.0,0.0,0.0,0.0,0.000117759833361,0.25238019228,0.034568388015,0.137521356344,-0.00488133495674,0.0414138585329,-0.0147223807871,0.000588799166805,0.0,0.0,0.0,0.0,0.0,0.0,0.000588799166805,0.0,0.0,0.0,0.0,0.0,0.0,0.000588799166805,0.0,0.0,0.0,0.0,0.0,0.0,5.88799166805e-05,0.0,0.0,0.0,0.0,0.0,0.0,5.88799166805e-05,0.0,0.0,0.0,0.0,0.0,0.0,5.88799166805e-05
1663040621661311150,48,1663040621661311150,odom,base_link,0.440986871719,-0.0132973883301,-0.0495471805334,0.000109356960092,-0.00602598685173,-0.003385374659,0.999976107096,0.000969010003391,0.0,0.0,0.0,0.0,0.0,0.0,0.000969010003391,0.0,0.0,0.0,0.0,0.0,0.0,0.000969010003391,0.0,0.0,0.0,0.0,0.0,0.0,9.69010003391e-05,0.0,0.0,0.0,0.0,0.0,0.0,9.69010003391e-05,0.0,0.0,0.0,0.0,0.0,0.0,9.69010003391e-05,0.250405162573,0.0670275092125,-0.194262653589,0.0123948585242,-0.0419960729778,-0.0212980564684,0.000484505001695,0.0,0.0,0.0,0.0,0.0,0.0,0.000484505001695,0.0,0.0,0.0,0.0,0.0,0.0,0.000484505001695,0.0,0.0,0.0,0.0,0.0,0.0,4.84505001695e-05,0.0,0.0,0.0,0.0,0.0,0.0,4.84505001695e-05,0.0,0.0,0.0,0.0,0.0,0.0,4.84505001695e-05
1663040621769829035,49,1663040621769829035,odom,base_link,0.458869338036,-0.00814447179437,-0.0420276224613,0.000598871575353,-0.00401912794129,-0.00467351567231,0.999980822923,0.000942221536799,0.0,0.0,0.0,0.0,0.0,0.0,0.000942221536799,0.0,0.0,0.0,0.0,0.0,0.0,0.000942221536799,0.0,0.0,0.0,0.0,0.0,0.0,9.42221536799e-05,0.0,0.0,0.0,0.0,0.0,0.0,9.42221536799e-05,0.0,0.0,0.0,0.0,0.0,0.0,9.42221536799e-05,0.165285825729,0.0486168824136,0.0672936737537,0.00870557315648,0.0370255969465,-0.0237807240337,0.0004711107684,0.0,0.0,0.0,0.0,0.0,0.0,0.0004711107684,0.0,0.0,0.0,0.0,0.0,0.0,0.0004711107684,0.0,0.0,0.0,0.0,0.0,0.0,4.711107684e-05,0.0,0.0,0.0,0.0,0.0,0.0,4.711107684e-05,0.0,0.0,0.0,0.0,0.0,0.0,4.711107684e-05
1663040621862149715,50,1663040621862149715,odom,base_link,0.478010207415,-0.0136963920668,-0.0381864085793,-0.000571181828394,-0.0039082772354,-0.00468517083396,0.999981223971,0.000797124337158,0.0,0.0,0.0,0.0,0.0,0.0,0.000797124337158,0.0,0.0,0.0,0.0,0.0,0.0,0.000797124337158,0.0,0.0,0.0,0.0,0.0,0.0,7.97124337158e-05,0.0,0.0,0.0,0.0,0.0,0.0,7.97124337158e-05,0.0,0.0,0.0,0.0,0.0,0.0,7.97124337158e-05,0.208211198449,-0.0581463873386,0.0400080010295,-0.025359371677,0.00228262017481,-0.000154680514243,0.000398562168579,0.0,0.0,0.0,0.0,0.0,0.0,0.000398562168579,0.0,0.0,0.0,0.0,0.0,0.0,0.000398562168579,0.0,0.0,0.0,0.0,0.0,0.0,3.98562168579e-05,0.0,0.0,0.0,0.0,0.0,0.0,3.98562168579e-05,0.0,0.0,0.0,0.0,0.0,0.0,3.98562168579e-05
1663040621954509497,51,1663040621954509497,odom,base_link,0.497446447611,-0.0177720133215,-0.0397589169443,-0.000649456324269,-0.00412981755828,-0.00448300173963,0.999981212578,0.000840723662779,0.0,0.0,0.0,0.0,0.0,0.0,0.000840723662779,0.0,0.0,0.0,0.0,0.0,0.0,0.000840723662779,0.0,0.0,0.0,0.0,0.0,0.0,8.40723662779e-05,0.0,0.0,0.0,0.0,0.0,0.0,8.40723662779e-05,0.0,0.0,0.0,0.0,0.0,0.0,8.40723662779e-05,0.210705116391,-0.042134065181,-0.0187211614102,-0.00165634497534,-0.00480735767633,0.00438203010708,0.00042036183139,0.0,0.0,0.0,0.0,0.0,0.0,0.00042036183139,0.0,0.0,0.0,0.0,0.0,0.0,0.00042036183139,0.0,0.0,0.0,0.0,0.0,0.0,4.2036183139e-05,0.0,0.0,0.0,0.0,0.0,0.0,4.2036183139e-05,0.0,0.0,0.0,0.0,0.0,0.0,4.2036183139e-05
1663040622049444199,52,1663040622049444199,odom,base_link,0.511181354523,-0.0190893169492,-0.040785677731,-0.00100919940792,-0.00428723730304,-0.0046775281897,0.999979360708,0.000841726249668,0.0,0.0,0.0,0.0,0.0,0.0,0.000841726249668,0.0,0.0,0.0,0.0,0.0,0.0,0.000841726249668,0.0,0.0,0.0,0.0,0.0,0.0,8.41726249668e-05,0.0,0.0,0.0,0.0,0.0,0.0,8.41726249668e-05,0.0,0.0,0.0,0.0,0.0,0.0,8.41726249668e-05,0.144701585174,-0.0125637464225,-0.0120277004316,-0.00758003583178,-0.00334923807532,-0.00406783400103,0.000420863124834,0.0,0.0,0.0,0.0,0.0,0.0,0.000420863124834,0.0,0.0,0.0,0.0,0.0,0.0,0.000420863124834,0.0,0.0,0.0,0.0,0.0,0.0,4.20863124834e-05,0.0,0.0,0.0,0.0,0.0,0.0,4.20863124834e-05,0.0,0.0,0.0,0.0,0.0,0.0,4.20863124834e-05
1663040622158102036,53,1663040622158102036,odom,base_link,0.525666773319,-0.0169349517673,-0.0425031110644,-0.000528015307133,-0.00445807097898,-0.00511217957024,0.999976855944,0.00105181712958,0.0,0.0,0.0,0.0,0.0,0.0,0.00105181712958,0.0,0.0,0.0,0.0,0.0,0.0,0.00105181712958,0.0,0.0,0.0,0.0,0.0,0.0,0.000105181712958,0.0,0.0,0.0,0.0,0.0,0.0,0.000105181712958,0.0,0.0,0.0,0.0,0.0,0.0,0.000105181712958,0.132980361581,0.02110568434,-0.0169062502682,0.00883840210736,-0.00309118186124,-0.00804302375764,0.00052590856479,0.0,0.0,0.0,0.0,0.0,0.0,0.00052590856479,0.0,0.0,0.0,0.0,0.0,0.0,0.00052590856479,0.0,0.0,0.0,0.0,0.0,0.0,5.2590856479e-05,0.0,0.0,0.0,0.0,0.0,0.0,5.2590856479e-05,0.0,0.0,0.0,0.0,0.0,0.0,5.2590856479e-05
1663040622250301838,54,1663040622250301838,odom,base_link,0.543559789658,-0.0140015976503,-0.0342000350356,-0.000796425323972,-0.00263294364721,-0.00629457039157,0.999976405571,0.00117207514948,0.0,0.0,0.0,0.0,0.0,0.0,0.00117207514948,0.0,0.0,0.0,0.0,0.0,0.0,0.00117207514948,0.0,0.0,0.0,0.0,0.0,0.0,0.000117207514948,0.0,0.0,0.0,0.0,0.0,0.0,0.000117207514948,0.0,0.0,0.0,0.0,0.0,0.0,0.000117207514948,0.194528132677,0.0337075963616,0.088357411325,-0.00618569226936,0.0395662784576,-0.0256123393774,0.000586037574741,0.0,0.0,0.0,0.0,0.0,0.0,0.000586037574741,0.0,0.0,0.0,0.0,0.0,0.0,0.000586037574741,0.0,0.0,0.0,0.0,0.0,0.0,5.86037574741e-05,0.0,0.0,0.0,0.0,0.0,0.0,5.86037574741e-05,0.0,0.0,0.0,0.0,0.0,0.0,5.86037574741e-05
1663040622342838764,55,1663040622342838764,odom,base_link,0.562060475349,-0.00253791455179,-0.0467512123287,-0.000609651807791,-0.0046113663588,-0.0077818141188,0.999958902653,0.00113258991024,0.0,0.0,0.0,0.0,0.0,0.0,0.00113258991024,0.0,0.0,0.0,0.0,0.0,0.0,0.00113258991024,0.0,0.0,0.0,0.0,0.0,0.0,0.000113258991024,0.0,0.0,0.0,0.0,0.0,0.0,0.000113258991024,0.0,0.0,0.0,0.0,0.0,0.0,0.000113258991024,0.197634547949,0.1266015172,-0.136481553316,0.00428449036554,-0.0427022911608,-0.0321986153722,0.000566294955122,0.0,0.0,0.0,0.0,0.0,0.0,0.000566294955122,0.0,0.0,0.0,0.0,0.0,0.0,0.000566294955122,0.0,0.0,0.0,0.0,0.0,0.0,5.66294955122e-05,0.0,0.0,0.0,0.0,0.0,0.0,5.66294955122e-05,0.0,0.0,0.0,0.0,0.0,0.0,5.66294955122e-05
1663040622435268402,56,1663040622435268402,odom,base_link,0.579441785812,0.000419071409851,-0.057044301182,0.000707274928205,-0.00656849223143,-0.00950328760392,0.999933018855,0.00136257689411,0.0,0.0,0.0,0.0,0.0,0.0,0.00136257689411,0.0,0.0,0.0,0.0,0.0,0.0,0.00136257689411,0.0,0.0,0.0,0.0,0.0,0.0,0.000136257689411,0.0,0.0,0.0,0.0,0.0,0.0,0.000136257689411,0.0,0.0,0.0,0.0,0.0,0.0,0.000136257689411,0.186492398381,0.0350432991982,-0.113047711551,0.0287249535322,-0.0420552194118,-0.0374653823674,0.000681288447054,0.0,0.0,0.0,0.0,0.0,0.0,0.000681288447054,0.0,0.0,0.0,0.0,0.0,0.0,0.000681288447054,0.0,0.0,0.0,0.0,0.0,0.0,6.81288447054e-05,0.0,0.0,0.0,0.0,0.0,0.0,6.81288447054e-05,0.0,0.0,0.0,0.0,0.0,0.0,6.81288447054e-05
1663040622543882608,57,1663040622543882608,odom,base_link,0.583978295326,-0.0181564502418,-0.0453073270619,-0.0029941880163,-0.00507627034192,-0.00839677486831,0.99994737886,0.00181536355748,0.0,0.0,0.0,0.0,0.0,0.0,0.00181536355748,0.0,0.0,0.0,0.0,0.0,0.0,0.00181536355748,0.0,0.0,0.0,0.0,0.0,0.0,0.000181536355748,0.0,0.0,0.0,0.0,0.0,0.0,0.000181536355748,0.0,0.0,0.0,0.0,0.0,0.0,0.000181536355748,0.0464262738824,-0.170032128692,0.107723020017,-0.0682509019971,0.0269210189581,0.0207049325109,0.000907681778739,0.0,0.0,0.0,0.0,0.0,0.0,0.000907681778739,0.0,0.0,0.0,0.0,0.0,0.0,0.000907681778739,0.0,0.0,0.0,0.0,0.0,0.0,9.07681778739e-05,0.0,0.0,0.0,0.0,0.0,0.0,9.07681778739e-05,0.0,0.0,0.0,0.0,0.0,0.0,9.07681778739e-05
1663040622636200428,58,1663040622636200428,odom,base_link,0.589931964874,-0.00851061288267,-0.0389709770679,-0.000981610642674,-0.00464635208532,-0.0104375602309,0.999934250433,0.00172662085078,0.0,0.0,0.0,0.0,0.0,0.0,0.00172662085078,0.0,0.0,0.0,0.0,0.0,0.0,0.00172662085078,0.0,0.0,0.0,0.0,0.0,0.0,0.000172662085078,0.0,0.0,0.0,0.0,0.0,0.0,0.000172662085078,0.0,0.0,0.0,0.0,0.0,0.0,0.000172662085078,0.0634276345372,0.105148300529,0.0686145946383,0.0432751141489,0.00989914219826,-0.044386010617,0.000863310425389,0.0,0.0,0.0,0.0,0.0,0.0,0.000863310425389,0.0,0.0,0.0,0.0,0.0,0.0,0.000863310425389,0.0,0.0,0.0,0.0,0.0,0.0,8.63310425389e-05,0.0,0.0,0.0,0.0,0.0,0.0,8.63310425389e-05,0.0,0.0,0.0,0.0,0.0,0.0,8.63310425389e-05
1663040622729168653,59,1663040622729168653,odom,base_link,0.602024137974,-0.00528407283127,-0.0487990900874,-0.00138636740074,-0.00506779752548,-0.0115839337105,0.999919100674,0.0018507835858,0.0,0.0,0.0,0.0,0.0,0.0,0.0018507835858,0.0,0.0,0.0,0.0,0.0,0.0,0.0018507835858,0.0,0.0,0.0,0.0,0.0,0.0,0.00018507835858,0.0,0.0,0.0,0.0,0.0,0.0,0.00018507835858,0.0,0.0,0.0,0.0,0.0,0.0,0.00018507835858,0.128325223923,0.0376116707921,-0.106844425201,-0.00871665868908,-0.00914400629699,-0.0246281065047,0.000925391792902,0.0,0.0,0.0,0.0,0.0,0.0,0.000925391792902,0.0,0.0,0.0,0.0,0.0,0.0,0.000925391792902,0.0,0.0,0.0,0.0,0.0,0.0,9.25391792902e-05,0.0,0.0,0.0,0.0,0.0,0.0,9.25391792902e-05,0.0,0.0,0.0,0.0,0.0,0.0,9.25391792902e-05
1663040622821448088,60,1663040622821448088,odom,base_link,0.620172262192,-0.00495543237776,-0.0513251572847,-0.000713785427608,-0.00628238674211,-0.0115522309485,0.999913280283,0.00177556346809,0.0,0.0,0.0,0.0,0.0,0.0,0.00177556346809,0.0,0.0,0.0,0.0,0.0,0.0,0.00177556346809,0.0,0.0,0.0,0.0,0.0,0.0,0.000177556346809,0.0,0.0,0.0,0.0,0.0,0.0,0.000177556346809,0.0,0.0,0.0,0.0,0.0,0.0,0.000177556346809,0.196241170168,0.00819177273661,-0.0293491538614,0.0148834781721,-0.0261551439762,0.000557255290914,0.000887781734043,0.0,0.0,0.0,0.0,0.0,0.0,0.000887781734043,0.0,0.0,0.0,0.0,0.0,0.0,0.000887781734043,0.0,0.0,0.0,0.0,0.0,0.0,8.87781734043e-05,0.0,0.0,0.0,0.0,0.0,0.0,8.87781734043e-05,0.0,0.0,0.0,0.0,0.0,0.0,8.87781734043e-05
1663040622932914257,61,1663040622932914257,odom,base_link,0.647675454617,0.010568510741,-0.0450132675469,-0.00192486100656,-0.00478457405664,-0.0140906116215,0.999887422376,0.00150533206306,0.0,0.0,0.0,0.0,0.0,0.0,0.00150533206306,0.0,0.0,0.0,0.0,0.0,0.0,0.00150533206306,0.0,0.0,0.0,0.0,0.0,0.0,0.000150533206306,0.0,0.0,0.0,0.0,0.0,0.0,0.000150533206306,0.0,0.0,0.0,0.0,0.0,0.0,0.000150533206306,0.244151085615,0.144863039255,0.0537446476519,-0.0223923921585,0.0265944246203,-0.045424323529,0.00075266603153,0.0,0.0,0.0,0.0,0.0,0.0,0.00075266603153,0.0,0.0,0.0,0.0,0.0,0.0,0.00075266603153,0.0,0.0,0.0,0.0,0.0,0.0,7.5266603153e-05,0.0,0.0,0.0,0.0,0.0,0.0,7.5266603153e-05,0.0,0.0,0.0,0.0,0.0,0.0,7.5266603153e-05
1663040623025069475,62,1663040623025069475,odom,base_link,0.678705334663,0.00559003045782,-0.0345468074083,-0.00180070416933,-0.00421698443173,-0.0140342699082,0.999891000947,0.00170708181925,0.0,0.0,0.0,0.0,0.0,0.0,0.00170708181925,0.0,0.0,0.0,0.0,0.0,0.0,0.00170708181925,0.0,0.0,0.0,0.0,0.0,0.0,0.000170708181925,0.0,0.0,0.0,0.0,0.0,0.0,0.000170708181925,0.0,0.0,0.0,0.0,0.0,0.0,0.000170708181925,0.339178115129,-0.0449286624789,0.110149525106,0.00252735265531,0.0123525969684,0.00123602442909,0.000853540909623,0.0,0.0,0.0,0.0,0.0,0.0,0.000853540909623,0.0,0.0,0.0,0.0,0.0,0.0,0.000853540909623,0.0,0.0,0.0,0.0,0.0,0.0,8.53540909623e-05,0.0,0.0,0.0,0.0,0.0,0.0,8.53540909623e-05,0.0,0.0,0.0,0.0,0.0,0.0,8.53540909623e-05
1663040623117866993,63,1663040623117866993,odom,base_link,0.6951187253,-0.00895521789789,-0.0575740449131,-0.000647487261527,-0.00834058634156,-0.0148529676033,0.999854691809,0.00178420260424,0.0,0.0,0.0,0.0,0.0,0.0,0.00178420260424,0.0,0.0,0.0,0.0,0.0,0.0,0.00178420260424,0.0,0.0,0.0,0.0,0.0,0.0,0.000178420260424,0.0,0.0,0.0,0.0,0.0,0.0,0.000178420260424,0.0,0.0,0.0,0.0,0.0,0.0,0.000178420260424,0.179088488221,-0.150848120451,-0.250200152397,0.0260974448174,-0.0884646251798,-0.018025983125,0.000892101302119,0.0,0.0,0.0,0.0,0.0,0.0,0.000892101302119,0.0,0.0,0.0,0.0,0.0,0.0,0.000892101302119,0.0,0.0,0.0,0.0,0.0,0.0,8.92101302119e-05,0.0,0.0,0.0,0.0,0.0,0.0,8.92101302119e-05,0.0,0.0,0.0,0.0,0.0,0.0,8.92101302119e-05
1663040623212575912,64,1663040623212575912,odom,base_link,0.711904168129,-0.00950292497873,-0.051085434854,-9.32702268262e-05,-0.00757795742304,-0.0135373999224,0.99987964509,0.00185523161192,0.0,0.0,0.0,0.0,0.0,0.0,0.00185523161192,0.0,0.0,0.0,0.0,0.0,0.0,0.00185523161192,0.0,0.0,0.0,0.0,0.0,0.0,0.000185523161192,0.0,0.0,0.0,0.0,0.0,0.0,0.000185523161192,0.0,0.0,0.0,0.0,0.0,0.0,0.000185523161192,0.178444653749,-0.000586245267186,0.0655399784446,0.0117160668597,0.0162472426891,0.0277069248259,0.000927615805962,0.0,0.0,0.0,0.0,0.0,0.0,0.000927615805962,0.0,0.0,0.0,0.0,0.0,0.0,0.000927615805962,0.0,0.0,0.0,0.0,0.0,0.0,9.27615805962e-05,0.0,0.0,0.0,0.0,0.0,0.0,9.27615805962e-05,0.0,0.0,0.0,0.0,0.0,0.0,9.27615805962e-05
1663040623321225643,65,1663040623321225643,odom,base_link,0.729458451271,-0.00517136882991,-0.0539256483316,-0.00105228111071,-0.00593245622915,-0.0143045841901,0.999879531513,0.00187394779547,0.0,0.0,0.0,0.0,0.0,0.0,0.00187394779547,0.0,0.0,0.0,0.0,0.0,0.0,0.00187394779547,0.0,0.0,0.0,0.0,0.0,0.0,0.000187394779547,0.0,0.0,0.0,0.0,0.0,0.0,0.000187394779547,0.0,0.0,0.0,0.0,0.0,0.0,0.000187394779547,0.160014599562,0.0442261807621,-0.0285703893751,-0.0181910954416,0.0300348773599,-0.0140135744587,0.000936973897736,0.0,0.0,0.0,0.0,0.0,0.0,0.000936973897736,0.0,0.0,0.0,0.0,0.0,0.0,0.000936973897736,0.0,0.0,0.0,0.0,0.0,0.0,9.36973897736e-05,0.0,0.0,0.0,0.0,0.0,0.0,9.36973897736e-05,0.0,0.0,0.0,0.0,0.0,0.0,9.36973897736e-05
1663040623413562298,66,1663040623413562298,odom,base_link,0.732507228851,-0.0269717462361,-0.0780969709158,-0.000484178146235,-0.0122007333737,-0.0135281760471,0.999833934276,0.00201041445695,0.0,0.0,0.0,0.0,0.0,0.0,0.00201041445695,0.0,0.0,0.0,0.0,0.0,0.0,0.00201041445695,0.0,0.0,0.0,0.0,0.0,0.0,0.000201041445695,0.0,0.0,0.0,0.0,0.0,0.0,0.000201041445695,0.0,0.0,0.0,0.0,0.0,0.0,0.000201041445695,0.0366393998265,-0.234548225999,-0.262682408094,0.0142414169386,-0.135613039136,0.0164960846305,0.00100520722847,0.0,0.0,0.0,0.0,0.0,0.0,0.00100520722847,0.0,0.0,0.0,0.0,0.0,0.0,0.00100520722847,0.0,0.0,0.0,0.0,0.0,0.0,0.000100520722847,0.0,0.0,0.0,0.0,0.0,0.0,0.000100520722847,0.0,0.0,0.0,0.0,0.0,0.0,0.000100520722847
1663040623505792856,67,1663040623505792856,odom,base_link,0.751313924789,-0.0312305875123,-0.122950285673,0.00134068931294,-0.0208252860742,-0.0129136928708,0.999698827922,0.00217717121825,0.0,0.0,0.0,0.0,0.0,0.0,0.00217717121825,0.0,0.0,0.0,0.0,0.0,0.0,0.00217717121825,0.0,0.0,0.0,0.0,0.0,0.0,0.000217717121825,0.0,0.0,0.0,0.0,0.0,0.0,0.000217717121825,0.0,0.0,0.0,0.0,0.0,0.0,0.000217717121825,0.19315135479,-0.0403302684426,-0.491204351187,0.042151901871,-0.18652407825,0.0123476423323,0.00108858560912,0.0,0.0,0.0,0.0,0.0,0.0,0.00108858560912,0.0,0.0,0.0,0.0,0.0,0.0,0.00108858560912,0.0,0.0,0.0,0.0,0.0,0.0,0.000108858560912,0.0,0.0,0.0,0.0,0.0,0.0,0.000108858560912,0.0,0.0,0.0,0.0,0.0,0.0,0.000108858560912
1663040623601106882,68,1663040623601106882,odom,base_link,0.777365148067,-0.0538262277842,-0.041844882071,-0.00295949465443,-0.00370464986803,-0.00975624868616,0.999941164555,0.00216855480535,0.0,0.0,0.0,0.0,0.0,0.0,0.00216855480535,0.0,0.0,0.0,0.0,0.0,0.0,0.00216855480535,0.0,0.0,0.0,0.0,0.0,0.0,0.000216855480535,0.0,0.0,0.0,0.0,0.0,0.0,0.000216855480535,0.0,0.0,0.0,0.0,0.0,0.0,0.000216855480535,0.314527392387,-0.227204889059,0.83930516243,-0.0923555567861,0.358482003212,0.0661293938756,0.00108427740267,0.0,0.0,0.0,0.0,0.0,0.0,0.00108427740267,0.0,0.0,0.0,0.0,0.0,0.0,0.00108427740267,0.0,0.0,0.0,0.0,0.0,0.0,0.000108427740267,0.0,0.0,0.0,0.0,0.0,0.0,0.000108427740267,0.0,0.0,0.0,0.0,0.0,0.0,0.000108427740267
1663040623709559917,69,1663040623709559917,odom,base_link,0.788738787174,-0.0327421501279,-0.0310171507299,-0.00195750063405,-0.000199452032929,-0.00900660257943,0.999957503857,0.00197179781928,0.0,0.0,0.0,0.0,0.0,0.0,0.00197179781928,0.0,0.0,0.0,0.0,0.0,0.0,0.00197179781928,0.0,0.0,0.0,0.0,0.0,0.0,0.000197179781928,0.0,0.0,0.0,0.0,0.0,0.0,0.000197179781928,0.0,0.0,0.0,0.0,0.0,0.0,0.000197179781928,0.101805403829,0.195831820369,0.100227251649,0.01794764027,0.0647631436586,0.0140124550089,0.000985898909639,0.0,0.0,0.0,0.0,0.0,0.0,0.000985898909639,0.0,0.0,0.0,0.0,0.0,0.0,0.000985898909639,0.0,0.0,0.0,0.0,0.0,0.0,9.85898909639e-05,0.0,0.0,0.0,0.0,0.0,0.0,9.85898909639e-05,0.0,0.0,0.0,0.0,0.0,0.0,9.85898909639e-05
1663040623801897049,70,1663040623801897049,odom,base_link,0.825791954994,0.000191271305084,-0.0432930365205,-0.00268742280096,-0.0022918354347,-0.011542822322,0.999927141597,0.00151705695592,0.0,0.0,0.0,0.0,0.0,0.0,0.00151705695592,0.0,0.0,0.0,0.0,0.0,0.0,0.00151705695592,0.0,0.0,0.0,0.0,0.0,0.0,0.000151705695592,0.0,0.0,0.0,0.0,0.0,0.0,0.000151705695592,0.0,0.0,0.0,0.0,0.0,0.0,0.000151705695592,0.394734561443,0.364352732897,-0.131693661213,-0.0152981532738,-0.0453926026821,-0.0549911558628,0.000758528477959,0.0,0.0,0.0,0.0,0.0,0.0,0.000758528477959,0.0,0.0,0.0,0.0,0.0,0.0,0.000758528477959,0.0,0.0,0.0,0.0,0.0,0.0,7.58528477959e-05,0.0,0.0,0.0,0.0,0.0,0.0,7.58528477959e-05,0.0,0.0,0.0,0.0,0.0,0.0,7.58528477959e-05
1663040623894343376,71,1663040623894343376,odom,base_link,0.842450678349,-0.0174735803157,-0.0517142117023,-0.00224424090422,-0.00362400445961,-0.0106409207669,0.999934298231,0.00186766614592,0.0,0.0,0.0,0.0,0.0,0.0,0.00186766614592,0.0,0.0,0.0,0.0,0.0,0.0,0.00186766614592,0.0,0.0,0.0,0.0,0.0,0.0,0.000186766614592,0.0,0.0,0.0,0.0,0.0,0.0,0.000186766614592,0.0,0.0,0.0,0.0,0.0,0.0,0.000186766614592,0.184134408832,-0.18638189137,-0.0929421335459,0.00993919931352,-0.0287686213851,0.0193996541202,0.000933833072959,0.0,0.0,0.0,0.0,0.0,0.0,0.000933833072959,0.0,0.0,0.0,0.0,0.0,0.0,0.000933833072959,0.0,0.0,0.0,0.0,0.0,0.0,9.33833072959e-05,0.0,0.0,0.0,0.0,0.0,0.0,9.33833072959e-05,0.0,0.0,0.0,0.0,0.0,0.0,9.33833072959e-05
1663040623988951921,72,1663040623988951921,odom,base_link,0.862085521221,0.00551578775048,-0.0631078779697,0.000341136325605,-0.00932717526082,-0.00464071357075,0.999945674127,0.000891280398918,0.0,0.0,0.0,0.0,0.0,0.0,0.000891280398918,0.0,0.0,0.0,0.0,0.0,0.0,0.000891280398918,0.0,0.0,0.0,0.0,0.0,0.0,8.91280398918e-05,0.0,0.0,0.0,0.0,0.0,0.0,8.91280398918e-05,0.0,0.0,0.0,0.0,0.0,0.0,8.91280398918e-05,0.201439827681,0.247888252139,-0.120810098946,0.0556766167283,-0.12059302628,0.126054048538,0.000445640199459,0.0,0.0,0.0,0.0,0.0,0.0,0.000445640199459,0.0,0.0,0.0,0.0,0.0,0.0,0.000445640199459,0.0,0.0,0.0,0.0,0.0,0.0,4.45640199459e-05,0.0,0.0,0.0,0.0,0.0,0.0,4.45640199459e-05,0.0,0.0,0.0,0.0,0.0,0.0,4.45640199459e-05
1663040624097859621,73,1663040624097859621,odom,base_link,0.86472338438,-0.0198204740882,-0.0465054512024,-0.00122955170964,-0.00554303079011,0.00153487363679,0.999982703438,0.00108496861955,0.0,0.0,0.0,0.0,0.0,0.0,0.00108496861955,0.0,0.0,0.0,0.0,0.0,0.0,0.00108496861955,0.0,0.0,0.0,0.0,0.0,0.0,0.000108496861955,0.0,0.0,0.0,0.0,0.0,0.0,0.000108496861955,0.0,0.0,0.0,0.0,0.0,0.0,0.000108496861955,0.0292195361108,-0.232287853956,0.1521050632,-0.027678322047,0.0695728063583,0.113548696041,0.000542484309773,0.0,0.0,0.0,0.0,0.0,0.0,0.000542484309773,0.0,0.0,0.0,0.0,0.0,0.0,0.000542484309773,0.0,0.0,0.0,0.0,0.0,0.0,5.42484309773e-05,0.0,0.0,0.0,0.0,0.0,0.0,5.42484309773e-05,0.0,0.0,0.0,0.0,0.0,0.0,5.42484309773e-05
1663040624192825794,74,1663040624192825794,odom,base_link,0.863703370094,-0.0117986425757,-0.0576382502913,-0.00226252329079,-0.00786741485729,-0.00297134346316,0.999962077226,0.00107444519324,0.0,0.0,0.0,0.0,0.0,0.0,0.00107444519324,0.0,0.0,0.0,0.0,0.0,0.0,0.00107444519324,0.0,0.0,0.0,0.0,0.0,0.0,0.000107444519324,0.0,0.0,0.0,0.0,0.0,0.0,0.000107444519324,0.0,0.0,0.0,0.0,0.0,0.0,0.000107444519324,-0.0117789348587,0.0847928524017,-0.116896174848,-0.0221360325813,-0.0489035248756,-0.0947880297899,0.000537222596621,0.0,0.0,0.0,0.0,0.0,0.0,0.000537222596621,0.0,0.0,0.0,0.0,0.0,0.0,0.000537222596621,0.0,0.0,0.0,0.0,0.0,0.0,5.37222596621e-05,0.0,0.0,0.0,0.0,0.0,0.0,5.37222596621e-05,0.0,0.0,0.0,0.0,0.0,0.0,5.37222596621e-05
1663040624285404921,75,1663040624285404921,odom,base_link,0.864703178406,0.00149788241833,-0.0408967770636,-0.00213743463053,-0.00625096259826,-0.00805001215762,0.999945775602,0.00125809239614,0.0,0.0,0.0,0.0,0.0,0.0,0.00125809239614,0.0,0.0,0.0,0.0,0.0,0.0,0.00125809239614,0.0,0.0,0.0,0.0,0.0,0.0,0.000125809239614,0.0,0.0,0.0,0.0,0.0,0.0,0.000125809239614,0.0,0.0,0.0,0.0,0.0,0.0,0.000125809239614,0.0127972858027,0.142874106765,0.181296795607,0.00155592616647,0.0351809822023,-0.109652414918,0.000629046198071,0.0,0.0,0.0,0.0,0.0,0.0,0.000629046198071,0.0,0.0,0.0,0.0,0.0,0.0,0.000629046198071,0.0,0.0,0.0,0.0,0.0,0.0,6.29046198071e-05,0.0,0.0,0.0,0.0,0.0,0.0,6.29046198071e-05,0.0,0.0,0.0,0.0,0.0,0.0,6.29046198071e-05
1663040624379968166,76,1663040624379968166,odom,base_link,0.873910009861,0.0133150937036,-0.0339159071445,-0.000972940255291,-0.0052963630729,-0.0150789084078,0.999871806006,0.00181297208835,0.0,0.0,0.0,0.0,0.0,0.0,0.00181297208835,0.0,0.0,0.0,0.0,0.0,0.0,0.00181297208835,0.0,0.0,0.0,0.0,0.0,0.0,0.000181297208835,0.0,0.0,0.0,0.0,0.0,0.0,0.000181297208835,0.0,0.0,0.0,0.0,0.0,0.0,0.000181297208835,0.0962585732341,0.126210793853,0.0731487423182,0.0233863126487,0.0208598189056,-0.148753866553,0.000906486044177,0.0,0.0,0.0,0.0,0.0,0.0,0.000906486044177,0.0,0.0,0.0,0.0,0.0,0.0,0.000906486044177,0.0,0.0,0.0,0.0,0.0,0.0,9.06486044177e-05,0.0,0.0,0.0,0.0,0.0,0.0,9.06486044177e-05,0.0,0.0,0.0,0.0,0.0,0.0,9.06486044177e-05
1663040624488886356,77,1663040624488886356,odom,base_link,0.885057687759,0.0209909994155,-0.0337436161935,-0.00246266036767,-0.00225928848407,-0.0178199553925,0.999835626545,0.0020280804576,0.0,0.0,0.0,0.0,0.0,0.0,0.0020280804576,0.0,0.0,0.0,0.0,0.0,0.0,0.0020280804576,0.0,0.0,0.0,0.0,0.0,0.0,0.00020280804576,0.0,0.0,0.0,0.0,0.0,0.0,0.00020280804576,0.0,0.0,0.0,0.0,0.0,0.0,0.00020280804576,0.100189127028,0.0735263153911,0.000649097841233,-0.028611022979,0.0553159229457,-0.0502231530845,0.0010140402288,0.0,0.0,0.0,0.0,0.0,0.0,0.0010140402288,0.0,0.0,0.0,0.0,0.0,0.0,0.0010140402288,0.0,0.0,0.0,0.0,0.0,0.0,0.00010140402288,0.0,0.0,0.0,0.0,0.0,0.0,0.00010140402288,0.0,0.0,0.0,0.0,0.0,0.0,0.00010140402288
1663040624583551168,78,1663040624583551168,odom,base_link,0.912838637829,0.00951666384935,-0.030871745199,-0.00124782414952,-0.00322809170461,-0.0152876541292,0.999877147449,0.00171727606541,0.0,0.0,0.0,0.0,0.0,0.0,0.00171727606541,0.0,0.0,0.0,0.0,0.0,0.0,0.00171727606541,0.0,0.0,0.0,0.0,0.0,0.0,0.000171727606541,0.0,0.0,0.0,0.0,0.0,0.0,0.000171727606541,0.0,0.0,0.0,0.0,0.0,0.0,0.000171727606541,0.297734797001,-0.110817976296,0.0284298472106,0.0260986704379,-0.0202031247318,0.0533739551902,0.000858638032707,0.0,0.0,0.0,0.0,0.0,0.0,0.000858638032707,0.0,0.0,0.0,0.0,0.0,0.0,0.000858638032707,0.0,0.0,0.0,0.0,0.0,0.0,8.58638032707e-05,0.0,0.0,0.0,0.0,0.0,0.0,8.58638032707e-05,0.0,0.0,0.0,0.0,0.0,0.0,8.58638032707e-05
