%time,field.header.seq,field.header.stamp,field.header.frame_id,field.child_frame_id,field.pose.pose.position.x,field.pose.pose.position.y,field.pose.pose.position.z,field.pose.pose.orientation.x,field.pose.pose.orientation.y,field.pose.pose.orientation.z,field.pose.pose.orientation.w,field.pose.covariance0,field.pose.covariance1,field.pose.covariance2,field.pose.covariance3,field.pose.covariance4,field.pose.covariance5,field.pose.covariance6,field.pose.covariance7,field.pose.covariance8,field.pose.covariance9,field.pose.covariance10,field.pose.covariance11,field.pose.covariance12,field.pose.covariance13,field.pose.covariance14,field.pose.covariance15,field.pose.covariance16,field.pose.covariance17,field.pose.covariance18,field.pose.covariance19,field.pose.covariance20,field.pose.covariance21,field.pose.covariance22,field.pose.covariance23,field.pose.covariance24,field.pose.covariance25,field.pose.covariance26,field.pose.covariance27,field.pose.covariance28,field.pose.covariance29,field.pose.covariance30,field.pose.covariance31,field.pose.covariance32,field.pose.covariance33,field.pose.covariance34,field.pose.covariance35,field.twist.twist.linear.x,field.twist.twist.linear.y,field.twist.twist.linear.z,field.twist.twist.angular.x,field.twist.twist.angular.y,field.twist.twist.angular.z,field.twist.covariance0,field.twist.covariance1,field.twist.covariance2,field.twist.covariance3,field.twist.covariance4,field.twist.covariance5,field.twist.covariance6,field.twist.covariance7,field.twist.covariance8,field.twist.covariance9,field.twist.covariance10,field.twist.covariance11,field.twist.covariance12,field.twist.covariance13,field.twist.covariance14,field.twist.covariance15,field.twist.covariance16,field.twist.covariance17,field.twist.covariance18,field.twist.covariance19,field.twist.covariance20,field.twist.covariance21,field.twist.covariance22,field.twist.covariance23,field.twist.covariance24,field.twist.covariance25,field.twist.covariance26,field.twist.covariance27,field.twist.covariance28,field.twist.covariance29,field.twist.covariance30,field.twist.covariance31,field.twist.covariance32,field.twist.covariance33,field.twist.covariance34,field.twist.covariance35
1662961736896408796,0,1662961736896408796,icp_odom,base_link,0.0,0.0,0.0,0.0,0.0,0.0,1.0,19998.0,0.0,0.0,0.0,0.0,0.0,0.0,19998.0,0.0,0.0,0.0,0.0,0.0,0.0,19998.0,0.0,0.0,0.0,0.0,0.0,0.0,19998.0,0.0,0.0,0.0,0.0,0.0,0.0,19998.0,0.0,0.0,0.0,0.0,0.0,0.0,19998.0,0.0,0.0,0.0,0.0,0.0,0.0,9999.0,0.0,0.0,0.0,0.0,0.0,0.0,9999.0,0.0,0.0,0.0,0.0,0.0,0.0,9999.0,0.0,0.0,0.0,0.0,0.0,0.0,9999.0,0.0,0.0,0.0,0.0,0.0,0.0,9999.0,0.0,0.0,0.0,0.0,0.0,0.0,9999.0
1662961737004617691,1,1662961737004617691,icp_odom,base_link,-0.000762369832955,0.000779115769546,-0.00357665214688,0.000654681197201,-0.000713890465369,-0.00014894870177,0.999999519783,8.26841890262e-05,0.0,0.0,0.0,0.0,0.0,0.0,8.26841890262e-05,0.0,0.0,0.0,0.0,0.0,0.0,8.26841890262e-05,0.0,0.0,0.0,0.0,0.0,0.0,8.26841890262e-06,0.0,0.0,0.0,0.0,0.0,0.0,8.26841890262e-06,0.0,0.0,0.0,0.0,0.0,0.0,8.26841890262e-06,-0.00704535283148,0.0072001083754,-0.0330532193184,0.0121022984385,-0.0131928687915,-0.00276162428781,4.13420945131e-05,0.0,0.0,0.0,0.0,0.0,0.0,4.13420945131e-05,0.0,0.0,0.0,0.0,0.0,0.0,4.13420945131e-05,0.0,0.0,0.0,0.0,0.0,0.0,4.13420945131e-06,0.0,0.0,0.0,0.0,0.0,0.0,4.13420945131e-06,0.0,0.0,0.0,0.0,0.0,0.0,4.13420945131e-06
1662961737096763849,2,1662961737096763849,icp_odom,base_link,-0.000938156037591,-0.00093069934519,-0.00425976887345,0.000241876472681,-0.00079173918425,-8.50224311815e-05,0.999999653708,7.83432859113e-05,0.0,0.0,0.0,0.0,0.0,0.0,7.83432859113e-05,0.0,0.0,0.0,0.0,0.0,0.0,7.83432859113e-05,0.0,0.0,0.0,0.0,0.0,0.0,7.83432859113e-06,0.0,0.0,0.0,0.0,0.0,0.0,7.83432859113e-06,0.0,0.0,0.0,0.0,0.0,0.0,7.83432859113e-06,-0.00191272539087,-0.0185657255352,-0.00738637289032,-0.00895864516497,-0.00168952648528,0.00139569689054,3.91716429556e-05,0.0,0.0,0.0,0.0,0.0,0.0,3.91716429556e-05,0.0,0.0,0.0,0.0,0.0,0.0,3.91716429556e-05,0.0,0.0,0.0,0.0,0.0,0.0,3.91716429556e-06,0.0,0.0,0.0,0.0,0.0,0.0,3.91716429556e-06,0.0,0.0,0.0,0.0,0.0,0.0,3.91716429556e-06
1662961737192037821,3,1662961737192037821,icp_odom,base_link,-0.000751719402615,-0.000718357157893,-0.00457344995812,0.000290130646255,-0.000850986282444,-9.2931413749e-05,0.999999591505,5.6595914737e-05,0.0,0.0,0.0,0.0,0.0,0.0,5.6595914737e-05,0.0,0.0,0.0,0.0,0.0,0.0,5.6595914737e-05,0.0,0.0,0.0,0.0,0.0,0.0,5.6595914737e-06,0.0,0.0,0.0,0.0,0.0,0.0,5.6595914737e-06,0.0,0.0,0.0,0.0,0.0,0.0,5.6595914737e-06,0.00195125164464,0.00222749169916,-0.00329658552073,0.00101293972693,-0.00124366569798,-0.000166587153217,2.82979573685e-05,0.0,0.0,0.0,0.0,0.0,0.0,2.82979573685e-05,0.0,0.0,0.0,0.0,0.0,0.0,2.82979573685e-05,0.0,0.0,0.0,0.0,0.0,0.0,2.82979573685e-06,0.0,0.0,0.0,0.0,0.0,0.0,2.82979573685e-06,0.0,0.0,0.0,0.0,0.0,0.0,2.82979573685e-06
1662961737284480810,4,1662961737284480810,icp_odom,base_link,-0.000916682532988,-0.00099735124968,-0.00450778892264,0.000256278167757,-0.000895043347522,-1.16704109387e-05,0.999999566541,6.8720473327e-05,0.0,0.0,0.0,0.0,0.0,0.0,6.8720473327e-05,0.0,0.0,0.0,0.0,0.0,0.0,6.8720473327e-05,0.0,0.0,0.0,0.0,0.0,0.0,6.8720473327e-06,0.0,0.0,0.0,0.0,0.0,0.0,6.8720473327e-06,0.0,0.0,0.0,0.0,0.0,0.0,6.8720473327e-06,-0.00178271112964,-0.00301792984828,0.000715075351764,-0.000730889383703,-0.00095267011784,0.00175900943577,3.43602366635e-05,0.0,0.0,0.0,0.0,0.0,0.0,3.43602366635e-05,0.0,0.0,0.0,0.0,0.0,0.0,3.43602366635e-05,0.0,0.0,0.0,0.0,0.0,0.0,3.43602366635e-06,0.0,0.0,0.0,0.0,0.0,0.0,3.43602366635e-06,0.0,0.0,0.0,0.0,0.0,0.0,3.43602366635e-06
1662961737392612696,5,1662961737392612696,icp_odom,base_link,-0.00109044753481,-0.00204946147278,-0.00528187770396,4.15135834771e-05,-0.000981575388699,0.000283858304422,0.999999477105,6.9268422375e-05,0.0,0.0,0.0,0.0,0.0,0.0,6.9268422375e-05,0.0,0.0,0.0,0.0,0.0,0.0,6.9268422375e-05,0.0,0.0,0.0,0.0,0.0,0.0,6.9268422375e-06,0.0,0.0,0.0,0.0,0.0,0.0,6.9268422375e-06,0.0,0.0,0.0,0.0,0.0,0.0,6.9268422375e-06,-0.00161955377553,-0.00973358564079,-0.00715087307617,-0.00396783091128,-0.0015979593154,0.00547038391232,3.46342111875e-05,0.0,0.0,0.0,0.0,0.0,0.0,3.46342111875e-05,0.0,0.0,0.0,0.0,0.0,0.0,3.46342111875e-05,0.0,0.0,0.0,0.0,0.0,0.0,3.46342111875e-06,0.0,0.0,0.0,0.0,0.0,0.0,3.46342111875e-06,0.0,0.0,0.0,0.0,0.0,0.0,3.46342111875e-06
1662961737485157490,6,1662961737485157490,icp_odom,base_link,-0.00180982332677,-0.00274941604584,-0.0029156038072,0.000229185899365,-0.000554261639862,0.00040655439424,0.999999737491,6.7758707692e-05,0.0,0.0,0.0,0.0,0.0,0.0,6.7758707692e-05,0.0,0.0,0.0,0.0,0.0,0.0,6.7758707692e-05,0.0,0.0,0.0,0.0,0.0,0.0,6.7758707692e-06,0.0,0.0,0.0,0.0,0.0,0.0,6.7758707692e-06,0.0,0.0,0.0,0.0,0.0,0.0,6.7758707692e-06,-0.00772735290229,-0.00755688874051,0.0255847964436,0.00406216830015,0.00923320744187,0.00264897127636,3.3879353846e-05,0.0,0.0,0.0,0.0,0.0,0.0,3.3879353846e-05,0.0,0.0,0.0,0.0,0.0,0.0,3.3879353846e-05,0.0,0.0,0.0,0.0,0.0,0.0,3.3879353846e-06,0.0,0.0,0.0,0.0,0.0,0.0,3.3879353846e-06,0.0,0.0,0.0,0.0,0.0,0.0,3.3879353846e-06
1662961737577352047,7,1662961737577352047,icp_odom,base_link,-0.00185359653551,-0.00312425638549,-0.00440353620797,4.36911731804e-05,-0.000820188267562,0.000426614930342,0.999999571691,6.41386282135e-05,0.0,0.0,0.0,0.0,0.0,0.0,6.41386282135e-05,0.0,0.0,0.0,0.0,0.0,0.0,6.41386282135e-05,0.0,0.0,0.0,0.0,0.0,0.0,6.41386282135e-06,0.0,0.0,0.0,0.0,0.0,0.0,6.41386282135e-06,0.0,0.0,0.0,0.0,0.0,0.0,6.41386282135e-06,-0.000495989457704,-0.0040727565065,-0.0161366444081,-0.00402620341629,-0.00576699664816,0.000439801515313,3.20693141068e-05,0.0,0.0,0.0,0.0,0.0,0.0,3.20693141068e-05,0.0,0.0,0.0,0.0,0.0,0.0,3.20693141068e-05,0.0,0.0,0.0,0.0,0.0,0.0,3.20693141068e-06,0.0,0.0,0.0,0.0,0.0,0.0,3.20693141068e-06,0.0,0.0,0.0,0.0,0.0,0.0,3.20693141068e-06
1662961737685855627,8,1662961737685855627,icp_odom,base_link,-0.00107428664342,-0.00239648879506,-0.00308589171618,0.000269952057788,-0.000768478632694,0.000118730352654,0.999999661235,6.30286816182e-05,0.0,0.0,0.0,0.0,0.0,0.0,6.30286816182e-05,0.0,0.0,0.0,0.0,0.0,0.0,6.30286816182e-05,0.0,0.0,0.0,0.0,0.0,0.0,6.30286816182e-06,0.0,0.0,0.0,0.0,0.0,0.0,6.30286816182e-06,0.0,0.0,0.0,0.0,0.0,0.0,6.30286816182e-06,0.00720797432587,0.0067022354342,0.0121314004064,0.00416602659971,0.000952400150709,-0.00567834964022,3.15143408091e-05,0.0,0.0,0.0,0.0,0.0,0.0,3.15143408091e-05,0.0,0.0,0.0,0.0,0.0,0.0,3.15143408091e-05,0.0,0.0,0.0,0.0,0.0,0.0,3.15143408091e-06,0.0,0.0,0.0,0.0,0.0,0.0,3.15143408091e-06,0.0,0.0,0.0,0.0,0.0,0.0,3.15143408091e-06
1662961737778409958,9,1662961737778409958,icp_odom,base_link,-0.00157625880092,-0.00252520013601,-0.0030766709242,0.000367406948374,-0.000622847412539,0.000189573296468,0.999999720568,5.47349747771e-05,0.0,0.0,0.0,0.0,0.0,0.0,5.47349747771e-05,0.0,0.0,0.0,0.0,0.0,0.0,5.47349747771e-05,0.0,0.0,0.0,0.0,0.0,0.0,5.47349747771e-06,0.0,0.0,0.0,0.0,0.0,0.0,5.47349747771e-06,0.0,0.0,0.0,0.0,0.0,0.0,5.47349747771e-06,-0.00542370975018,-0.00138931255788,0.00010871210543,0.00210766727105,0.0031469501555,0.00152867857832,2.73674873885e-05,0.0,0.0,0.0,0.0,0.0,0.0,2.73674873885e-05,0.0,0.0,0.0,0.0,0.0,0.0,2.73674873885e-05,0.0,0.0,0.0,0.0,0.0,0.0,2.73674873885e-06,0.0,0.0,0.0,0.0,0.0,0.0,2.73674873885e-06,0.0,0.0,0.0,0.0,0.0,0.0,2.73674873885e-06
1662961737870664597,10,1662961737870664597,icp_odom,base_link,-0.00114903284702,-0.00262279622257,-0.00495234318078,7.02954866226e-05,-0.000772083310698,0.000255668967513,0.99999966679,5.28657982768e-05,0.0,0.0,0.0,0.0,0.0,0.0,5.28657982768e-05,0.0,0.0,0.0,0.0,0.0,0.0,5.28657982768e-05,0.0,0.0,0.0,0.0,0.0,0.0,5.28657982768e-06,0.0,0.0,0.0,0.0,0.0,0.0,5.28657982768e-06,0.0,0.0,0.0,0.0,0.0,0.0,5.28657982768e-06,0.00460520852357,-0.00107459153514,-0.0203364361078,-0.00644105020911,-0.00323312636465,0.00143905694131,2.64328991384e-05,0.0,0.0,0.0,0.0,0.0,0.0,2.64328991384e-05,0.0,0.0,0.0,0.0,0.0,0.0,2.64328991384e-05,0.0,0.0,0.0,0.0,0.0,0.0,2.64328991384e-06,0.0,0.0,0.0,0.0,0.0,0.0,2.64328991384e-06,0.0,0.0,0.0,0.0,0.0,0.0,2.64328991384e-06
1662961737962830067,11,1662961737962830067,icp_odom,base_link,-0.0010765560437,-0.00333975162357,-0.00526425335556,0.00025967676637,-0.00107366556143,0.000288300867741,0.999999348346,5.88945012746e-05,0.0,0.0,0.0,0.0,0.0,0.0,5.88945012746e-05,0.0,0.0,0.0,0.0,0.0,0.0,5.88945012746e-05,0.0,0.0,0.0,0.0,0.0,0.0,5.88945012746e-06,0.0,0.0,0.0,0.0,0.0,0.0,5.88945012746e-06,0.0,0.0,0.0,0.0,0.0,0.0,5.88945012746e-06,0.000777173321694,-0.00777987623587,-0.00338435219601,0.00410825293511,-0.00654549943283,0.000704164733179,2.94472506373e-05,0.0,0.0,0.0,0.0,0.0,0.0,2.94472506373e-05,0.0,0.0,0.0,0.0,0.0,0.0,2.94472506373e-05,0.0,0.0,0.0,0.0,0.0,0.0,2.94472506373e-06,0.0,0.0,0.0,0.0,0.0,0.0,2.94472506373e-06,0.0,0.0,0.0,0.0,0.0,0.0,2.94472506373e-06
1662961738071512222,12,1662961738071512222,icp_odom,base_link,0.00120808347128,-0.00293230614625,-0.00542701641098,0.00020379330503,-0.000975659449935,0.000229106462047,0.999999477033,6.12245561948e-05,0.0,0.0,0.0,0.0,0.0,0.0,6.12245561948e-05,0.0,0.0,0.0,0.0,0.0,0.0,6.12245561948e-05,0.0,0.0,0.0,0.0,0.0,0.0,6.12245561948e-06,0.0,0.0,0.0,0.0,0.0,0.0,6.12245561948e-06,0.0,0.0,0.0,0.0,0.0,0.0,6.12245561948e-06,0.021020187065,0.00373605382629,-0.00154468754772,-0.00102914008312,0.00180349126458,-0.00108877767343,3.06122780974e-05,0.0,0.0,0.0,0.0,0.0,0.0,3.06122780974e-05,0.0,0.0,0.0,0.0,0.0,0.0,3.06122780974e-05,0.0,0.0,0.0,0.0,0.0,0.0,3.06122780974e-06,0.0,0.0,0.0,0.0,0.0,0.0,3.06122780974e-06,0.0,0.0,0.0,0.0,0.0,0.0,3.06122780974e-06
1662961738163812399,13,1662961738163812399,icp_odom,base_link,0.00106975622475,-0.00121676421259,-0.00615349039435,0.000454530659826,-0.00100682923682,-1.6381555739e-05,0.999999389714,7.74396206727e-05,0.0,0.0,0.0,0.0,0.0,0.0,7.74396206727e-05,0.0,0.0,0.0,0.0,0.0,0.0,7.74396206727e-05,0.0,0.0,0.0,0.0,0.0,0.0,7.74396206727e-06,0.0,0.0,0.0,0.0,0.0,0.0,7.74396206727e-06,0.0,0.0,0.0,0.0,0.0,0.0,7.74396206727e-06,-0.00150551460683,0.018584029749,-0.00787541735917,0.00542790442705,-0.000676397001371,-0.00532466964796,3.87198103363e-05,0.0,0.0,0.0,0.0,0.0,0.0,3.87198103363e-05,0.0,0.0,0.0,0.0,0.0,0.0,3.87198103363e-05,0.0,0.0,0.0,0.0,0.0,0.0,3.87198103363e-06,0.0,0.0,0.0,0.0,0.0,0.0,3.87198103363e-06,0.0,0.0,0.0,0.0,0.0,0.0,3.87198103363e-06
1662961738255903006,14,1662961738255903006,icp_odom,base_link,-0.000800721347332,-0.00314073823392,-0.00802334677428,0.000432197346263,-0.00132776637579,0.000241801455475,0.999998995886,5.91864746387e-05,0.0,0.0,0.0,0.0,0.0,0.0,5.91864746387e-05,0.0,0.0,0.0,0.0,0.0,0.0,5.91864746387e-05,0.0,0.0,0.0,0.0,0.0,0.0,5.91864746387e-06,0.0,0.0,0.0,0.0,0.0,0.0,5.91864746387e-06,0.0,0.0,0.0,0.0,0.0,0.0,5.91864746387e-06,-0.0203514155,-0.0209112819284,-0.0202445853502,-0.000481065886561,-0.00696736993268,0.00561095960438,2.95932373194e-05,0.0,0.0,0.0,0.0,0.0,0.0,2.95932373194e-05,0.0,0.0,0.0,0.0,0.0,0.0,2.95932373194e-05,0.0,0.0,0.0,0.0,0.0,0.0,2.95932373194e-06,0.0,0.0,0.0,0.0,0.0,0.0,2.95932373194e-06,0.0,0.0,0.0,0.0,0.0,0.0,2.95932373194e-06
1662961738350762129,15,1662961738350762129,icp_odom,base_link,-0.000494227395393,-0.00223811226897,-0.0108385067433,0.000814337264933,-0.00189371948523,3.03725808904e-05,0.999997874877,5.90494441948e-05,0.0,0.0,0.0,0.0,0.0,0.0,5.90494441948e-05,0.0,0.0,0.0,0.0,0.0,0.0,5.90494441948e-05,0.0,0.0,0.0,0.0,0.0,0.0,5.90494441948e-06,0.0,0.0,0.0,0.0,0.0,0.0,5.90494441948e-06,0.0,0.0,0.0,0.0,0.0,0.0,5.90494441948e-06,0.00315680680797,0.00948823057115,-0.0296939723194,0.00805072579533,-0.0119346827269,-0.00446783332154,2.95247220974e-05,0.0,0.0,0.0,0.0,0.0,0.0,2.95247220974e-05,0.0,0.0,0.0,0.0,0.0,0.0,2.95247220974e-05,0.0,0.0,0.0,0.0,0.0,0.0,2.95247220974e-06,0.0,0.0,0.0,0.0,0.0,0.0,2.95247220974e-06,0.0,0.0,0.0,0.0,0.0,0.0,2.95247220974e-06
1662961738459532976,16,1662961738459532976,icp_odom,base_link,-0.00137129845098,-0.00140093290247,-0.00999174732715,0.000897974270546,-0.00180465025492,0.000138477210271,0.99999795885,5.56064295449e-05,0.0,0.0,0.0,0.0,0.0,0.0,5.56064295449e-05,0.0,0.0,0.0,0.0,0.0,0.0,5.56064295449e-05,0.0,0.0,0.0,0.0,0.0,0.0,5.56064295449e-06,0.0,0.0,0.0,0.0,0.0,0.0,5.56064295449e-06,0.0,0.0,0.0,0.0,0.0,0.0,5.56064295449e-06,-0.0080334879458,0.00770990783349,0.00780273694545,0.0015418442199,0.00163914682344,0.00198363699019,2.78032147724e-05,0.0,0.0,0.0,0.0,0.0,0.0,2.78032147724e-05,0.0,0.0,0.0,0.0,0.0,0.0,2.78032147724e-05,0.0,0.0,0.0,0.0,0.0,0.0,2.78032147724e-06,0.0,0.0,0.0,0.0,0.0,0.0,2.78032147724e-06,0.0,0.0,0.0,0.0,0.0,0.0,2.78032147724e-06
1662961738551874876,17,1662961738551874876,icp_odom,base_link,-0.00155123276636,-0.00175141566433,-0.0103177307174,0.000715670535466,-0.00154634479418,0.000201312918995,0.999998528052,6.44168345601e-05,0.0,0.0,0.0,0.0,0.0,0.0,6.44168345601e-05,0.0,0.0,0.0,0.0,0.0,0.0,6.44168345601e-05,0.0,0.0,0.0,0.0,0.0,0.0,6.44168345601e-06,0.0,0.0,0.0,0.0,0.0,0.0,6.44168345601e-06,0.0,0.0,0.0,0.0,0.0,0.0,6.44168345601e-06,-0.00196233508177,-0.003801275976,-0.00351630127989,-0.00394487474114,0.0055965827778,0.00136201351415,3.22084172801e-05,0.0,0.0,0.0,0.0,0.0,0.0,3.22084172801e-05,0.0,0.0,0.0,0.0,0.0,0.0,3.22084172801e-05,0.0,0.0,0.0,0.0,0.0,0.0,3.22084172801e-06,0.0,0.0,0.0,0.0,0.0,0.0,3.22084172801e-06,0.0,0.0,0.0,0.0,0.0,0.0,3.22084172801e-06
1662961738646679401,18,1662961738646679401,icp_odom,base_link,-0.00106283673085,-0.0024833464995,-0.00950956065208,0.000689334379758,-0.00145258746315,0.000133874535332,0.999998698442,7.19757396358e-05,0.0,0.0,0.0,0.0,0.0,0.0,7.19757396358e-05,0.0,0.0,0.0,0.0,0.0,0.0,7.19757396358e-05,0.0,0.0,0.0,0.0,0.0,0.0,7.19757396358e-06,0.0,0.0,0.0,0.0,0.0,0.0,7.19757396358e-06,0.0,0.0,0.0,0.0,0.0,0.0,7.19757396358e-06,0.00517486175522,-0.00771030317992,0.00851967092603,-0.000557528052013,0.00197696872056,-0.00142329046503,3.59878698179e-05,0.0,0.0,0.0,0.0,0.0,0.0,3.59878698179e-05,0.0,0.0,0.0,0.0,0.0,0.0,3.59878698179e-05,0.0,0.0,0.0,0.0,0.0,0.0,3.59878698179e-06,0.0,0.0,0.0,0.0,0.0,0.0,3.59878698179e-06,0.0,0.0,0.0,0.0,0.0,0.0,3.59878698179e-06
1662961738738857985,19,1662961738738857985,icp_odom,base_link,-0.000890865572728,-0.0016868035309,-0.00829612277448,0.00066212406849,-0.00128575618552,0.000147498061211,0.999998943333,4.92750216904e-05,0.0,0.0,0.0,0.0,0.0,0.0,4.92750216904e-05,0.0,0.0,0.0,0.0,0.0,0.0,4.92750216904e-05,0.0,0.0,0.0,0.0,0.0,0.0,4.92750216904e-06,0.0,0.0,0.0,0.0,0.0,0.0,4.92750216904e-06,0.0,0.0,0.0,0.0,0.0,0.0,4.92750216904e-06,0.0019061648054,0.00865893531591,0.0131465792656,-0.000589422183111,0.0036200331524,0.000293852936011,2.46375108452e-05,0.0,0.0,0.0,0.0,0.0,0.0,2.46375108452e-05,0.0,0.0,0.0,0.0,0.0,0.0,2.46375108452e-05,0.0,0.0,0.0,0.0,0.0,0.0,2.46375108452e-06,0.0,0.0,0.0,0.0,0.0,0.0,2.46375108452e-06,0.0,0.0,0.0,0.0,0.0,0.0,2.46375108452e-06
1662961738850097895,20,1662961738850097895,icp_odom,base_link,-0.000735710258596,-0.00258898921311,-0.00958407856524,0.000758849183931,-0.00140936760203,1.72332695794e-05,0.999998718766,6.62026380791e-05,0.0,0.0,0.0,0.0,0.0,0.0,6.62026380791e-05,0.0,0.0,0.0,0.0,0.0,0.0,6.62026380791e-05,0.0,0.0,0.0,0.0,0.0,0.0,6.62026380791e-06,0.0,0.0,0.0,0.0,0.0,0.0,6.62026380791e-06,0.0,0.0,0.0,0.0,0.0,0.0,6.62026380791e-06,0.00136262236629,-0.00812600366771,-0.0115709723905,0.00173598644324,-0.00222401018254,-0.00234302761964,3.31013190396e-05,0.0,0.0,0.0,0.0,0.0,0.0,3.31013190396e-05,0.0,0.0,0.0,0.0,0.0,0.0,3.31013190396e-05,0.0,0.0,0.0,0.0,0.0,0.0,3.31013190396e-06,0.0,0.0,0.0,0.0,0.0,0.0,3.31013190396e-06,0.0,0.0,0.0,0.0,0.0,0.0,3.31013190396e-06
1662961738942774773,21,1662961738942774773,icp_odom,base_link,-0.00192542176228,-0.0021089182701,-0.00889671780169,0.000760467482909,-0.00123666195219,0.000173327173248,0.999998931156,6.99563766175e-05,0.0,0.0,0.0,0.0,0.0,0.0,6.99563766175e-05,0.0,0.0,0.0,0.0,0.0,0.0,6.99563766175e-05,0.0,0.0,0.0,0.0,0.0,0.0,6.99563766175e-06,0.0,0.0,0.0,0.0,0.0,0.0,6.99563766175e-06,0.0,0.0,0.0,0.0,0.0,0.0,6.99563766175e-06,-0.0128160752356,0.00519176991656,0.00744503177702,4.03146368626e-05,0.00372959929518,0.00336568709463,3.49781883087e-05,0.0,0.0,0.0,0.0,0.0,0.0,3.49781883087e-05,0.0,0.0,0.0,0.0,0.0,0.0,3.49781883087e-05,0.0,0.0,0.0,0.0,0.0,0.0,3.49781883087e-06,0.0,0.0,0.0,0.0,0.0,0.0,3.49781883087e-06,0.0,0.0,0.0,0.0,0.0,0.0,3.49781883087e-06
1662961739034897327,22,1662961739034897327,icp_odom,base_link,-0.00135008781217,-0.00193852570374,-0.00931208115071,0.000731756633661,-0.00130360977315,0.000171793746605,0.99999886781,6.54909689975e-05,0.0,0.0,0.0,0.0,0.0,0.0,6.54909689975e-05,0.0,0.0,0.0,0.0,0.0,0.0,6.54909689975e-05,0.0,0.0,0.0,0.0,0.0,0.0,6.54909689975e-06,0.0,0.0,0.0,0.0,0.0,0.0,6.54909689975e-06,0.0,0.0,0.0,0.0,0.0,0.0,6.54909689975e-06,0.00623477483168,0.00184059434105,-0.00452705100179,-0.00062360893935,-0.00145336950663,-3.13734235533e-05,3.27454844987e-05,0.0,0.0,0.0,0.0,0.0,0.0,3.27454844987e-05,0.0,0.0,0.0,0.0,0.0,0.0,3.27454844987e-05,0.0,0.0,0.0,0.0,0.0,0.0,3.27454844987e-06,0.0,0.0,0.0,0.0,0.0,0.0,3.27454844987e-06,0.0,0.0,0.0,0.0,0.0,0.0,3.27454844987e-06
1662961739129674911,23,1662961739129674911,icp_odom,base_link,-0.000975247006863,-0.00165507313795,-0.00870024599135,0.000910851092657,-0.00129218782713,5.81047562206e-06,0.999998750283,6.94892512215e-05,0.0,0.0,0.0,0.0,0.0,0.0,6.94892512215e-05,0.0,0.0,0.0,0.0,0.0,0.0,6.94892512215e-05,0.0,0.0,0.0,0.0,0.0,0.0,6.94892512215e-06,0.0,0.0,0.0,0.0,0.0,0.0,6.94892512215e-06,0.0,0.0,0.0,0.0,0.0,0.0,6.94892512215e-06,0.00397279253229,0.00299878860824,0.00644076988101,0.00377469090745,0.000238438035012,-0.00350764091127,3.47446256108e-05,0.0,0.0,0.0,0.0,0.0,0.0,3.47446256108e-05,0.0,0.0,0.0,0.0,0.0,0.0,3.47446256108e-05,0.0,0.0,0.0,0.0,0.0,0.0,3.47446256108e-06,0.0,0.0,0.0,0.0,0.0,0.0,3.47446256108e-06,0.0,0.0,0.0,0.0,0.0,0.0,3.47446256108e-06
1662961739238396168,24,1662961739238396168,icp_odom,base_link,0.000675445538945,-0.00306715560146,-0.00879068486392,0.000983535760958,-0.00143780452119,4.22856526221e-05,0.999998481793,7.67867492946e-05,0.0,0.0,0.0,0.0,0.0,0.0,7.67867492946e-05,0.0,0.0,0.0,0.0,0.0,0.0,7.67867492946e-05,0.0,0.0,0.0,0.0,0.0,0.0,7.67867492946e-06,0.0,0.0,0.0,0.0,0.0,0.0,7.67867492946e-06,0.0,0.0,0.0,0.0,0.0,0.0,7.67867492946e-06,0.0151804732159,-0.01298980508,-0.000847415474709,0.00133783742785,-0.00267816078849,0.00067150167888,3.83933746473e-05,0.0,0.0,0.0,0.0,0.0,0.0,3.83933746473e-05,0.0,0.0,0.0,0.0,0.0,0.0,3.83933746473e-05,0.0,0.0,0.0,0.0,0.0,0.0,3.83933746473e-06,0.0,0.0,0.0,0.0,0.0,0.0,3.83933746473e-06,0.0,0.0,0.0,0.0,0.0,0.0,3.83933746473e-06
1662961739333059549,25,1662961739333059549,icp_odom,base_link,0.0010928765405,-0.00179105333518,-0.0105614773929,0.00110670981415,-0.00172786310943,6.33813488047e-05,0.99999789283,7.67110115063e-05,0.0,0.0,0.0,0.0,0.0,0.0,7.67110115063e-05,0.0,0.0,0.0,0.0,0.0,0.0,7.67110115063e-05,0.0,0.0,0.0,0.0,0.0,0.0,7.67110115063e-06,0.0,0.0,0.0,0.0,0.0,0.0,7.67110115063e-06,0.0,0.0,0.0,0.0,0.0,0.0,7.67110115063e-06,0.00435692630708,0.0134432166815,-0.0187452863902,0.00260261935182,-0.00612793955952,0.000447229598649,3.83555057531e-05,0.0,0.0,0.0,0.0,0.0,0.0,3.83555057531e-05,0.0,0.0,0.0,0.0,0.0,0.0,3.83555057531e-05,0.0,0.0,0.0,0.0,0.0,0.0,3.83555057531e-06,0.0,0.0,0.0,0.0,0.0,0.0,3.83555057531e-06,0.0,0.0,0.0,0.0,0.0,0.0,3.83555057531e-06
1662961739425359726,26,1662961739425359726,icp_odom,base_link,-0.000538286752999,-0.00261045736261,-0.00894799456,0.00103455568766,-0.00149613493615,4.03817988521e-05,0.999998344821,8.50390783153e-05,0.0,0.0,0.0,0.0,0.0,0.0,8.50390783153e-05,0.0,0.0,0.0,0.0,0.0,0.0,8.50390783153e-05,0.0,0.0,0.0,0.0,0.0,0.0,8.50390783153e-06,0.0,0.0,0.0,0.0,0.0,0.0,8.50390783153e-06,0.0,0.0,0.0,0.0,0.0,0.0,8.50390783153e-06,-0.0176129490137,-0.0088365804404,0.0175613928586,-0.00156413379591,0.00502070272341,-0.000501581758726,4.25195391577e-05,0.0,0.0,0.0,0.0,0.0,0.0,4.25195391577e-05,0.0,0.0,0.0,0.0,0.0,0.0,4.25195391577e-05,0.0,0.0,0.0,0.0,0.0,0.0,4.25195391577e-06,0.0,0.0,0.0,0.0,0.0,0.0,4.25195391577e-06,0.0,0.0,0.0,0.0,0.0,0.0,4.25195391577e-06
1662961739517768383,27,1662961739517768383,icp_odom,base_link,-0.000357353361323,-0.0025166051928,-0.00824945233762,0.00123773213458,-0.00155896292405,3.3737005461e-07,0.999998018825,8.59252533002e-05,0.0,0.0,0.0,0.0,0.0,0.0,8.59252533002e-05,0.0,0.0,0.0,0.0,0.0,0.0,8.59252533002e-05,0.0,0.0,0.0,0.0,0.0,0.0,8.59252533002e-06,0.0,0.0,0.0,0.0,0.0,0.0,8.59252533002e-06,0.0,0.0,0.0,0.0,0.0,0.0,8.59252533002e-06,0.00198066025041,0.00103109364863,0.00755126355216,0.00439604790881,-0.00136068742722,-0.00087212829385,4.29626266501e-05,0.0,0.0,0.0,0.0,0.0,0.0,4.29626266501e-05,0.0,0.0,0.0,0.0,0.0,0.0,4.29626266501e-05,0.0,0.0,0.0,0.0,0.0,0.0,4.29626266501e-06,0.0,0.0,0.0,0.0,0.0,0.0,4.29626266501e-06,0.0,0.0,0.0,0.0,0.0,0.0,4.29626266501e-06
1662961739628907681,28,1662961739628907681,icp_odom,base_link,-0.000424378551543,-0.00251699797809,-0.00970581173897,0.00126690686337,-0.00167891580203,1.27134644062e-05,0.999997788011,6.803267262e-05,0.0,0.0,0.0,0.0,0.0,0.0,6.803267262e-05,0.0,0.0,0.0,0.0,0.0,0.0,6.803267262e-05,0.0,0.0,0.0,0.0,0.0,0.0,6.803267262e-06,0.0,0.0,0.0,0.0,0.0,0.0,6.803267262e-06,0.0,0.0,0.0,0.0,0.0,0.0,6.803267262e-06,-0.00064392760396,-3.59703917638e-05,-0.0131019148976,0.000525333569385,-0.00215833634138,0.00022450304823,3.401633631e-05,0.0,0.0,0.0,0.0,0.0,0.0,3.401633631e-05,0.0,0.0,0.0,0.0,0.0,0.0,3.401633631e-05,0.0,0.0,0.0,0.0,0.0,0.0,3.401633631e-06,0.0,0.0,0.0,0.0,0.0,0.0,3.401633631e-06,0.0,0.0,0.0,0.0,0.0,0.0,3.401633631e-06
1662961739721492052,29,1662961739721492052,icp_odom,base_link,-0.00109297782183,-0.00211042282172,-0.00814926065505,0.00145604424254,-0.00151960947789,-7.33594309384e-05,0.999997782668,6.90218059599e-05,0.0,0.0,0.0,0.0,0.0,0.0,6.90218059599e-05,0.0,0.0,0.0,0.0,0.0,0.0,6.90218059599e-05,0.0,0.0,0.0,0.0,0.0,0.0,6.90218059599e-06,0.0,0.0,0.0,0.0,0.0,0.0,6.90218059599e-06,0.0,0.0,0.0,0.0,0.0,0.0,6.90218059599e-06,-0.00716492813081,0.00443420140073,0.0168252121657,0.00408234447241,0.00343926274218,-0.00186990492512,3.451090298e-05,0.0,0.0,0.0,0.0,0.0,0.0,3.451090298e-05,0.0,0.0,0.0,0.0,0.0,0.0,3.451090298e-05,0.0,0.0,0.0,0.0,0.0,0.0,3.451090298e-06,0.0,0.0,0.0,0.0,0.0,0.0,3.451090298e-06,0.0,0.0,0.0,0.0,0.0,0.0,3.451090298e-06
1662961739816330671,30,1662961739816330671,icp_odom,base_link,-0.000697473064065,-0.00230353721417,-0.00882719829679,0.00156103410091,-0.00141827518765,-0.000120300496,0.999997768595,7.91405958217e-05,0.0,0.0,0.0,0.0,0.0,0.0,7.91405958217e-05,0.0,0.0,0.0,0.0,0.0,0.0,7.91405958217e-05,0.0,0.0,0.0,0.0,0.0,0.0,7.91405958217e-06,0.0,0.0,0.0,0.0,0.0,0.0,7.91405958217e-06,0.0,0.0,0.0,0.0,0.0,0.0,7.91405958217e-06,0.00414885673672,-0.00205645919777,-0.00715501140803,0.00221230695024,0.0021358076483,-0.000996164046228,3.95702979108e-05,0.0,0.0,0.0,0.0,0.0,0.0,3.95702979108e-05,0.0,0.0,0.0,0.0,0.0,0.0,3.95702979108e-05,0.0,0.0,0.0,0.0,0.0,0.0,3.95702979108e-06,0.0,0.0,0.0,0.0,0.0,0.0,3.95702979108e-06,0.0,0.0,0.0,0.0,0.0,0.0,3.95702979108e-06
1662961739908873320,31,1662961739908873320,icp_odom,base_link,-0.000436574046034,-0.00167273683473,-0.0104417065158,0.00173839675606,-0.0019251825111,-0.000133735171932,0.999996626876,9.31000509104e-05,0.0,0.0,0.0,0.0,0.0,0.0,9.31000509104e-05,0.0,0.0,0.0,0.0,0.0,0.0,9.31000509104e-05,0.0,0.0,0.0,0.0,0.0,0.0,9.31000509104e-06,0.0,0.0,0.0,0.0,0.0,0.0,9.31000509104e-06,0.0,0.0,0.0,0.0,0.0,0.0,9.31000509104e-06,0.00276806857437,0.0067624785006,-0.0174752175808,0.00383417238481,-0.010955051519,-0.000280625914456,4.65500254552e-05,0.0,0.0,0.0,0.0,0.0,0.0,4.65500254552e-05,0.0,0.0,0.0,0.0,0.0,0.0,4.65500254552e-05,0.0,0.0,0.0,0.0,0.0,0.0,4.65500254552e-06,0.0,0.0,0.0,0.0,0.0,0.0,4.65500254552e-06,0.0,0.0,0.0,0.0,0.0,0.0,4.65500254552e-06
1662961740003981590,32,1662961740003981590,icp_odom,base_link,-0.00045895378571,-0.00179037626367,-0.0112333055586,0.00174977288268,-0.00204287792571,-0.000203703935597,0.999996361718,7.44625607104e-05,0.0,0.0,0.0,0.0,0.0,0.0,7.44625607104e-05,0.0,0.0,0.0,0.0,0.0,0.0,7.44625607104e-05,0.0,0.0,0.0,0.0,0.0,0.0,7.44625607104e-06,0.0,0.0,0.0,0.0,0.0,0.0,7.44625607104e-06,0.0,0.0,0.0,0.0,0.0,0.0,7.44625607104e-06,-0.000267010385869,-0.00126589613501,-0.00831781327724,0.000236901862081,-0.00247748685069,-0.00146753143054,3.72312803552e-05,0.0,0.0,0.0,0.0,0.0,0.0,3.72312803552e-05,0.0,0.0,0.0,0.0,0.0,0.0,3.72312803552e-05,0.0,0.0,0.0,0.0,0.0,0.0,3.72312803552e-06,0.0,0.0,0.0,0.0,0.0,0.0,3.72312803552e-06,0.0,0.0,0.0,0.0,0.0,0.0,3.72312803552e-06
1662961740112306118,33,1662961740112306118,icp_odom,base_link,-0.000989091815427,-0.00296063255519,-0.0099113797769,0.00173627370608,-0.00174674343362,-0.000112656404288,0.99999696077,8.19641650538e-05,0.0,0.0,0.0,0.0,0.0,0.0,8.19641650538e-05,0.0,0.0,0.0,0.0,0.0,0.0,8.19641650538e-05,0.0,0.0,0.0,0.0,0.0,0.0,8.19641650538e-06,0.0,0.0,0.0,0.0,0.0,0.0,8.19641650538e-06,0.0,0.0,0.0,0.0,0.0,0.0,8.19641650538e-06,-0.00483960844576,-0.0107624186203,0.0122610023245,-0.000246441137278,0.00547046028078,0.00167187966872,4.09820825269e-05,0.0,0.0,0.0,0.0,0.0,0.0,4.09820825269e-05,0.0,0.0,0.0,0.0,0.0,0.0,4.09820825269e-05,0.0,0.0,0.0,0.0,0.0,0.0,4.09820825269e-06,0.0,0.0,0.0,0.0,0.0,0.0,4.09820825269e-06,0.0,0.0,0.0,0.0,0.0,0.0,4.09820825269e-06
1662961740204688787,34,1662961740204688787,icp_odom,base_link,-0.000952206493821,-0.00250971410424,-0.0102058816701,0.001656129917,-0.00160980266302,-0.000279857693631,0.999997293721,6.16028740921e-05,0.0,0.0,0.0,0.0,0.0,0.0,6.16028740921e-05,0.0,0.0,0.0,0.0,0.0,0.0,6.16028740921e-05,0.0,0.0,0.0,0.0,0.0,0.0,6.16028740921e-06,0.0,0.0,0.0,0.0,0.0,0.0,6.16028740921e-06,0.0,0.0,0.0,0.0,0.0,0.0,6.16028740921e-06,0.000386999512557,0.00486997282133,-0.00320614757948,-0.00174220267218,0.00295787677169,-0.0036220967304,3.0801437046e-05,0.0,0.0,0.0,0.0,0.0,0.0,3.0801437046e-05,0.0,0.0,0.0,0.0,0.0,0.0,3.0801437046e-05,0.0,0.0,0.0,0.0,0.0,0.0,3.0801437046e-06,0.0,0.0,0.0,0.0,0.0,0.0,3.0801437046e-06,0.0,0.0,0.0,0.0,0.0,0.0,3.0801437046e-06
1662961740296951532,35,1662961740296951532,icp_odom,base_link,-0.00075794645818,-0.00186382420361,-0.00967975333333,0.00158041571762,-0.00150764211307,-0.000215596965051,0.999997591407,6.40836561032e-05,0.0,0.0,0.0,0.0,0.0,0.0,6.40836561032e-05,0.0,0.0,0.0,0.0,0.0,0.0,6.40836561032e-05,0.0,0.0,0.0,0.0,0.0,0.0,6.40836561032e-06,0.0,0.0,0.0,0.0,0.0,0.0,6.40836561032e-06,0.0,0.0,0.0,0.0,0.0,0.0,6.40836561032e-06,0.00211989670061,0.00702057080343,0.00567247485742,-0.00163952237926,0.00221651955508,0.00139179988764,3.20418280516e-05,0.0,0.0,0.0,0.0,0.0,0.0,3.20418280516e-05,0.0,0.0,0.0,0.0,0.0,0.0,3.20418280516e-05,0.0,0.0,0.0,0.0,0.0,0.0,3.20418280516e-06,0.0,0.0,0.0,0.0,0.0,0.0,3.20418280516e-06,0.0,0.0,0.0,0.0,0.0,0.0,3.20418280516e-06
1662961740405588150,36,1662961740405588150,icp_odom,base_link,-0.000799986883067,-0.00148915767204,-0.00941841583699,0.00186808049243,-0.00158208651745,-0.000385262643165,0.99999692942,5.40175417165e-05,0.0,0.0,0.0,0.0,0.0,0.0,5.40175417165e-05,0.0,0.0,0.0,0.0,0.0,0.0,5.40175417165e-05,0.0,0.0,0.0,0.0,0.0,0.0,5.40175417165e-06,0.0,0.0,0.0,0.0,0.0,0.0,5.40175417165e-06,0.0,0.0,0.0,0.0,0.0,0.0,5.40175417165e-06,-0.000381232122891,0.00345622794703,0.00239585828967,0.00529173016548,-0.00137342640664,-0.00312975212,2.70087708582e-05,0.0,0.0,0.0,0.0,0.0,0.0,2.70087708582e-05,0.0,0.0,0.0,0.0,0.0,0.0,2.70087708582e-05,0.0,0.0,0.0,0.0,0.0,0.0,2.70087708582e-06,0.0,0.0,0.0,0.0,0.0,0.0,2.70087708582e-06,0.0,0.0,0.0,0.0,0.0,0.0,2.70087708582e-06
1662961740497861385,37,1662961740497861385,icp_odom,base_link,-0.000738385249861,-0.000183886266313,-0.0089969439432,0.00188595058279,-0.00160121573455,-0.000448061520249,0.999996839265,6.6750542346e-05,0.0,0.0,0.0,0.0,0.0,0.0,6.6750542346e-05,0.0,0.0,0.0,0.0,0.0,0.0,6.6750542346e-05,0.0,0.0,0.0,0.0,0.0,0.0,6.6750542346e-06,0.0,0.0,0.0,0.0,0.0,0.0,6.6750542346e-06,0.0,0.0,0.0,0.0,0.0,0.0,6.6750542346e-06,0.000671059824526,0.0141631988809,0.00451265182346,0.000385360530345,-0.000416989816586,-0.00136099231895,3.3375271173e-05,0.0,0.0,0.0,0.0,0.0,0.0,3.3375271173e-05,0.0,0.0,0.0,0.0,0.0,0.0,3.3375271173e-05,0.0,0.0,0.0,0.0,0.0,0.0,3.3375271173e-06,0.0,0.0,0.0,0.0,0.0,0.0,3.3375271173e-06,0.0,0.0,0.0,0.0,0.0,0.0,3.3375271173e-06
1662961740590641260,38,1662961740590641260,icp_odom,base_link,-0.000933384581003,-0.000721536984202,-0.00947619602084,0.00195728533553,-0.00166413612565,-0.000421974347078,0.999996610806,6.95519768752e-05,0.0,0.0,0.0,0.0,0.0,0.0,6.95519768752e-05,0.0,0.0,0.0,0.0,0.0,0.0,6.95519768752e-05,0.0,0.0,0.0,0.0,0.0,0.0,6.95519768752e-06,0.0,0.0,0.0,0.0,0.0,0.0,6.95519768752e-06,0.0,0.0,0.0,0.0,0.0,0.0,6.95519768752e-06,-0.00211303541437,-0.00581622542813,-0.00513682281598,0.0015391834313,-0.00135462451726,0.000562342756893,3.47759884376e-05,0.0,0.0,0.0,0.0,0.0,0.0,3.47759884376e-05,0.0,0.0,0.0,0.0,0.0,0.0,3.47759884376e-05,0.0,0.0,0.0,0.0,0.0,0.0,3.47759884376e-06,0.0,0.0,0.0,0.0,0.0,0.0,3.47759884376e-06,0.0,0.0,0.0,0.0,0.0,0.0,3.47759884376e-06
1662961740682759285,39,1662961740682759285,icp_odom,base_link,-0.000961871177424,-0.000784297590144,-0.0111974552274,0.00175695094521,-0.00180971892473,-0.000504144032164,0.999996691934,6.73673584682e-05,0.0,0.0,0.0,0.0,0.0,0.0,6.73673584682e-05,0.0,0.0,0.0,0.0,0.0,0.0,6.73673584682e-05,0.0,0.0,0.0,0.0,0.0,0.0,6.73673584682e-06,0.0,0.0,0.0,0.0,0.0,0.0,6.73673584682e-06,0.0,0.0,0.0,0.0,0.0,0.0,6.73673584682e-06,-0.000370818132069,-0.000754731066991,-0.0186814274639,-0.00435088574886,-0.00316645368002,-0.00176994118374,3.36836792341e-05,0.0,0.0,0.0,0.0,0.0,0.0,3.36836792341e-05,0.0,0.0,0.0,0.0,0.0,0.0,3.36836792341e-05,0.0,0.0,0.0,0.0,0.0,0.0,3.36836792341e-06,0.0,0.0,0.0,0.0,0.0,0.0,3.36836792341e-06,0.0,0.0,0.0,0.0,0.0,0.0,3.36836792341e-06
1662961740793699741,40,1662961740793699741,icp_odom,base_link,-0.0019178444054,-0.000478135567391,-0.0113662146032,0.00155474836775,-0.00171821362498,-0.000385347796545,0.999997240999,6.02597646308e-05,0.0,0.0,0.0,0.0,0.0,0.0,6.02597646308e-05,0.0,0.0,0.0,0.0,0.0,0.0,6.02597646308e-05,0.0,0.0,0.0,0.0,0.0,0.0,6.02597646308e-06,0.0,0.0,0.0,0.0,0.0,0.0,6.02597646308e-06,0.0,0.0,0.0,0.0,0.0,0.0,6.02597646308e-06,-0.00862523540854,0.00274569657631,-0.0014996380778,-0.0036420088727,0.0016519993078,0.00214498396963,3.01298823154e-05,0.0,0.0,0.0,0.0,0.0,0.0,3.01298823154e-05,0.0,0.0,0.0,0.0,0.0,0.0,3.01298823154e-05,0.0,0.0,0.0,0.0,0.0,0.0,3.01298823154e-06,0.0,0.0,0.0,0.0,0.0,0.0,3.01298823154e-06,0.0,0.0,0.0,0.0,0.0,0.0,3.01298823154e-06
1662961740885929585,41,1662961740885929585,icp_odom,base_link,-0.00196703034453,-0.00087047717534,-0.0123083582148,0.00177397268007,-0.00189986010088,-0.000299482411656,0.999996576926,6.10917735667e-05,0.0,0.0,0.0,0.0,0.0,0.0,6.10917735667e-05,0.0,0.0,0.0,0.0,0.0,0.0,6.10917735667e-05,0.0,0.0,0.0,0.0,0.0,0.0,6.10917735667e-06,0.0,0.0,0.0,0.0,0.0,0.0,6.10917735667e-06,0.0,0.0,0.0,0.0,0.0,0.0,6.10917735667e-06,-0.000565085443668,-0.00428611924872,-0.0102000022307,0.00475825415924,-0.00393468514085,0.00185907038394,3.05458867834e-05,0.0,0.0,0.0,0.0,0.0,0.0,3.05458867834e-05,0.0,0.0,0.0,0.0,0.0,0.0,3.05458867834e-05,0.0,0.0,0.0,0.0,0.0,0.0,3.05458867834e-06,0.0,0.0,0.0,0.0,0.0,0.0,3.05458867834e-06,0.0,0.0,0.0,0.0,0.0,0.0,3.05458867834e-06
1662961740978188753,42,1662961740978188753,icp_odom,base_link,-0.00205705640838,-0.000978864263743,-0.0126860300079,0.00183774887254,-0.00191214924021,-0.00035912259048,0.999996418691,6.1553243738e-05,0.0,0.0,0.0,0.0,0.0,0.0,6.1553243738e-05,0.0,0.0,0.0,0.0,0.0,0.0,6.1553243738e-05,0.0,0.0,0.0,0.0,0.0,0.0,6.1553243738e-06,0.0,0.0,0.0,0.0,0.0,0.0,6.1553243738e-06,0.0,0.0,0.0,0.0,0.0,0.0,6.1553243738e-06,-0.000990626867861,-0.00118990975898,-0.00408566277474,0.00138018606231,-0.000268204603344,-0.00129505118821,3.0776621869e-05,0.0,0.0,0.0,0.0,0.0,0.0,3.0776621869e-05,0.0,0.0,0.0,0.0,0.0,0.0,3.0776621869e-05,0.0,0.0,0.0,0.0,0.0,0.0,3.0776621869e-06,0.0,0.0,0.0,0.0,0.0,0.0,3.0776621869e-06,0.0,0.0,0.0,0.0,0.0,0.0,3.0776621869e-06
1662961741083928108,43,1662961741083928108,icp_odom,base_link,-0.00205652974546,-7.70383630879e-05,-0.0120632899925,0.00174942219554,-0.00168127071477,-0.000364515892581,0.999996989985,5.7943188849e-05,0.0,0.0,0.0,0.0,0.0,0.0,5.7943188849e-05,0.0,0.0,0.0,0.0,0.0,0.0,5.7943188849e-05,0.0,0.0,0.0,0.0,0.0,0.0,5.7943188849e-06,0.0,0.0,0.0,0.0,0.0,0.0,5.7943188849e-06,0.0,0.0,0.0,0.0,0.0,0.0,5.7943188849e-06,2.13098646782e-05,0.00855036079884,0.00585794914514,-0.00167245767079,0.00436615105718,-0.000107221712824,2.89715944245e-05,0.0,0.0,0.0,0.0,0.0,0.0,2.89715944245e-05,0.0,0.0,0.0,0.0,0.0,0.0,2.89715944245e-05,0.0,0.0,0.0,0.0,0.0,0.0,2.89715944245e-06,0.0,0.0,0.0,0.0,0.0,0.0,2.89715944245e-06,0.0,0.0,0.0,0.0,0.0,0.0,2.89715944245e-06
1662961741176201105,44,1662961741176201105,icp_odom,base_link,-0.00213228678331,-0.00180850899778,-0.0104591753334,0.00188164159545,-0.00140602453585,-0.000302442206307,0.99999719552,5.55206607698e-05,0.0,0.0,0.0,0.0,0.0,0.0,5.55206607698e-05,0.0,0.0,0.0,0.0,0.0,0.0,5.55206607698e-05,0.0,0.0,0.0,0.0,0.0,0.0,5.55206607698e-06,0.0,0.0,0.0,0.0,0.0,0.0,5.55206607698e-06,0.0,0.0,0.0,0.0,0.0,0.0,5.55206607698e-06,-0.000748781545553,-0.0187042802572,0.017452634871,0.00286626536399,0.00596912112087,0.00133096810896,2.77603303849e-05,0.0,0.0,0.0,0.0,0.0,0.0,2.77603303849e-05,0.0,0.0,0.0,0.0,0.0,0.0,2.77603303849e-05,0.0,0.0,0.0,0.0,0.0,0.0,2.77603303849e-06,0.0,0.0,0.0,0.0,0.0,0.0,2.77603303849e-06,0.0,0.0,0.0,0.0,0.0,0.0,2.77603303849e-06
1662961741268765688,45,1662961741268765688,icp_odom,base_link,-0.00184998917393,-0.00120729813352,-0.0132524631917,0.001603203934,-0.00181742087004,-0.000271213814179,0.999997026576,6.13656361378e-05,0.0,0.0,0.0,0.0,0.0,0.0,6.13656361378e-05,0.0,0.0,0.0,0.0,0.0,0.0,6.13656361378e-05,0.0,0.0,0.0,0.0,0.0,0.0,6.13656361378e-06,0.0,0.0,0.0,0.0,0.0,0.0,6.13656361378e-06,0.0,0.0,0.0,0.0,0.0,0.0,6.13656361378e-06,0.00296093802899,0.00638323556632,-0.0302093215287,-0.0060127065517,-0.00888918060809,0.000702393590473,3.06828180689e-05,0.0,0.0,0.0,0.0,0.0,0.0,3.06828180689e-05,0.0,0.0,0.0,0.0,0.0,0.0,3.06828180689e-05,0.0,0.0,0.0,0.0,0.0,0.0,3.06828180689e-06,0.0,0.0,0.0,0.0,0.0,0.0,3.06828180689e-06,0.0,0.0,0.0,0.0,0.0,0.0,3.06828180689e-06
1662961741360477448,46,1662961741360477448,icp_odom,base_link,-0.00154294876847,-3.91346402466e-05,-0.0118071539328,0.00188418164508,-0.00171034388479,-0.000438156197604,0.999996666296,7.13162854227e-05,0.0,0.0,0.0,0.0,0.0,0.0,7.13162854227e-05,0.0,0.0,0.0,0.0,0.0,0.0,7.13162854227e-05,0.0,0.0,0.0,0.0,0.0,0.0,7.13162854227e-06,0.0,0.0,0.0,0.0,0.0,0.0,7.13162854227e-06,0.0,0.0,0.0,0.0,0.0,0.0,7.13162854227e-06,0.00339814764448,0.0127896107733,0.0157060734928,0.00611976208165,0.00233190669678,-0.00365480477922,3.56581427113e-05,0.0,0.0,0.0,0.0,0.0,0.0,3.56581427113e-05,0.0,0.0,0.0,0.0,0.0,0.0,3.56581427113e-05,0.0,0.0,0.0,0.0,0.0,0.0,3.56581427113e-06,0.0,0.0,0.0,0.0,0.0,0.0,3.56581427113e-06,0.0,0.0,0.0,0.0,0.0,0.0,3.56581427113e-06
1662961741471737385,47,1662961741471737385,icp_odom,base_link,9.76324081421e-05,2.29552897508e-05,-0.0129543384537,0.00159360388588,-0.00186050813691,-0.000423737301767,0.999996909687,6.79776557285e-05,0.0,0.0,0.0,0.0,0.0,0.0,6.79776557285e-05,0.0,0.0,0.0,0.0,0.0,0.0,6.79776557285e-05,0.0,0.0,0.0,0.0,0.0,0.0,6.79776557285e-06,0.0,0.0,0.0,0.0,0.0,0.0,6.79776557285e-06,0.0,0.0,0.0,0.0,0.0,0.0,6.79776557285e-06,0.0147096430883,0.000532013946213,-0.0103632817045,-0.00522180786356,-0.0027010475751,0.00027399812825,3.39888278642e-05,0.0,0.0,0.0,0.0,0.0,0.0,3.39888278642e-05,0.0,0.0,0.0,0.0,0.0,0.0,3.39888278642e-05,0.0,0.0,0.0,0.0,0.0,0.0,3.39888278642e-06,0.0,0.0,0.0,0.0,0.0,0.0,3.39888278642e-06,0.0,0.0,0.0,0.0,0.0,0.0,3.39888278642e-06
1662961741563884735,48,1662961741563884735,icp_odom,base_link,0.000127888328279,0.000736972375307,-0.0136802885681,0.00165129709608,-0.00192454839503,-0.000444722061583,0.999996685771,5.92471467549e-05,0.0,0.0,0.0,0.0,0.0,0.0,5.92471467549e-05,0.0,0.0,0.0,0.0,0.0,0.0,5.92471467549e-05,0.0,0.0,0.0,0.0,0.0,0.0,5.92471467549e-06,0.0,0.0,0.0,0.0,0.0,0.0,5.92471467549e-06,0.0,0.0,0.0,0.0,0.0,0.0,5.92471467549e-06,0.000292423734209,0.00772375706583,-0.00790395215154,0.00125196657609,-0.00139012024738,-0.000455655244878,2.96235733775e-05,0.0,0.0,0.0,0.0,0.0,0.0,2.96235733775e-05,0.0,0.0,0.0,0.0,0.0,0.0,2.96235733775e-05,0.0,0.0,0.0,0.0,0.0,0.0,2.96235733775e-06,0.0,0.0,0.0,0.0,0.0,0.0,2.96235733775e-06,0.0,0.0,0.0,0.0,0.0,0.0,2.96235733775e-06
1662961741656571627,49,1662961741656571627,icp_odom,base_link,-0.000853195728268,0.000794218678493,-0.0184397976846,0.00173594936611,-0.00264994506644,-0.000454493860163,0.99999487884,6.97760939406e-05,0.0,0.0,0.0,0.0,0.0,0.0,6.97760939406e-05,0.0,0.0,0.0,0.0,0.0,0.0,6.97760939406e-05,0.0,0.0,0.0,0.0,0.0,0.0,6.97760939406e-06,0.0,0.0,0.0,0.0,0.0,0.0,6.97760939406e-06,0.0,0.0,0.0,0.0,0.0,0.0,6.97760939406e-06,-0.0107829747722,0.000438603048678,-0.0513110123575,0.00183337926865,-0.0156521722674,-0.000189871105249,3.48880469703e-05,0.0,0.0,0.0,0.0,0.0,0.0,3.48880469703e-05,0.0,0.0,0.0,0.0,0.0,0.0,3.48880469703e-05,0.0,0.0,0.0,0.0,0.0,0.0,3.48880469703e-06,0.0,0.0,0.0,0.0,0.0,0.0,3.48880469703e-06,0.0,0.0,0.0,0.0,0.0,0.0,3.48880469703e-06
1662961741751382828,50,1662961741751382828,icp_odom,base_link,-0.000750268576667,-0.000731596315745,-0.017438089475,0.00155272355788,-0.00262309937903,-0.000355517361231,0.999995290992,5.77977587332e-05,0.0,0.0,0.0,0.0,0.0,0.0,5.77977587332e-05,0.0,0.0,0.0,0.0,0.0,0.0,5.77977587332e-05,0.0,0.0,0.0,0.0,0.0,0.0,5.77977587332e-06,0.0,0.0,0.0,0.0,0.0,0.0,5.77977587332e-06,0.0,0.0,0.0,0.0,0.0,0.0,5.77977587332e-06,0.0011563396547,-0.0160554051399,0.0106151597574,-0.00385973113589,0.000568574410863,0.00209701387212,2.88988793666e-05,0.0,0.0,0.0,0.0,0.0,0.0,2.88988793666e-05,0.0,0.0,0.0,0.0,0.0,0.0,2.88988793666e-05,0.0,0.0,0.0,0.0,0.0,0.0,2.88988793666e-06,0.0,0.0,0.0,0.0,0.0,0.0,2.88988793666e-06,0.0,0.0,0.0,0.0,0.0,0.0,2.88988793666e-06
1662961741859703541,51,1662961741859703541,icp_odom,base_link,-0.000915913609788,9.30858077481e-05,-0.018271394074,0.00177364783753,-0.00278564116021,-0.000489636652221,0.999994427301,6.34849827606e-05,0.0,0.0,0.0,0.0,0.0,0.0,6.34849827606e-05,0.0,0.0,0.0,0.0,0.0,0.0,6.34849827606e-05,0.0,0.0,0.0,0.0,0.0,0.0,6.34849827606e-06,0.0,0.0,0.0,0.0,0.0,0.0,6.34849827606e-06,0.0,0.0,0.0,0.0,0.0,0.0,6.34849827606e-06,-0.00157501280773,0.00758831994608,-0.0077083944343,0.00407405244187,-0.00300298980437,-0.00248303217813,3.17424913803e-05,0.0,0.0,0.0,0.0,0.0,0.0,3.17424913803e-05,0.0,0.0,0.0,0.0,0.0,0.0,3.17424913803e-05,0.0,0.0,0.0,0.0,0.0,0.0,3.17424913803e-06,0.0,0.0,0.0,0.0,0.0,0.0,3.17424913803e-06,0.0,0.0,0.0,0.0,0.0,0.0,3.17424913803e-06
1662961741954552412,52,1662961741954552412,icp_odom,base_link,-0.00118788867258,-0.000346490502125,-0.0185652058572,0.00173052091885,-0.00285095064519,-0.000336989150472,0.999994381892,6.85742819309e-05,0.0,0.0,0.0,0.0,0.0,0.0,6.85742819309e-05,0.0,0.0,0.0,0.0,0.0,0.0,6.85742819309e-05,0.0,0.0,0.0,0.0,0.0,0.0,6.85742819309e-06,0.0,0.0,0.0,0.0,0.0,0.0,6.85742819309e-06,0.0,0.0,0.0,0.0,0.0,0.0,6.85742819309e-06,-0.00288007943891,-0.0046482370235,-0.00306521146558,-0.000899943639524,-0.00137172173709,0.00322376866825,3.42871409655e-05,0.0,0.0,0.0,0.0,0.0,0.0,3.42871409655e-05,0.0,0.0,0.0,0.0,0.0,0.0,3.42871409655e-05,0.0,0.0,0.0,0.0,0.0,0.0,3.42871409655e-06,0.0,0.0,0.0,0.0,0.0,0.0,3.42871409655e-06,0.0,0.0,0.0,0.0,0.0,0.0,3.42871409655e-06
1662961742046875954,53,1662961742046875954,icp_odom,base_link,-0.000829571508802,-0.000785150041338,-0.0166989453137,0.00167941657887,-0.00261440778284,-0.000376262883621,0.999995101417,7.93083013812e-05,0.0,0.0,0.0,0.0,0.0,0.0,7.93083013812e-05,0.0,0.0,0.0,0.0,0.0,0.0,7.93083013812e-05,0.0,0.0,0.0,0.0,0.0,0.0,7.93083013812e-06,0.0,0.0,0.0,0.0,0.0,0.0,7.93083013812e-06,0.0,0.0,0.0,0.0,0.0,0.0,7.93083013812e-06,0.00399952381849,-0.00467872107401,0.0202082004398,-0.00111145130359,0.00512235425413,-0.000856746453792,3.96541506906e-05,0.0,0.0,0.0,0.0,0.0,0.0,3.96541506906e-05,0.0,0.0,0.0,0.0,0.0,0.0,3.96541506906e-05,0.0,0.0,0.0,0.0,0.0,0.0,3.96541506906e-06,0.0,0.0,0.0,0.0,0.0,0.0,3.96541506906e-06,0.0,0.0,0.0,0.0,0.0,0.0,3.96541506906e-06
1662961742138821363,54,1662961742138821363,icp_odom,base_link,-0.00112308480311,-0.000681064673699,-0.0182842388749,0.00169321148375,-0.00263051610074,-0.000525762168111,0.999994968484,7.96234138263e-05,0.0,0.0,0.0,0.0,0.0,0.0,7.96234138263e-05,0.0,0.0,0.0,0.0,0.0,0.0,7.96234138263e-05,0.0,0.0,0.0,0.0,0.0,0.0,7.96234138263e-06,0.0,0.0,0.0,0.0,0.0,0.0,7.96234138263e-06,0.0,0.0,0.0,0.0,0.0,0.0,7.96234138263e-06,-0.00328320474364,0.00107170781121,-0.0172284599394,0.000291749456665,-0.000355693307938,-0.00325209903531,3.98117069132e-05,0.0,0.0,0.0,0.0,0.0,0.0,3.98117069132e-05,0.0,0.0,0.0,0.0,0.0,0.0,3.98117069132e-05,0.0,0.0,0.0,0.0,0.0,0.0,3.98117069132e-06,0.0,0.0,0.0,0.0,0.0,0.0,3.98117069132e-06,0.0,0.0,0.0,0.0,0.0,0.0,3.98117069132e-06
1662961742233850718,55,1662961742233850718,icp_odom,base_link,-0.000939798541367,-0.0016563651152,-0.019023835659,0.00156479798018,-0.00301902311226,-0.000303259197913,0.999994172453,7.78483130119e-05,0.0,0.0,0.0,0.0,0.0,0.0,7.78483130119e-05,0.0,0.0,0.0,0.0,0.0,0.0,7.78483130119e-05,0.0,0.0,0.0,0.0,0.0,0.0,7.78483130119e-06,0.0,0.0,0.0,0.0,0.0,0.0,7.78483130119e-06,0.0,0.0,0.0,0.0,0.0,0.0,7.78483130119e-06,0.00189865671564,-0.0102874506265,-0.00775808654726,-0.0026877745986,-0.00816946383566,0.00470479205251,3.8924156506e-05,0.0,0.0,0.0,0.0,0.0,0.0,3.8924156506e-05,0.0,0.0,0.0,0.0,0.0,0.0,3.8924156506e-05,0.0,0.0,0.0,0.0,0.0,0.0,3.8924156506e-06,0.0,0.0,0.0,0.0,0.0,0.0,3.8924156506e-06,0.0,0.0,0.0,0.0,0.0,0.0,3.8924156506e-06
1662961742345326185,56,1662961742345326185,icp_odom,base_link,-0.00139802589547,-0.0014737364836,-0.0201970282942,0.00160404307658,-0.0030379217945,-0.000348471610128,0.999994038304,9.18667065451e-05,0.0,0.0,0.0,0.0,0.0,0.0,9.18667065451e-05,0.0,0.0,0.0,0.0,0.0,0.0,9.18667065451e-05,0.0,0.0,0.0,0.0,0.0,0.0,9.18667065451e-06,0.0,0.0,0.0,0.0,0.0,0.0,9.18667065451e-06,0.0,0.0,0.0,0.0,0.0,0.0,9.18667065451e-06,-0.00417503574863,0.00160286750179,-0.0105042783543,0.000701771001332,-0.000340092781698,-0.000812767946627,4.59333532726e-05,0.0,0.0,0.0,0.0,0.0,0.0,4.59333532726e-05,0.0,0.0,0.0,0.0,0.0,0.0,4.59333532726e-05,0.0,0.0,0.0,0.0,0.0,0.0,4.59333532726e-06,0.0,0.0,0.0,0.0,0.0,0.0,4.59333532726e-06,0.0,0.0,0.0,0.0,0.0,0.0,4.59333532726e-06
1662961742439835072,57,1662961742439835072,icp_odom,base_link,-0.000992790679447,-0.00182164926082,-0.0200256183743,0.00153482543677,-0.003161790915,-0.000325434685278,0.999993770721,8.36451294078e-05,0.0,0.0,0.0,0.0,0.0,0.0,8.36451294078e-05,0.0,0.0,0.0,0.0,0.0,0.0,8.36451294078e-05,0.0,0.0,0.0,0.0,0.0,0.0,8.36451294078e-06,0.0,0.0,0.0,0.0,0.0,0.0,8.36451294078e-06,0.0,0.0,0.0,0.0,0.0,0.0,8.36451294078e-06,0.00430133892223,-0.00367248221301,0.00179939856753,-0.00146243849304,-0.00262100622058,0.000496341264807,4.18225647039e-05,0.0,0.0,0.0,0.0,0.0,0.0,4.18225647039e-05,0.0,0.0,0.0,0.0,0.0,0.0,4.18225647039e-05,0.0,0.0,0.0,0.0,0.0,0.0,4.18225647039e-06,0.0,0.0,0.0,0.0,0.0,0.0,4.18225647039e-06,0.0,0.0,0.0,0.0,0.0,0.0,4.18225647039e-06
1662961742532264948,58,1662961742532264948,icp_odom,base_link,-0.00141090829857,-0.00341341854073,-0.0174554772675,0.00159835708515,-0.00264301649672,-0.000187841475105,0.999995212206,7.65246321901e-05,0.0,0.0,0.0,0.0,0.0,0.0,7.65246321901e-05,0.0,0.0,0.0,0.0,0.0,0.0,7.65246321901e-05,0.0,0.0,0.0,0.0,0.0,0.0,7.65246321901e-06,0.0,0.0,0.0,0.0,0.0,0.0,7.65246321901e-06,0.0,0.0,0.0,0.0,0.0,0.0,7.65246321901e-06,-0.00433634500951,-0.0171387735754,0.0278871338814,0.00138193101157,0.0112301232293,0.00295637967065,3.82623160951e-05,0.0,0.0,0.0,0.0,0.0,0.0,3.82623160951e-05,0.0,0.0,0.0,0.0,0.0,0.0,3.82623160951e-05,0.0,0.0,0.0,0.0,0.0,0.0,3.82623160951e-06,0.0,0.0,0.0,0.0,0.0,0.0,3.82623160951e-06,0.0,0.0,0.0,0.0,0.0,0.0,3.82623160951e-06
1662961742627385616,59,1662961742627385616,icp_odom,base_link,-0.000341160222888,-0.00307918526232,-0.0194396283478,0.00139181541753,-0.00282308232099,-0.000185340283212,0.99999502934,8.86878177559e-05,0.0,0.0,0.0,0.0,0.0,0.0,8.86878177559e-05,0.0,0.0,0.0,0.0,0.0,0.0,8.86878177559e-05,0.0,0.0,0.0,0.0,0.0,0.0,8.86878177559e-06,0.0,0.0,0.0,0.0,0.0,0.0,8.86878177559e-06,0.0,0.0,0.0,0.0,0.0,0.0,8.86878177559e-06,0.0111344633624,0.0034511918202,-0.0209295898676,-0.004341871012,-0.00378675037064,7.0900816354e-05,4.43439088779e-05,0.0,0.0,0.0,0.0,0.0,0.0,4.43439088779e-05,0.0,0.0,0.0,0.0,0.0,0.0,4.43439088779e-05,0.0,0.0,0.0,0.0,0.0,0.0,4.43439088779e-06,0.0,0.0,0.0,0.0,0.0,0.0,4.43439088779e-06,0.0,0.0,0.0,0.0,0.0,0.0,4.43439088779e-06
1662961742719686031,60,1662961742719686031,icp_odom,base_link,0.000402933103032,-0.00226491037756,-0.0194487217814,0.00151064462272,-0.00280127549968,-0.00030897785929,0.999994887657,8.29596765147e-05,0.0,0.0,0.0,0.0,0.0,0.0,8.29596765147e-05,0.0,0.0,0.0,0.0,0.0,0.0,8.29596765147e-05,0.0,0.0,0.0,0.0,0.0,0.0,8.29596765147e-06,0.0,0.0,0.0,0.0,0.0,0.0,8.29596765147e-06,0.0,0.0,0.0,0.0,0.0,0.0,8.29596765147e-06,0.00805762223899,0.00882462225854,-0.00016859335301,0.00256711873226,0.000469574210001,-0.00268688402139,4.14798382574e-05,0.0,0.0,0.0,0.0,0.0,0.0,4.14798382574e-05,0.0,0.0,0.0,0.0,0.0,0.0,4.14798382574e-05,0.0,0.0,0.0,0.0,0.0,0.0,4.14798382574e-06,0.0,0.0,0.0,0.0,0.0,0.0,4.14798382574e-06,0.0,0.0,0.0,0.0,0.0,0.0,4.14798382574e-06
1662961742830853939,61,1662961742830853939,icp_odom,base_link,-0.000378113647457,-0.00172587228008,-0.0215779021382,0.00148464967559,-0.00324125613076,-0.000304171171633,0.999993598756,7.90711913732e-05,0.0,0.0,0.0,0.0,0.0,0.0,7.90711913732e-05,0.0,0.0,0.0,0.0,0.0,0.0,7.90711913732e-05,0.0,0.0,0.0,0.0,0.0,0.0,7.90711913732e-06,0.0,0.0,0.0,0.0,0.0,0.0,7.90711913732e-06,0.0,0.0,0.0,0.0,0.0,0.0,7.90711913732e-06,-0.00713604176417,0.00478666089475,-0.0191277191043,-0.000464992044726,-0.00791563186795,9.99408439384e-05,3.95355956866e-05,0.0,0.0,0.0,0.0,0.0,0.0,3.95355956866e-05,0.0,0.0,0.0,0.0,0.0,0.0,3.95355956866e-05,0.0,0.0,0.0,0.0,0.0,0.0,3.95355956866e-06,0.0,0.0,0.0,0.0,0.0,0.0,3.95355956866e-06,0.0,0.0,0.0,0.0,0.0,0.0,3.95355956866e-06
1662961742923652172,62,1662961742923652172,icp_odom,base_link,-0.000419964519097,-0.00338805257343,-0.0186237357557,0.00162561516625,-0.00285293479579,-0.000309610124118,0.999994561125,9.10045406758e-05,0.0,0.0,0.0,0.0,0.0,0.0,9.10045406758e-05,0.0,0.0,0.0,0.0,0.0,0.0,9.10045406758e-05,0.0,0.0,0.0,0.0,0.0,0.0,9.10045406758e-06,0.0,0.0,0.0,0.0,0.0,0.0,9.10045406758e-06,0.0,0.0,0.0,0.0,0.0,0.0,9.10045406758e-06,-0.000233573344303,-0.0178173668683,0.0318895578384,0.00303507619537,0.00836994778365,-0.000138306830195,4.55022703379e-05,0.0,0.0,0.0,0.0,0.0,0.0,4.55022703379e-05,0.0,0.0,0.0,0.0,0.0,0.0,4.55022703379e-05,0.0,0.0,0.0,0.0,0.0,0.0,4.55022703379e-06,0.0,0.0,0.0,0.0,0.0,0.0,4.55022703379e-06,0.0,0.0,0.0,0.0,0.0,0.0,4.55022703379e-06
1662961743015546322,63,1662961743015546322,icp_odom,base_link,-0.00121282949112,-0.00198621512391,-0.0185348950326,0.00153233196742,-0.00284889258655,-0.000255117489717,0.999994735329,7.51717284427e-05,0.0,0.0,0.0,0.0,0.0,0.0,7.51717284427e-05,0.0,0.0,0.0,0.0,0.0,0.0,7.51717284427e-05,0.0,0.0,0.0,0.0,0.0,0.0,7.51717284427e-06,0.0,0.0,0.0,0.0,0.0,0.0,7.51717284427e-06,0.0,0.0,0.0,0.0,0.0,0.0,7.51717284427e-06,-0.00863195490092,0.0152527149767,0.000966422725469,-0.00202686758712,8.93963806448e-05,0.00119162269402,3.75858642213e-05,0.0,0.0,0.0,0.0,0.0,0.0,3.75858642213e-05,0.0,0.0,0.0,0.0,0.0,0.0,3.75858642213e-05,0.0,0.0,0.0,0.0,0.0,0.0,3.75858642213e-06,0.0,0.0,0.0,0.0,0.0,0.0,3.75858642213e-06,0.0,0.0,0.0,0.0,0.0,0.0,3.75858642213e-06
1662961743110250950,64,1662961743110250950,icp_odom,base_link,-0.0010442136554,-0.00366961862892,-0.0193362385035,0.00136022886475,-0.00280479382369,-0.0001436987536,0.999995131118,6.91574417896e-05,0.0,0.0,0.0,0.0,0.0,0.0,6.91574417896e-05,0.0,0.0,0.0,0.0,0.0,0.0,6.91574417896e-05,0.0,0.0,0.0,0.0,0.0,0.0,6.91574417896e-06,0.0,0.0,0.0,0.0,0.0,0.0,6.91574417896e-06,0.0,0.0,0.0,0.0,0.0,0.0,6.91574417896e-06,0.00174143037293,-0.0178002677858,-0.00841703172773,-0.00362795148976,0.00093440542696,0.00236173043959,3.45787208948e-05,0.0,0.0,0.0,0.0,0.0,0.0,3.45787208948e-05,0.0,0.0,0.0,0.0,0.0,0.0,3.45787208948e-05,0.0,0.0,0.0,0.0,0.0,0.0,3.45787208948e-06,0.0,0.0,0.0,0.0,0.0,0.0,3.45787208948e-06,0.0,0.0,0.0,0.0,0.0,0.0,3.45787208948e-06
1662961743218556404,65,1662961743218556404,icp_odom,base_link,-0.000589229632169,-0.00285588391125,-0.0200738050044,0.00148694478216,-0.00298420378669,-0.000228055019852,0.999994415741,8.21510689496e-05,0.0,0.0,0.0,0.0,0.0,0.0,8.21510689496e-05,0.0,0.0,0.0,0.0,0.0,0.0,8.21510689496e-05,0.0,0.0,0.0,0.0,0.0,0.0,8.21510689496e-06,0.0,0.0,0.0,0.0,0.0,0.0,8.21510689496e-06,0.0,0.0,0.0,0.0,0.0,0.0,8.21510689496e-06,0.00416045216843,0.00749594578519,-0.00685391947627,0.00233636284247,-0.00331463501789,-0.00156021723524,4.10755344748e-05,0.0,0.0,0.0,0.0,0.0,0.0,4.10755344748e-05,0.0,0.0,0.0,0.0,0.0,0.0,4.10755344748e-05,0.0,0.0,0.0,0.0,0.0,0.0,4.10755344748e-06,0.0,0.0,0.0,0.0,0.0,0.0,4.10755344748e-06,0.0,0.0,0.0,0.0,0.0,0.0,4.10755344748e-06
1662961743310804367,66,1662961743310804367,icp_odom,base_link,-0.000300133222481,-0.00399498688057,-0.017316184938,0.00138986988571,-0.0025300916476,-0.000300705800344,0.999995788228,6.60866228084e-05,0.0,0.0,0.0,0.0,0.0,0.0,6.60866228084e-05,0.0,0.0,0.0,0.0,0.0,0.0,6.60866228084e-05,0.0,0.0,0.0,0.0,0.0,0.0,6.60866228084e-06,0.0,0.0,0.0,0.0,0.0,0.0,6.60866228084e-06,0.0,0.0,0.0,0.0,0.0,0.0,6.60866228084e-06,0.00331798684783,-0.012257874012,0.0299108996987,-0.00211235578172,0.00984254293144,-0.00158442091197,3.30433114042e-05,0.0,0.0,0.0,0.0,0.0,0.0,3.30433114042e-05,0.0,0.0,0.0,0.0,0.0,0.0,3.30433114042e-05,0.0,0.0,0.0,0.0,0.0,0.0,3.30433114042e-06,0.0,0.0,0.0,0.0,0.0,0.0,3.30433114042e-06,0.0,0.0,0.0,0.0,0.0,0.0,3.30433114042e-06
1662961743403003454,67,1662961743403003454,icp_odom,base_link,-0.000516890431754,-0.00310505367815,-0.0182974487543,0.00148720812449,-0.00274060145019,-0.000265598025206,0.999995103375,6.09779909582e-05,0.0,0.0,0.0,0.0,0.0,0.0,6.09779909582e-05,0.0,0.0,0.0,0.0,0.0,0.0,6.09779909582e-05,0.0,0.0,0.0,0.0,0.0,0.0,6.09779909582e-06,0.0,0.0,0.0,0.0,0.0,0.0,6.09779909582e-06,0.0,0.0,0.0,0.0,0.0,0.0,6.09779909582e-06,-0.00241065723822,0.00962126348168,-0.0106576196849,0.00211462355219,-0.00456480495632,0.000762117793784,3.04889954791e-05,0.0,0.0,0.0,0.0,0.0,0.0,3.04889954791e-05,0.0,0.0,0.0,0.0,0.0,0.0,3.04889954791e-05,0.0,0.0,0.0,0.0,0.0,0.0,3.04889954791e-06,0.0,0.0,0.0,0.0,0.0,0.0,3.04889954791e-06,0.0,0.0,0.0,0.0,0.0,0.0,3.04889954791e-06
1662961743511554241,68,1662961743511554241,icp_odom,base_link,-0.00023205508478,-0.00305465073325,-0.0188836697489,0.00127165781656,-0.00270392014445,-0.000323405789738,0.999995483545,5.87757351593e-05,0.0,0.0,0.0,0.0,0.0,0.0,5.87757351593e-05,0.0,0.0,0.0,0.0,0.0,0.0,5.87757351593e-05,0.0,0.0,0.0,0.0,0.0,0.0,5.87757351593e-06,0.0,0.0,0.0,0.0,0.0,0.0,5.87757351593e-06,0.0,0.0,0.0,0.0,0.0,0.0,5.87757351593e-06,0.00259409565479,0.00044962586253,-0.00541608873755,-0.00397454760969,0.000672989117447,-0.00105534098111,2.93878675796e-05,0.0,0.0,0.0,0.0,0.0,0.0,2.93878675796e-05,0.0,0.0,0.0,0.0,0.0,0.0,2.93878675796e-05,0.0,0.0,0.0,0.0,0.0,0.0,2.93878675796e-06,0.0,0.0,0.0,0.0,0.0,0.0,2.93878675796e-06,0.0,0.0,0.0,0.0,0.0,0.0,2.93878675796e-06
1662961743604086637,69,1662961743604086637,icp_odom,base_link,9.10403905436e-05,-0.00333622400649,-0.0191101040691,0.00122753276231,-0.0026972398133,-0.000398342095608,0.999995529682,7.1178359355e-05,0.0,0.0,0.0,0.0,0.0,0.0,7.1178359355e-05,0.0,0.0,0.0,0.0,0.0,0.0,7.1178359355e-05,0.0,0.0,0.0,0.0,0.0,0.0,7.1178359355e-06,0.0,0.0,0.0,0.0,0.0,0.0,7.1178359355e-06,0.0,0.0,0.0,0.0,0.0,0.0,7.1178359355e-06,0.00348040717654,-0.00304695335217,-0.00245819194242,-0.000958155258559,0.000141950600664,-0.00161727995146,3.55891796775e-05,0.0,0.0,0.0,0.0,0.0,0.0,3.55891796775e-05,0.0,0.0,0.0,0.0,0.0,0.0,3.55891796775e-05,0.0,0.0,0.0,0.0,0.0,0.0,3.55891796775e-06,0.0,0.0,0.0,0.0,0.0,0.0,3.55891796775e-06,0.0,0.0,0.0,0.0,0.0,0.0,3.55891796775e-06
1662961743696513653,70,1662961743696513653,icp_odom,base_link,0.000842433189973,-0.00348317669705,-0.021182898432,0.00143668373646,-0.00313601086833,-0.000369327475413,0.999993982468,8.28414285817e-05,0.0,0.0,0.0,0.0,0.0,0.0,8.28414285817e-05,0.0,0.0,0.0,0.0,0.0,0.0,8.28414285817e-05,0.0,0.0,0.0,0.0,0.0,0.0,8.28414285817e-06,0.0,0.0,0.0,0.0,0.0,0.0,8.28414285817e-06,0.0,0.0,0.0,0.0,0.0,0.0,8.28414285817e-06,0.00800978112966,-0.00163860898465,-0.0224658604711,0.00453097373247,-0.00949203129858,0.000625283515546,4.14207142909e-05,0.0,0.0,0.0,0.0,0.0,0.0,4.14207142909e-05,0.0,0.0,0.0,0.0,0.0,0.0,4.14207142909e-05,0.0,0.0,0.0,0.0,0.0,0.0,4.14207142909e-06,0.0,0.0,0.0,0.0,0.0,0.0,4.14207142909e-06,0.0,0.0,0.0,0.0,0.0,0.0,4.14207142909e-06
1662961743788956404,71,1662961743788956404,icp_odom,base_link,0.00106662628241,-0.00319042801857,-0.0219374634326,0.00141984179406,-0.00321389901825,-0.000416007511,0.9999937409,6.09563424511e-05,0.0,0.0,0.0,0.0,0.0,0.0,6.09563424511e-05,0.0,0.0,0.0,0.0,0.0,0.0,6.09563424511e-05,0.0,0.0,0.0,0.0,0.0,0.0,6.09563424511e-06,0.0,0.0,0.0,0.0,0.0,0.0,6.09563424511e-06,0.0,0.0,0.0,0.0,0.0,0.0,6.09563424511e-06,0.00237160827965,0.00314509286545,-0.0081866197288,-0.000366835651221,-0.00168671295978,-0.0010063261725,3.04781712255e-05,0.0,0.0,0.0,0.0,0.0,0.0,3.04781712255e-05,0.0,0.0,0.0,0.0,0.0,0.0,3.04781712255e-05,0.0,0.0,0.0,0.0,0.0,0.0,3.04781712255e-06,0.0,0.0,0.0,0.0,0.0,0.0,3.04781712255e-06,0.0,0.0,0.0,0.0,0.0,0.0,3.04781712255e-06
1662961743900028706,72,1662961743900028706,icp_odom,base_link,0.00231079058722,-0.00259081693366,-0.0226682145149,0.00113768769394,-0.00331895910154,-0.000382510126558,0.999993771912,6.55089710362e-05,0.0,0.0,0.0,0.0,0.0,0.0,6.55089710362e-05,0.0,0.0,0.0,0.0,0.0,0.0,6.55089710362e-05,0.0,0.0,0.0,0.0,0.0,0.0,6.55089710362e-06,0.0,0.0,0.0,0.0,0.0,0.0,6.55089710362e-06,0.0,0.0,0.0,0.0,0.0,0.0,6.55089710362e-06,0.0111543331295,0.00538887921721,-0.00666623050347,-0.00507785659283,-0.00189280859195,0.000622707710136,3.27544855181e-05,0.0,0.0,0.0,0.0,0.0,0.0,3.27544855181e-05,0.0,0.0,0.0,0.0,0.0,0.0,3.27544855181e-05,0.0,0.0,0.0,0.0,0.0,0.0,3.27544855181e-06,0.0,0.0,0.0,0.0,0.0,0.0,3.27544855181e-06,0.0,0.0,0.0,0.0,0.0,0.0,3.27544855181e-06
1662961743989555597,73,1662961743989555597,icp_odom,base_link,0.00202205870301,-0.00313792587258,-0.0243835505098,0.0012055284815,-0.00356276264875,-0.000300214408168,0.999992881622,6.65678542794e-05,0.0,0.0,0.0,0.0,0.0,0.0,6.65678542794e-05,0.0,0.0,0.0,0.0,0.0,0.0,6.65678542794e-05,0.0,0.0,0.0,0.0,0.0,0.0,6.65678542794e-06,0.0,0.0,0.0,0.0,0.0,0.0,6.65678542794e-06,0.0,0.0,0.0,0.0,0.0,0.0,6.65678542794e-06,-0.00334745785221,-0.0061571826227,-0.0191242340952,0.00152328552213,-0.00544397812337,0.00183923530858,3.32839271397e-05,0.0,0.0,0.0,0.0,0.0,0.0,3.32839271397e-05,0.0,0.0,0.0,0.0,0.0,0.0,3.32839271397e-05,0.0,0.0,0.0,0.0,0.0,0.0,3.32839271397e-06,0.0,0.0,0.0,0.0,0.0,0.0,3.32839271397e-06,0.0,0.0,0.0,0.0,0.0,0.0,3.32839271397e-06
1662961744081940174,74,1662961744081940174,icp_odom,base_link,0.000640621874481,-0.00399729609489,-0.0230653770268,0.00121819926064,-0.00332318339029,-0.000326507629514,0.999993682898,6.88761199516e-05,0.0,0.0,0.0,0.0,0.0,0.0,6.88761199516e-05,0.0,0.0,0.0,0.0,0.0,0.0,6.88761199516e-05,0.0,0.0,0.0,0.0,0.0,0.0,6.88761199516e-06,0.0,0.0,0.0,0.0,0.0,0.0,6.88761199516e-06,0.0,0.0,0.0,0.0,0.0,0.0,6.88761199516e-06,-0.014845404774,-0.00927648413926,0.0143968956545,0.000270555436146,0.00518600502983,-0.00057636690326,3.44380599758e-05,0.0,0.0,0.0,0.0,0.0,0.0,3.44380599758e-05,0.0,0.0,0.0,0.0,0.0,0.0,3.44380599758e-05,0.0,0.0,0.0,0.0,0.0,0.0,3.44380599758e-06,0.0,0.0,0.0,0.0,0.0,0.0,3.44380599758e-06,0.0,0.0,0.0,0.0,0.0,0.0,3.44380599758e-06
1662961744192984104,75,1662961744192984104,icp_odom,base_link,0.000346371001797,-0.00343199353665,-0.0214597191662,0.00130417397821,-0.00307376110946,-0.0003228737494,0.999994373422,6.24476008862e-05,0.0,0.0,0.0,0.0,0.0,0.0,6.24476008862e-05,0.0,0.0,0.0,0.0,0.0,0.0,6.24476008862e-05,0.0,0.0,0.0,0.0,0.0,0.0,6.24476008862e-06,0.0,0.0,0.0,0.0,0.0,0.0,6.24476008862e-06,0.0,0.0,0.0,0.0,0.0,0.0,6.24476008862e-06,-0.00255707418546,0.00512433750555,0.0144645217806,0.00154721969739,0.00449291151017,5.52210149181e-05,3.12238004431e-05,0.0,0.0,0.0,0.0,0.0,0.0,3.12238004431e-05,0.0,0.0,0.0,0.0,0.0,0.0,3.12238004431e-05,0.0,0.0,0.0,0.0,0.0,0.0,3.12238004431e-06,0.0,0.0,0.0,0.0,0.0,0.0,3.12238004431e-06,0.0,0.0,0.0,0.0,0.0,0.0,3.12238004431e-06
1662961744285371065,76,1662961744285371065,icp_odom,base_link,0.000433440611232,-0.00284064142033,-0.022260658443,0.00139916725605,-0.00305905278334,-0.000417736523575,0.999994254995,4.97137654074e-05,0.0,0.0,0.0,0.0,0.0,0.0,4.97137654074e-05,0.0,0.0,0.0,0.0,0.0,0.0,4.97137654074e-05,0.0,0.0,0.0,0.0,0.0,0.0,4.97137654074e-06,0.0,0.0,0.0,0.0,0.0,0.0,4.97137654074e-06,0.0,0.0,0.0,0.0,0.0,0.0,4.97137654074e-06,0.000884954584762,0.00637876521796,-0.00869167596102,0.00204996275716,0.000316596007906,-0.00206029065885,2.48568827037e-05,0.0,0.0,0.0,0.0,0.0,0.0,2.48568827037e-05,0.0,0.0,0.0,0.0,0.0,0.0,2.48568827037e-05,0.0,0.0,0.0,0.0,0.0,0.0,2.48568827037e-06,0.0,0.0,0.0,0.0,0.0,0.0,2.48568827037e-06,0.0,0.0,0.0,0.0,0.0,0.0,2.48568827037e-06
1662961744377542734,77,1662961744377542734,icp_odom,base_link,0.00030689855339,-0.00338248838671,-0.0213224235922,0.00135857955769,-0.00298606018224,-0.000366223263283,0.999994551779,5.28832661398e-05,0.0,0.0,0.0,0.0,0.0,0.0,5.28832661398e-05,0.0,0.0,0.0,0.0,0.0,0.0,5.28832661398e-05,0.0,0.0,0.0,0.0,0.0,0.0,5.28832661398e-06,0.0,0.0,0.0,0.0,0.0,0.0,5.28832661398e-06,0.0,0.0,0.0,0.0,0.0,0.0,5.28832661398e-06,-0.00130564230494,-0.00585127063096,0.0102038104087,-0.000877867278177,0.00158509798348,0.00111817929428,2.64416330699e-05,0.0,0.0,0.0,0.0,0.0,0.0,2.64416330699e-05,0.0,0.0,0.0,0.0,0.0,0.0,2.64416330699e-05,0.0,0.0,0.0,0.0,0.0,0.0,2.64416330699e-06,0.0,0.0,0.0,0.0,0.0,0.0,2.64416330699e-06,0.0,0.0,0.0,0.0,0.0,0.0,2.64416330699e-06
