%time,field.header.seq,field.header.stamp,field.header.frame_id,field.child_frame_id,field.pose.pose.position.x,field.pose.pose.position.y,field.pose.pose.position.z,field.pose.pose.orientation.x,field.pose.pose.orientation.y,field.pose.pose.orientation.z,field.pose.pose.orientation.w,field.pose.covariance0,field.pose.covariance1,field.pose.covariance2,field.pose.covariance3,field.pose.covariance4,field.pose.covariance5,field.pose.covariance6,field.pose.covariance7,field.pose.covariance8,field.pose.covariance9,field.pose.covariance10,field.pose.covariance11,field.pose.covariance12,field.pose.covariance13,field.pose.covariance14,field.pose.covariance15,field.pose.covariance16,field.pose.covariance17,field.pose.covariance18,field.pose.covariance19,field.pose.covariance20,field.pose.covariance21,field.pose.covariance22,field.pose.covariance23,field.pose.covariance24,field.pose.covariance25,field.pose.covariance26,field.pose.covariance27,field.pose.covariance28,field.pose.covariance29,field.pose.covariance30,field.pose.covariance31,field.pose.covariance32,field.pose.covariance33,field.pose.covariance34,field.pose.covariance35,field.twist.twist.linear.x,field.twist.twist.linear.y,field.twist.twist.linear.z,field.twist.twist.angular.x,field.twist.twist.angular.y,field.twist.twist.angular.z,field.twist.covariance0,field.twist.covariance1,field.twist.covariance2,field.twist.covariance3,field.twist.covariance4,field.twist.covariance5,field.twist.covariance6,field.twist.covariance7,field.twist.covariance8,field.twist.covariance9,field.twist.covariance10,field.twist.covariance11,field.twist.covariance12,field.twist.covariance13,field.twist.covariance14,field.twist.covariance15,field.twist.covariance16,field.twist.covariance17,field.twist.covariance18,field.twist.covariance19,field.twist.covariance20,field.twist.covariance21,field.twist.covariance22,field.twist.covariance23,field.twist.covariance24,field.twist.covariance25,field.twist.covariance26,field.twist.covariance27,field.twist.covariance28,field.twist.covariance29,field.twist.covariance30,field.twist.covariance31,field.twist.covariance32,field.twist.covariance33,field.twist.covariance34,field.twist.covariance35
1662431792729974031,278,1662431792729974031,odom_ekf,base_link,0.0156136285514,0.00381233356893,-0.0397349670529,0.001602400242,-0.0123969280385,0.00178197063885,0.999920283357,0.000929734084234,0.0,0.0,0.0,0.0,0.0,0.0,0.000929734084234,0.0,0.0,0.0,0.0,0.0,0.0,0.000929734084234,0.0,0.0,0.0,0.0,0.0,0.0,9.29734084234e-05,0.0,0.0,0.0,0.0,0.0,0.0,9.29734084234e-05,0.0,0.0,0.0,0.0,0.0,0.0,9.29734084234e-05,0.212977617979,0.197029620409,-0.961451649666,-0.0209235139191,-0.154837936163,-0.099120311439,0.000464867042117,0.0,0.0,0.0,0.0,0.0,0.0,0.000464867042117,0.0,0.0,0.0,0.0,0.0,0.0,0.000464867042117,0.0,0.0,0.0,0.0,0.0,0.0,4.64867042117e-05,0.0,0.0,0.0,0.0,0.0,0.0,4.64867042117e-05,0.0,0.0,0.0,0.0,0.0,0.0,4.64867042117e-05
1662431792822094917,279,1662431792822094917,odom_ekf,base_link,-0.000838179141283,-0.0157792381942,-0.00561495497823,0.000546690583792,-0.00925884937834,0.00841606486286,0.999921569269,0.00170928351848,0.0,0.0,0.0,0.0,0.0,0.0,0.00170928351848,0.0,0.0,0.0,0.0,0.0,0.0,0.00170928351848,0.0,0.0,0.0,0.0,0.0,0.0,0.000170928351848,0.0,0.0,0.0,0.0,0.0,0.0,0.000170928351848,0.0,0.0,0.0,0.0,0.0,0.0,0.000170928351848,-0.170098140836,-0.210855916142,0.375384747982,-0.0205569621176,0.0685342922807,0.144130542874,0.00085464175924,0.0,0.0,0.0,0.0,0.0,0.0,0.00085464175924,0.0,0.0,0.0,0.0,0.0,0.0,0.00085464175924,0.0,0.0,0.0,0.0,0.0,0.0,8.5464175924e-05,0.0,0.0,0.0,0.0,0.0,0.0,8.5464175924e-05,0.0,0.0,0.0,0.0,0.0,0.0,8.5464175924e-05
1662431792932850838,280,1662431792932850838,odom_ekf,base_link,-0.0012471396476,-0.00346316955984,-0.0194887667894,-0.00348280751685,-0.00683799115568,0.00548362583744,0.999955519899,0.00137843219929,0.0,0.0,0.0,0.0,0.0,0.0,0.00137843219929,0.0,0.0,0.0,0.0,0.0,0.0,0.00137843219929,0.0,0.0,0.0,0.0,0.0,0.0,0.000137843219929,0.0,0.0,0.0,0.0,0.0,0.0,0.000137843219929,0.0,0.0,0.0,0.0,0.0,0.0,0.000137843219929,-0.00414141546935,0.111129023135,-0.12531375885,-0.0730094388127,0.0440892986953,-0.0524833090603,0.000689216099647,0.0,0.0,0.0,0.0,0.0,0.0,0.000689216099647,0.0,0.0,0.0,0.0,0.0,0.0,0.000689216099647,0.0,0.0,0.0,0.0,0.0,0.0,6.89216099647e-05,0.0,0.0,0.0,0.0,0.0,0.0,6.89216099647e-05,0.0,0.0,0.0,0.0,0.0,0.0,6.89216099647e-05
1662431793024972439,281,1662431793024972439,odom_ekf,base_link,0.00929107982665,-0.0296623073518,-0.0375888049603,-0.00535075464343,-0.00995814596203,0.00826952137063,0.999901905074,0.00131840073557,0.0,0.0,0.0,0.0,0.0,0.0,0.00131840073557,0.0,0.0,0.0,0.0,0.0,0.0,0.00131840073557,0.0,0.0,0.0,0.0,0.0,0.0,0.000131840073557,0.0,0.0,0.0,0.0,0.0,0.0,0.000131840073557,0.0,0.0,0.0,0.0,0.0,0.0,0.000131840073557,0.108565188944,-0.284239143133,-0.199985072017,-0.0407033748925,-0.0676199048758,0.060655336827,0.000659200367786,0.0,0.0,0.0,0.0,0.0,0.0,0.000659200367786,0.0,0.0,0.0,0.0,0.0,0.0,0.000659200367786,0.0,0.0,0.0,0.0,0.0,0.0,6.59200367786e-05,0.0,0.0,0.0,0.0,0.0,0.0,6.59200367786e-05,0.0,0.0,0.0,0.0,0.0,0.0,6.59200367786e-05
1662431793116859198,282,1662431793116859198,odom_ekf,base_link,0.0117732863873,0.0086810477078,-0.021979438141,-0.000499208650603,-0.00876793335009,0.00143501675348,0.999960406647,0.000428180345823,0.0,0.0,0.0,0.0,0.0,0.0,0.000428180345823,0.0,0.0,0.0,0.0,0.0,0.0,0.000428180345823,0.0,0.0,0.0,0.0,0.0,0.0,4.28180345823e-05,0.0,0.0,0.0,0.0,0.0,0.0,4.28180345823e-05,0.0,0.0,0.0,0.0,0.0,0.0,4.28180345823e-05,0.0373179987073,0.41491869092,0.173688814044,0.104148179293,0.0265554245561,-0.149544104934,0.000214090172912,0.0,0.0,0.0,0.0,0.0,0.0,0.000214090172912,0.0,0.0,0.0,0.0,0.0,0.0,0.000214090172912,0.0,0.0,0.0,0.0,0.0,0.0,2.14090172912e-05,0.0,0.0,0.0,0.0,0.0,0.0,2.14090172912e-05,0.0,0.0,0.0,0.0,0.0,0.0,2.14090172912e-05
1662431793208817959,283,1662431793208817959,odom_ekf,base_link,-0.014478771016,-0.0073251388967,0.00234640389681,-0.000573156727075,-0.00627783941467,0.0079082178652,0.999948858849,0.00120418454275,0.0,0.0,0.0,0.0,0.0,0.0,0.00120418454275,0.0,0.0,0.0,0.0,0.0,0.0,0.00120418454275,0.0,0.0,0.0,0.0,0.0,0.0,0.000120418454275,0.0,0.0,0.0,0.0,0.0,0.0,0.000120418454275,0.0,0.0,0.0,0.0,0.0,0.0,0.000120418454275,-0.281294196844,-0.173511445522,0.269326001406,5.39547836524e-05,0.0540852658451,0.140822321177,0.000602092271377,0.0,0.0,0.0,0.0,0.0,0.0,0.000602092271377,0.0,0.0,0.0,0.0,0.0,0.0,0.000602092271377,0.0,0.0,0.0,0.0,0.0,0.0,6.02092271377e-05,0.0,0.0,0.0,0.0,0.0,0.0,6.02092271377e-05,0.0,0.0,0.0,0.0,0.0,0.0,6.02092271377e-05
1662431793317404270,284,1662431793317404270,odom_ekf,base_link,0.0163016505539,0.0254753679037,-0.0184360407293,-0.000796595309499,-0.0111057124587,-0.000348881057252,0.999937951509,0.000453447429033,0.0,0.0,0.0,0.0,0.0,0.0,0.000453447429033,0.0,0.0,0.0,0.0,0.0,0.0,0.000453447429033,0.0,0.0,0.0,0.0,0.0,0.0,4.53447429033e-05,0.0,0.0,0.0,0.0,0.0,0.0,4.53447429033e-05,0.0,0.0,0.0,0.0,0.0,0.0,4.53447429033e-05,0.285785615444,0.297787815332,-0.194621026516,-0.00503995642066,-0.0888442993164,-0.152078568935,0.000226723714516,0.0,0.0,0.0,0.0,0.0,0.0,0.000226723714516,0.0,0.0,0.0,0.0,0.0,0.0,0.000226723714516,0.0,0.0,0.0,0.0,0.0,0.0,2.26723714516e-05,0.0,0.0,0.0,0.0,0.0,0.0,2.26723714516e-05,0.0,0.0,0.0,0.0,0.0,0.0,2.26723714516e-05
1662431793409489393,285,1662431793409489393,odom_ekf,base_link,0.0249446667731,0.0347676090896,-0.0481373891234,0.0029176859724,-0.0125943675533,-0.00300480560188,0.9999119162,0.000859202941032,0.0,0.0,0.0,0.0,0.0,0.0,0.000859202941032,0.0,0.0,0.0,0.0,0.0,0.0,0.000859202941032,0.0,0.0,0.0,0.0,0.0,0.0,8.59202941032e-05,0.0,0.0,0.0,0.0,0.0,0.0,8.59202941032e-05,0.0,0.0,0.0,0.0,0.0,0.0,8.59202941032e-05,0.0866033434868,0.101487576962,-0.324385344982,0.0801229998469,-0.0320460349321,-0.0587211325765,0.000429601470516,0.0,0.0,0.0,0.0,0.0,0.0,0.000429601470516,0.0,0.0,0.0,0.0,0.0,0.0,0.000429601470516,0.0,0.0,0.0,0.0,0.0,0.0,4.29601470516e-05,0.0,0.0,0.0,0.0,0.0,0.0,4.29601470516e-05,0.0,0.0,0.0,0.0,0.0,0.0,4.29601470516e-05
1662431793501642227,286,1662431793501642227,odom_ekf,base_link,0.0377095639706,0.0719552636147,-0.0727935582399,-0.003025557023,-0.0146986192791,-0.0127845964032,0.999805656461,0.00211334404961,0.0,0.0,0.0,0.0,0.0,0.0,0.00211334404961,0.0,0.0,0.0,0.0,0.0,0.0,0.00211334404961,0.0,0.0,0.0,0.0,0.0,0.0,0.000211334404961,0.0,0.0,0.0,0.0,0.0,0.0,0.000211334404961,0.0,0.0,0.0,0.0,0.0,0.0,0.000211334404961,0.129283607006,0.402769953012,-0.273283243179,-0.131047144532,-0.0479730032384,-0.210199996829,0.00105667202481,0.0,0.0,0.0,0.0,0.0,0.0,0.00105667202481,0.0,0.0,0.0,0.0,0.0,0.0,0.00105667202481,0.0,0.0,0.0,0.0,0.0,0.0,0.000105667202481,0.0,0.0,0.0,0.0,0.0,0.0,0.000105667202481,0.0,0.0,0.0,0.0,0.0,0.0,0.000105667202481
1662431793594134808,287,1662431793594134808,odom_ekf,base_link,-0.002337384969,0.00671852380037,0.0164431035519,0.00050571699872,-0.00409895328016,0.00474356092935,0.999980220535,0.000820265107071,0.0,0.0,0.0,0.0,0.0,0.0,0.000820265107071,0.0,0.0,0.0,0.0,0.0,0.0,0.000820265107071,0.0,0.0,0.0,0.0,0.0,0.0,8.20265107071e-05,0.0,0.0,0.0,0.0,0.0,0.0,8.20265107071e-05,0.0,0.0,0.0,0.0,0.0,0.0,8.20265107071e-05,-0.386246353388,-0.721656680107,0.972523570061,0.0830073654652,0.227625116706,0.379480242729,0.000410132553536,0.0,0.0,0.0,0.0,0.0,0.0,0.000410132553536,0.0,0.0,0.0,0.0,0.0,0.0,0.000410132553536,0.0,0.0,0.0,0.0,0.0,0.0,4.10132553536e-05,0.0,0.0,0.0,0.0,0.0,0.0,4.10132553536e-05,0.0,0.0,0.0,0.0,0.0,0.0,4.10132553536e-05
1662431793704681873,288,1662431793704681873,odom_ekf,base_link,-0.000691168010235,0.0021845321171,-0.0317775309086,-0.00445435783914,-0.00900187004225,0.00372022376494,0.999942640839,0.00107118307541,0.0,0.0,0.0,0.0,0.0,0.0,0.00107118307541,0.0,0.0,0.0,0.0,0.0,0.0,0.00107118307541,0.0,0.0,0.0,0.0,0.0,0.0,0.000107118307541,0.0,0.0,0.0,0.0,0.0,0.0,0.000107118307541,0.0,0.0,0.0,0.0,0.0,0.0,0.000107118307541,0.0109235001728,-0.0415778160095,-0.436264067888,-0.0901466235518,-0.0883769616485,-0.0176578704268,0.000535591537706,0.0,0.0,0.0,0.0,0.0,0.0,0.000535591537706,0.0,0.0,0.0,0.0,0.0,0.0,0.000535591537706,0.0,0.0,0.0,0.0,0.0,0.0,5.35591537706e-05,0.0,0.0,0.0,0.0,0.0,0.0,5.35591537706e-05,0.0,0.0,0.0,0.0,0.0,0.0,5.35591537706e-05
1662431793796993732,289,1662431793796993732,odom_ekf,base_link,0.00449161557481,-0.0207291897386,-0.0230423994362,-0.00192352632979,-0.0139869406464,0.00872029123379,0.999862301549,0.000828056113059,0.0,0.0,0.0,0.0,0.0,0.0,0.000828056113059,0.0,0.0,0.0,0.0,0.0,0.0,0.000828056113059,0.0,0.0,0.0,0.0,0.0,0.0,8.28056113059e-05,0.0,0.0,0.0,0.0,0.0,0.0,8.28056113059e-05,0.0,0.0,0.0,0.0,0.0,0.0,8.28056113059e-05,0.0559673532844,-0.249466583133,0.0914000570774,0.0548575073481,-0.108974248171,0.107081718743,0.000414028056529,0.0,0.0,0.0,0.0,0.0,0.0,0.000414028056529,0.0,0.0,0.0,0.0,0.0,0.0,0.000414028056529,0.0,0.0,0.0,0.0,0.0,0.0,4.14028056529e-05,0.0,0.0,0.0,0.0,0.0,0.0,4.14028056529e-05,0.0,0.0,0.0,0.0,0.0,0.0,4.14028056529e-05
1662431793891623020,290,1662431793891623020,odom_ekf,base_link,0.0217553600669,0.00197238475084,-0.0093234796077,-0.00704592823556,-0.011445033675,0.0024642912099,0.999906642326,0.000888209995762,0.0,0.0,0.0,0.0,0.0,0.0,0.000888209995762,0.0,0.0,0.0,0.0,0.0,0.0,0.000888209995762,0.0,0.0,0.0,0.0,0.0,0.0,8.88209995762e-05,0.0,0.0,0.0,0.0,0.0,0.0,8.88209995762e-05,0.0,0.0,0.0,0.0,0.0,0.0,8.88209995762e-05,0.190582841635,0.236097276211,0.140673026443,-0.109965547919,0.0542485117912,-0.13087888062,0.000444104997881,0.0,0.0,0.0,0.0,0.0,0.0,0.000444104997881,0.0,0.0,0.0,0.0,0.0,0.0,0.000444104997881,0.0,0.0,0.0,0.0,0.0,0.0,4.44104997881e-05,0.0,0.0,0.0,0.0,0.0,0.0,4.44104997881e-05,0.0,0.0,0.0,0.0,0.0,0.0,4.44104997881e-05
1662431793983667374,291,1662431793983667374,odom_ekf,base_link,0.00598522461951,0.0290484987199,-0.0332243442535,0.000199815259298,-0.0117356425237,-0.0013278542133,0.999930233352,0.00100856914439,0.0,0.0,0.0,0.0,0.0,0.0,0.00100856914439,0.0,0.0,0.0,0.0,0.0,0.0,0.00100856914439,0.0,0.0,0.0,0.0,0.0,0.0,0.000100856914439,0.0,0.0,0.0,0.0,0.0,0.0,0.000100856914439,0.0,0.0,0.0,0.0,0.0,0.0,0.000100856914439,-0.175722032785,0.298621207476,-0.251517295837,0.156494438648,-0.00550864636898,-0.0842802524567,0.000504284572194,0.0,0.0,0.0,0.0,0.0,0.0,0.000504284572194,0.0,0.0,0.0,0.0,0.0,0.0,0.000504284572194,0.0,0.0,0.0,0.0,0.0,0.0,5.04284572194e-05,0.0,0.0,0.0,0.0,0.0,0.0,5.04284572194e-05,0.0,0.0,0.0,0.0,0.0,0.0,5.04284572194e-05
1662431794078305006,292,1662431794078305006,odom_ekf,base_link,0.00558670796454,0.0124506503344,-0.0275224316865,-0.00296031499843,-0.00807097110681,0.00127065893625,0.99996223998,0.000914262310755,0.0,0.0,0.0,0.0,0.0,0.0,0.000914262310755,0.0,0.0,0.0,0.0,0.0,0.0,0.000914262310755,0.0,0.0,0.0,0.0,0.0,0.0,9.14262310755e-05,0.0,0.0,0.0,0.0,0.0,0.0,9.14262310755e-05,0.0,0.0,0.0,0.0,0.0,0.0,9.14262310755e-05,-0.00232923077419,-0.175367742777,0.0603967942297,-0.0660350099206,0.0775452777743,0.0554387532175,0.000457131155378,0.0,0.0,0.0,0.0,0.0,0.0,0.000457131155378,0.0,0.0,0.0,0.0,0.0,0.0,0.000457131155378,0.0,0.0,0.0,0.0,0.0,0.0,4.57131155378e-05,0.0,0.0,0.0,0.0,0.0,0.0,4.57131155378e-05,0.0,0.0,0.0,0.0,0.0,0.0,4.57131155378e-05
1662431794170465231,293,1662431794170465231,odom_ekf,base_link,-0.00716852024198,-0.0120627656579,-0.0207369904965,-0.000753042518115,-0.0101228393174,0.00663215569025,0.999926485079,0.00093897303245,0.0,0.0,0.0,0.0,0.0,0.0,0.00093897303245,0.0,0.0,0.0,0.0,0.0,0.0,0.00093897303245,0.0,0.0,0.0,0.0,0.0,0.0,9.3897303245e-05,0.0,0.0,0.0,0.0,0.0,0.0,9.3897303245e-05,0.0,0.0,0.0,0.0,0.0,0.0,9.3897303245e-05,-0.137885034084,-0.266073733568,0.0742814466357,0.0485389605165,-0.0451977699995,0.115729793906,0.000469486516225,0.0,0.0,0.0,0.0,0.0,0.0,0.000469486516225,0.0,0.0,0.0,0.0,0.0,0.0,0.000469486516225,0.0,0.0,0.0,0.0,0.0,0.0,4.69486516225e-05,0.0,0.0,0.0,0.0,0.0,0.0,4.69486516225e-05,0.0,0.0,0.0,0.0,0.0,0.0,4.69486516225e-05
1662431794278680086,294,1662431794278680086,odom_ekf,base_link,-0.00599521398544,-0.0420963950455,-0.0075160022825,-0.00394933106437,-0.00751013011985,0.0116463876047,0.999896175803,0.00155684394361,0.0,0.0,0.0,0.0,0.0,0.0,0.00155684394361,0.0,0.0,0.0,0.0,0.0,0.0,0.00155684394361,0.0,0.0,0.0,0.0,0.0,0.0,0.000155684394361,0.0,0.0,0.0,0.0,0.0,0.0,0.000155684394361,0.0,0.0,0.0,0.0,0.0,0.0,0.000155684394361,0.00962598435581,-0.277856320143,0.12154801935,-0.0575653277338,0.0488912761211,0.0931519195437,0.000778421971807,0.0,0.0,0.0,0.0,0.0,0.0,0.000778421971807,0.0,0.0,0.0,0.0,0.0,0.0,0.000778421971807,0.0,0.0,0.0,0.0,0.0,0.0,7.78421971807e-05,0.0,0.0,0.0,0.0,0.0,0.0,7.78421971807e-05,0.0,0.0,0.0,0.0,0.0,0.0,7.78421971807e-05
1662431794373395681,295,1662431794373395681,odom_ekf,base_link,-0.0118281971663,-0.00570238754153,0.0234267711639,0.000138383339177,-0.00350190237109,0.00587869369705,0.999976578971,0.00097712077267,0.0,0.0,0.0,0.0,0.0,0.0,0.00097712077267,0.0,0.0,0.0,0.0,0.0,0.0,0.00097712077267,0.0,0.0,0.0,0.0,0.0,0.0,9.7712077267e-05,0.0,0.0,0.0,0.0,0.0,0.0,9.7712077267e-05,0.0,0.0,0.0,0.0,0.0,0.0,9.7712077267e-05,-0.047712109983,0.382922261953,0.330542474985,0.0858987718821,0.0846144855022,-0.121769309044,0.000488560386335,0.0,0.0,0.0,0.0,0.0,0.0,0.000488560386335,0.0,0.0,0.0,0.0,0.0,0.0,0.000488560386335,0.0,0.0,0.0,0.0,0.0,0.0,4.88560386335e-05,0.0,0.0,0.0,0.0,0.0,0.0,4.88560386335e-05,0.0,0.0,0.0,0.0,0.0,0.0,4.88560386335e-05
1662431794466333628,296,1662431794466333628,odom_ekf,base_link,0.00579677149653,0.0125121865422,-0.00191403925419,-0.00093836596936,-0.00600422398347,0.00180000140912,0.999979914178,0.000534095538862,0.0,0.0,0.0,0.0,0.0,0.0,0.000534095538862,0.0,0.0,0.0,0.0,0.0,0.0,0.000534095538862,0.0,0.0,0.0,0.0,0.0,0.0,5.34095538862e-05,0.0,0.0,0.0,0.0,0.0,0.0,5.34095538862e-05,0.0,0.0,0.0,0.0,0.0,0.0,5.34095538862e-05,0.19001853466,0.193678796291,-0.274047255516,-0.023575887084,-0.0538202412426,-0.0876237601042,0.000267047769431,0.0,0.0,0.0,0.0,0.0,0.0,0.000267047769431,0.0,0.0,0.0,0.0,0.0,0.0,0.000267047769431,0.0,0.0,0.0,0.0,0.0,0.0,2.67047769431e-05,0.0,0.0,0.0,0.0,0.0,0.0,2.67047769431e-05,0.0,0.0,0.0,0.0,0.0,0.0,2.67047769431e-05
1662431794560364962,297,1662431794560364962,odom_ekf,base_link,0.00689526600763,-0.00148618221283,-0.0172051116824,0.00074028067973,-0.0105813728933,0.00279888611071,0.999939824574,0.000410042735261,0.0,0.0,0.0,0.0,0.0,0.0,0.000410042735261,0.0,0.0,0.0,0.0,0.0,0.0,0.000410042735261,0.0,0.0,0.0,0.0,0.0,0.0,4.10042735261e-05,0.0,0.0,0.0,0.0,0.0,0.0,4.10042735261e-05,0.0,0.0,0.0,0.0,0.0,0.0,4.10042735261e-05,0.00919151771814,-0.148601174355,-0.163021251559,0.0355599708855,-0.0974762886763,0.020778439939,0.000205021367631,0.0,0.0,0.0,0.0,0.0,0.0,0.000205021367631,0.0,0.0,0.0,0.0,0.0,0.0,0.000205021367631,0.0,0.0,0.0,0.0,0.0,0.0,2.05021367631e-05,0.0,0.0,0.0,0.0,0.0,0.0,2.05021367631e-05,0.0,0.0,0.0,0.0,0.0,0.0,2.05021367631e-05
1662431794652291536,298,1662431794652291536,odom_ekf,base_link,0.0110974712297,-0.000412059016526,-0.0338568165898,-0.00185101449243,-0.00868975223181,0.00334119437958,0.999954948171,0.000705252883807,0.0,0.0,0.0,0.0,0.0,0.0,0.000705252883807,0.0,0.0,0.0,0.0,0.0,0.0,0.000705252883807,0.0,0.0,0.0,0.0,0.0,0.0,7.05252883807e-05,0.0,0.0,0.0,0.0,0.0,0.0,7.05252883807e-05,0.0,0.0,0.0,0.0,0.0,0.0,7.05252883807e-05,0.0419329255819,0.0111703462899,-0.182085767388,-0.0561111792922,0.041354354471,0.0122565887868,0.000352626441903,0.0,0.0,0.0,0.0,0.0,0.0,0.000352626441903,0.0,0.0,0.0,0.0,0.0,0.0,0.000352626441903,0.0,0.0,0.0,0.0,0.0,0.0,3.52626441903e-05,0.0,0.0,0.0,0.0,0.0,0.0,3.52626441903e-05,0.0,0.0,0.0,0.0,0.0,0.0,3.52626441903e-05
1662431794760552406,299,1662431794760552406,odom_ekf,base_link,0.0039992602542,-0.00627501821145,0.00463219359517,-0.00137049151701,-0.00666639159728,0.00648881219602,0.999955787169,0.000899057279639,0.0,0.0,0.0,0.0,0.0,0.0,0.000899057279639,0.0,0.0,0.0,0.0,0.0,0.0,0.000899057279639,0.0,0.0,0.0,0.0,0.0,0.0,8.99057279639e-05,0.0,0.0,0.0,0.0,0.0,0.0,8.99057279639e-05,0.0,0.0,0.0,0.0,0.0,0.0,8.99057279639e-05,-0.0597439520061,-0.0550549924374,0.356407761574,0.00962415989488,0.0372104234993,0.058157749474,0.000449528639819,0.0,0.0,0.0,0.0,0.0,0.0,0.000449528639819,0.0,0.0,0.0,0.0,0.0,0.0,0.000449528639819,0.0,0.0,0.0,0.0,0.0,0.0,4.49528639819e-05,0.0,0.0,0.0,0.0,0.0,0.0,4.49528639819e-05,0.0,0.0,0.0,0.0,0.0,0.0,4.49528639819e-05
1662431794852581263,300,1662431794852581263,odom_ekf,base_link,0.0131074860692,-0.00225307699293,-0.0151274781674,-0.00213373063455,-0.00646899296001,0.00419445209024,0.999968002436,0.000698711042739,0.0,0.0,0.0,0.0,0.0,0.0,0.000698711042739,0.0,0.0,0.0,0.0,0.0,0.0,0.000698711042739,0.0,0.0,0.0,0.0,0.0,0.0,6.98711042739e-05,0.0,0.0,0.0,0.0,0.0,0.0,6.98711042739e-05,0.0,0.0,0.0,0.0,0.0,0.0,6.98711042739e-05,0.0966634601355,0.0430237203836,-0.21589705348,-0.0169005952775,0.00442880252376,-0.0497483313084,0.00034935552137,0.0,0.0,0.0,0.0,0.0,0.0,0.00034935552137,0.0,0.0,0.0,0.0,0.0,0.0,0.00034935552137,0.0,0.0,0.0,0.0,0.0,0.0,3.4935552137e-05,0.0,0.0,0.0,0.0,0.0,0.0,3.4935552137e-05,0.0,0.0,0.0,0.0,0.0,0.0,3.4935552137e-05
1662431794944614887,301,1662431794944614887,odom_ekf,base_link,-0.00144404917955,-0.0351066105068,-0.0579105764627,-0.0027301467857,-0.0133079101589,0.0104886161527,0.999852706531,0.000753720666957,0.0,0.0,0.0,0.0,0.0,0.0,0.000753720666957,0.0,0.0,0.0,0.0,0.0,0.0,0.000753720666957,0.0,0.0,0.0,0.0,0.0,0.0,7.53720666957e-05,0.0,0.0,0.0,0.0,0.0,0.0,7.53720666957e-05,0.0,0.0,0.0,0.0,0.0,0.0,7.53720666957e-05,-0.1671025455,-0.353626400232,-0.464276194572,-0.0136404726654,-0.148785099387,0.136650040746,0.000376860333479,0.0,0.0,0.0,0.0,0.0,0.0,0.000376860333479,0.0,0.0,0.0,0.0,0.0,0.0,0.000376860333479,0.0,0.0,0.0,0.0,0.0,0.0,3.76860333479e-05,0.0,0.0,0.0,0.0,0.0,0.0,3.76860333479e-05,0.0,0.0,0.0,0.0,0.0,0.0,3.76860333479e-05
1662431795037067413,302,1662431795037067413,odom_ekf,base_link,0.0104376701638,-0.0221064742655,-0.0384055003524,0.00261714475653,-0.0115101634725,0.00693236793916,0.999906300093,0.00084426250278,0.0,0.0,0.0,0.0,0.0,0.0,0.00084426250278,0.0,0.0,0.0,0.0,0.0,0.0,0.00084426250278,0.0,0.0,0.0,0.0,0.0,0.0,8.4426250278e-05,0.0,0.0,0.0,0.0,0.0,0.0,8.4426250278e-05,0.0,0.0,0.0,0.0,0.0,0.0,8.4426250278e-05,0.137005001307,0.136684238911,0.208197101951,0.114909768105,0.0383126288652,-0.0781632959843,0.00042213125139,0.0,0.0,0.0,0.0,0.0,0.0,0.00042213125139,0.0,0.0,0.0,0.0,0.0,0.0,0.00042213125139,0.0,0.0,0.0,0.0,0.0,0.0,4.2213125139e-05,0.0,0.0,0.0,0.0,0.0,0.0,4.2213125139e-05,0.0,0.0,0.0,0.0,0.0,0.0,4.2213125139e-05
1662431795144958019,303,1662431795144958019,odom_ekf,base_link,-0.00164914131165,-0.0169081315398,-0.0141547434032,0.0048467193976,-0.00840979235865,0.00807429018552,0.999920292094,0.000961538044196,0.0,0.0,0.0,0.0,0.0,0.0,0.000961538044196,0.0,0.0,0.0,0.0,0.0,0.0,0.000961538044196,0.0,0.0,0.0,0.0,0.0,0.0,9.61538044196e-05,0.0,0.0,0.0,0.0,0.0,0.0,9.61538044196e-05,0.0,0.0,0.0,0.0,0.0,0.0,9.61538044196e-05,-0.106140896678,0.0508767031133,0.227023839951,0.0420318171382,0.0571923963726,0.0206680689007,0.000480769022098,0.0,0.0,0.0,0.0,0.0,0.0,0.000480769022098,0.0,0.0,0.0,0.0,0.0,0.0,0.000480769022098,0.0,0.0,0.0,0.0,0.0,0.0,4.80769022098e-05,0.0,0.0,0.0,0.0,0.0,0.0,4.80769022098e-05,0.0,0.0,0.0,0.0,0.0,0.0,4.80769022098e-05
1662431795237461805,304,1662431795237461805,odom_ekf,base_link,-0.0135046215728,-0.0305987019092,-0.0133335748687,0.00466966741893,-0.011114067698,0.0112433323443,0.99986412036,0.000643237127136,0.0,0.0,0.0,0.0,0.0,0.0,0.000643237127136,0.0,0.0,0.0,0.0,0.0,0.0,0.000643237127136,0.0,0.0,0.0,0.0,0.0,0.0,6.43237127136e-05,0.0,0.0,0.0,0.0,0.0,0.0,6.43237127136e-05,0.0,0.0,0.0,0.0,0.0,0.0,6.43237127136e-05,-0.130355015397,-0.145809099078,0.0124755064026,-0.0039027298335,-0.058098886162,0.0688477829099,0.000321618563568,0.0,0.0,0.0,0.0,0.0,0.0,0.000321618563568,0.0,0.0,0.0,0.0,0.0,0.0,0.000321618563568,0.0,0.0,0.0,0.0,0.0,0.0,3.21618563568e-05,0.0,0.0,0.0,0.0,0.0,0.0,3.21618563568e-05,0.0,0.0,0.0,0.0,0.0,0.0,3.21618563568e-05
1662431795329623222,305,1662431795329623222,odom_ekf,base_link,-0.00310889072716,0.001530027017,-0.0225102119148,-0.00152705777251,-0.0130451993544,0.00734593317161,0.999886757655,0.000868579661781,0.0,0.0,0.0,0.0,0.0,0.0,0.000868579661781,0.0,0.0,0.0,0.0,0.0,0.0,0.000868579661781,0.0,0.0,0.0,0.0,0.0,0.0,8.68579661781e-05,0.0,0.0,0.0,0.0,0.0,0.0,8.68579661781e-05,0.0,0.0,0.0,0.0,0.0,0.0,8.68579661781e-05,0.118321247399,0.345057547092,-0.105380058289,-0.135715544224,-0.0412972420454,-0.08262514323,0.00043428983089,0.0,0.0,0.0,0.0,0.0,0.0,0.00043428983089,0.0,0.0,0.0,0.0,0.0,0.0,0.00043428983089,0.0,0.0,0.0,0.0,0.0,0.0,4.3428983089e-05,0.0,0.0,0.0,0.0,0.0,0.0,4.3428983089e-05,0.0,0.0,0.0,0.0,0.0,0.0,4.3428983089e-05
1662431795421766996,306,1662431795421766996,odom_ekf,base_link,-0.0198986399919,-0.0197552144527,-0.0132583696395,0.000571077795412,-0.0108276540907,0.0109846919226,0.999880879065,0.000760082717941,0.0,0.0,0.0,0.0,0.0,0.0,0.000760082717941,0.0,0.0,0.0,0.0,0.0,0.0,0.000760082717941,0.0,0.0,0.0,0.0,0.0,0.0,7.60082717941e-05,0.0,0.0,0.0,0.0,0.0,0.0,7.60082717941e-05,0.0,0.0,0.0,0.0,0.0,0.0,7.60082717941e-05,-0.182916387916,-0.228630691767,0.104468338192,0.0470913723111,0.0475001037121,0.0785549879074,0.00038004135897,0.0,0.0,0.0,0.0,0.0,0.0,0.00038004135897,0.0,0.0,0.0,0.0,0.0,0.0,0.00038004135897,0.0,0.0,0.0,0.0,0.0,0.0,3.8004135897e-05,0.0,0.0,0.0,0.0,0.0,0.0,3.8004135897e-05,0.0,0.0,0.0,0.0,0.0,0.0,3.8004135897e-05
1662431795529906988,307,1662431795529906988,odom_ekf,base_link,-0.0229673795402,-0.0250536538661,-0.00879870541394,-0.0032132193575,-0.0101260913915,0.0107754680059,0.999885506838,0.000603053403678,0.0,0.0,0.0,0.0,0.0,0.0,0.000603053403678,0.0,0.0,0.0,0.0,0.0,0.0,0.000603053403678,0.0,0.0,0.0,0.0,0.0,0.0,6.03053403678e-05,0.0,0.0,0.0,0.0,0.0,0.0,6.03053403678e-05,0.0,0.0,0.0,0.0,0.0,0.0,6.03053403678e-05,-0.0285461843014,-0.0483232624829,0.041911739856,-0.0698824748397,0.0137292183936,-0.00317150633782,0.000301526701839,0.0,0.0,0.0,0.0,0.0,0.0,0.000301526701839,0.0,0.0,0.0,0.0,0.0,0.0,0.000301526701839,0.0,0.0,0.0,0.0,0.0,0.0,3.01526701839e-05,0.0,0.0,0.0,0.0,0.0,0.0,3.01526701839e-05,0.0,0.0,0.0,0.0,0.0,0.0,3.01526701839e-05
1662431795621959209,308,1662431795621959209,odom_ekf,base_link,-0.0223391931504,0.0253470242023,-0.00015785638243,-0.000554853784313,-0.0101712370057,0.00270303939399,0.999944464284,0.00140488831268,0.0,0.0,0.0,0.0,0.0,0.0,0.00140488831268,0.0,0.0,0.0,0.0,0.0,0.0,0.00140488831268,0.0,0.0,0.0,0.0,0.0,0.0,0.000140488831268,0.0,0.0,0.0,0.0,0.0,0.0,0.000140488831268,0.0,0.0,0.0,0.0,0.0,0.0,0.000140488831268,0.0205494891852,0.546613931656,0.0971078798175,0.0559752546251,-0.000573252735194,-0.1759737432,0.000702444156341,0.0,0.0,0.0,0.0,0.0,0.0,0.000702444156341,0.0,0.0,0.0,0.0,0.0,0.0,0.000702444156341,0.0,0.0,0.0,0.0,0.0,0.0,7.02444156341e-05,0.0,0.0,0.0,0.0,0.0,0.0,7.02444156341e-05,0.0,0.0,0.0,0.0,0.0,0.0,7.02444156341e-05
1662431795714305162,309,1662431795714305162,odom_ekf,base_link,0.0187350902706,0.0192609243095,-0.0126233268529,0.00299410378447,-0.0104548774429,-0.000254757924838,0.999940831239,0.000695568068465,0.0,0.0,0.0,0.0,0.0,0.0,0.000695568068465,0.0,0.0,0.0,0.0,0.0,0.0,0.000695568068465,0.0,0.0,0.0,0.0,0.0,0.0,6.95568068465e-05,0.0,0.0,0.0,0.0,0.0,0.0,6.95568068465e-05,0.0,0.0,0.0,0.0,0.0,0.0,6.95568068465e-05,0.441586107016,-0.0681466162205,-0.144077047706,0.0762084648013,-0.00608747033402,-0.0648624077439,0.000347784034233,0.0,0.0,0.0,0.0,0.0,0.0,0.000347784034233,0.0,0.0,0.0,0.0,0.0,0.0,0.000347784034233,0.0,0.0,0.0,0.0,0.0,0.0,3.47784034233e-05,0.0,0.0,0.0,0.0,0.0,0.0,3.47784034233e-05,0.0,0.0,0.0,0.0,0.0,0.0,3.47784034233e-05
1662431795806188583,310,1662431795806188583,odom_ekf,base_link,0.00874983426183,0.0337949953973,-0.0131948990747,-0.000855111859414,-0.0101106549285,-0.000467890389816,0.999948410929,0.000551805808917,0.0,0.0,0.0,0.0,0.0,0.0,0.000551805808917,0.0,0.0,0.0,0.0,0.0,0.0,0.000551805808917,0.0,0.0,0.0,0.0,0.0,0.0,5.51805808917e-05,0.0,0.0,0.0,0.0,0.0,0.0,5.51805808917e-05,0.0,0.0,0.0,0.0,0.0,0.0,5.51805808917e-05,-0.108869872987,0.158090770245,-0.00489310314879,-0.0838322341442,0.00744400685653,-0.00381404790096,0.000275902904458,0.0,0.0,0.0,0.0,0.0,0.0,0.000275902904458,0.0,0.0,0.0,0.0,0.0,0.0,0.000275902904458,0.0,0.0,0.0,0.0,0.0,0.0,2.75902904458e-05,0.0,0.0,0.0,0.0,0.0,0.0,2.75902904458e-05,0.0,0.0,0.0,0.0,0.0,0.0,2.75902904458e-05
1662431795916942120,311,1662431795916942120,odom_ekf,base_link,0.0370516777039,0.054468691349,-0.0439144968987,0.00132571061988,-0.0142723840009,-0.00763115928563,0.999868144784,0.00146951048819,0.0,0.0,0.0,0.0,0.0,0.0,0.00146951048819,0.0,0.0,0.0,0.0,0.0,0.0,0.00146951048819,0.0,0.0,0.0,0.0,0.0,0.0,0.000146951048819,0.0,0.0,0.0,0.0,0.0,0.0,0.000146951048819,0.0,0.0,0.0,0.0,0.0,0.0,0.000146951048819,0.249706462026,0.187378883362,-0.28215777874,0.038645002991,-0.0747589170933,-0.129974082112,0.000734755244097,0.0,0.0,0.0,0.0,0.0,0.0,0.000734755244097,0.0,0.0,0.0,0.0,0.0,0.0,0.000734755244097,0.0,0.0,0.0,0.0,0.0,0.0,7.34755244097e-05,0.0,0.0,0.0,0.0,0.0,0.0,7.34755244097e-05,0.0,0.0,0.0,0.0,0.0,0.0,7.34755244097e-05
1662431796009001017,312,1662431796009001017,odom_ekf,base_link,-0.0110028795898,-0.0115454271436,-0.00437546521425,0.00381529977684,-0.00836728035156,0.00754842640672,0.999929224178,0.000850386420186,0.0,0.0,0.0,0.0,0.0,0.0,0.000850386420186,0.0,0.0,0.0,0.0,0.0,0.0,0.000850386420186,0.0,0.0,0.0,0.0,0.0,0.0,8.50386420186e-05,0.0,0.0,0.0,0.0,0.0,0.0,8.50386420186e-05,0.0,0.0,0.0,0.0,0.0,0.0,8.50386420186e-05,-0.498504847288,-0.723713576794,0.445974379778,0.0597568713129,0.128252223134,0.329176813364,0.000425193210093,0.0,0.0,0.0,0.0,0.0,0.0,0.000425193210093,0.0,0.0,0.0,0.0,0.0,0.0,0.000425193210093,0.0,0.0,0.0,0.0,0.0,0.0,4.25193210093e-05,0.0,0.0,0.0,0.0,0.0,0.0,4.25193210093e-05,0.0,0.0,0.0,0.0,0.0,0.0,4.25193210093e-05
1662431796101145506,313,1662431796101145506,odom_ekf,base_link,0.00597358867526,0.0178389027715,-0.0239326078445,0.00637951204726,-0.00761194087208,0.000384476024955,0.99995060496,0.00204221555091,0.0,0.0,0.0,0.0,0.0,0.0,0.00204221555091,0.0,0.0,0.0,0.0,0.0,0.0,0.00204221555091,0.0,0.0,0.0,0.0,0.0,0.0,0.000204221555091,0.0,0.0,0.0,0.0,0.0,0.0,0.000204221555091,0.0,0.0,0.0,0.0,0.0,0.0,0.000204221555091,0.185420498252,0.314462810755,-0.2177541852,0.0543613992631,0.0157751683146,-0.155976951122,0.00102110777546,0.0,0.0,0.0,0.0,0.0,0.0,0.00102110777546,0.0,0.0,0.0,0.0,0.0,0.0,0.00102110777546,0.0,0.0,0.0,0.0,0.0,0.0,0.000102110777546,0.0,0.0,0.0,0.0,0.0,0.0,0.000102110777546,0.0,0.0,0.0,0.0,0.0,0.0,0.000102110777546
1662431796193351507,314,1662431796193351507,odom_ekf,base_link,-0.0111779496074,-0.0149526149035,-0.0084090102464,-0.00353694482041,-0.00599862549353,0.00646013713904,0.999954885553,0.000909795348588,0.0,0.0,0.0,0.0,0.0,0.0,0.000909795348588,0.0,0.0,0.0,0.0,0.0,0.0,0.000909795348588,0.0,0.0,0.0,0.0,0.0,0.0,9.09795348588e-05,0.0,0.0,0.0,0.0,0.0,0.0,9.09795348588e-05,0.0,0.0,0.0,0.0,0.0,0.0,9.09795348588e-05,-0.183666795492,-0.353296101093,0.175694748759,-0.213846698403,0.0372282117605,0.132832437754,0.000454897674294,0.0,0.0,0.0,0.0,0.0,0.0,0.000454897674294,0.0,0.0,0.0,0.0,0.0,0.0,0.000454897674294,0.0,0.0,0.0,0.0,0.0,0.0,4.54897674294e-05,0.0,0.0,0.0,0.0,0.0,0.0,4.54897674294e-05,0.0,0.0,0.0,0.0,0.0,0.0,4.54897674294e-05
1662431796288201332,315,1662431796288201332,odom_ekf,base_link,-0.0262125153095,-0.0249110125005,0.00363051053137,0.00155346069588,-0.00735548886906,0.0102994935647,0.999918698683,0.0014076938159,0.0,0.0,0.0,0.0,0.0,0.0,0.0014076938159,0.0,0.0,0.0,0.0,0.0,0.0,0.0014076938159,0.0,0.0,0.0,0.0,0.0,0.0,0.00014076938159,0.0,0.0,0.0,0.0,0.0,0.0,0.00014076938159,0.0,0.0,0.0,0.0,0.0,0.0,0.00014076938159,-0.158328473568,-0.103846341372,0.128094434738,0.107516802847,-0.0300026349723,0.0800610855222,0.000703846907951,0.0,0.0,0.0,0.0,0.0,0.0,0.000703846907951,0.0,0.0,0.0,0.0,0.0,0.0,0.000703846907951,0.0,0.0,0.0,0.0,0.0,0.0,7.03846907951e-05,0.0,0.0,0.0,0.0,0.0,0.0,7.03846907951e-05,0.0,0.0,0.0,0.0,0.0,0.0,7.03846907951e-05
1662431796382968664,316,1662431796382968664,odom_ekf,base_link,-0.00978174805641,-0.0382356122136,0.00623810570687,-0.00107013579808,-0.00873352542441,0.00859684535781,0.999924334434,0.000774908976951,0.0,0.0,0.0,0.0,0.0,0.0,0.000774908976951,0.0,0.0,0.0,0.0,0.0,0.0,0.000774908976951,0.0,0.0,0.0,0.0,0.0,0.0,7.74908976951e-05,0.0,0.0,0.0,0.0,0.0,0.0,7.74908976951e-05,0.0,0.0,0.0,0.0,0.0,0.0,7.74908976951e-05,0.170837312937,-0.144066616893,0.0254259258509,-0.0558808520436,-0.028658689931,-0.035403419286,0.000387454488475,0.0,0.0,0.0,0.0,0.0,0.0,0.000387454488475,0.0,0.0,0.0,0.0,0.0,0.0,0.000387454488475,0.0,0.0,0.0,0.0,0.0,0.0,3.87454488475e-05,0.0,0.0,0.0,0.0,0.0,0.0,3.87454488475e-05,0.0,0.0,0.0,0.0,0.0,0.0,3.87454488475e-05
1662431796491267920,317,1662431796491267920,odom_ekf,base_link,-0.00049080979079,-0.0139909926802,0.00628640595824,0.00145754500046,-0.00894170224771,0.00696062095147,0.99993473351,0.00078610642415,0.0,0.0,0.0,0.0,0.0,0.0,0.00078610642415,0.0,0.0,0.0,0.0,0.0,0.0,0.00078610642415,0.0,0.0,0.0,0.0,0.0,0.0,7.8610642415e-05,0.0,0.0,0.0,0.0,0.0,0.0,7.8610642415e-05,0.0,0.0,0.0,0.0,0.0,0.0,7.8610642415e-05,0.0896244943142,0.222358942032,-0.000608549977187,0.0463862530887,-0.0041345115751,-0.0306383781135,0.000393053212075,0.0,0.0,0.0,0.0,0.0,0.0,0.000393053212075,0.0,0.0,0.0,0.0,0.0,0.0,0.000393053212075,0.0,0.0,0.0,0.0,0.0,0.0,3.93053212075e-05,0.0,0.0,0.0,0.0,0.0,0.0,3.93053212075e-05,0.0,0.0,0.0,0.0,0.0,0.0,3.93053212075e-05
1662431796585919142,318,1662431796585919142,odom_ekf,base_link,-0.0150086209178,-0.0411256328225,-0.035948343575,-0.00308779331893,-0.0105082086481,0.0121676958347,0.999865986151,0.000689852504341,0.0,0.0,0.0,0.0,0.0,0.0,0.000689852504341,0.0,0.0,0.0,0.0,0.0,0.0,0.000689852504341,0.0,0.0,0.0,0.0,0.0,0.0,6.89852504341e-05,0.0,0.0,0.0,0.0,0.0,0.0,6.89852504341e-05,0.0,0.0,0.0,0.0,0.0,0.0,6.89852504341e-05,-0.165314376354,-0.28575733304,-0.442530244589,-0.0954509675503,-0.0317815393209,0.111081920564,0.000344926252171,0.0,0.0,0.0,0.0,0.0,0.0,0.000344926252171,0.0,0.0,0.0,0.0,0.0,0.0,0.000344926252171,0.0,0.0,0.0,0.0,0.0,0.0,3.44926252171e-05,0.0,0.0,0.0,0.0,0.0,0.0,3.44926252171e-05,0.0,0.0,0.0,0.0,0.0,0.0,3.44926252171e-05
1662431796680445671,319,1662431796680445671,odom_ekf,base_link,-0.00252732075751,-0.0127085037529,-0.0246745720506,-0.00032064701137,-0.0109232845704,0.00662242295176,0.999918357944,0.000678240255369,0.0,0.0,0.0,0.0,0.0,0.0,0.000678240255369,0.0,0.0,0.0,0.0,0.0,0.0,0.000678240255369,0.0,0.0,0.0,0.0,0.0,0.0,6.78240255369e-05,0.0,0.0,0.0,0.0,0.0,0.0,6.78240255369e-05,0.0,0.0,0.0,0.0,0.0,0.0,6.78240255369e-05,0.141803532839,0.296560049057,0.118231922388,0.0572533681989,-0.00880038924515,-0.117992311716,0.000339120127684,0.0,0.0,0.0,0.0,0.0,0.0,0.000339120127684,0.0,0.0,0.0,0.0,0.0,0.0,0.000339120127684,0.0,0.0,0.0,0.0,0.0,0.0,3.39120127684e-05,0.0,0.0,0.0,0.0,0.0,0.0,3.39120127684e-05,0.0,0.0,0.0,0.0,0.0,0.0,3.39120127684e-05
1662431796775342941,320,1662431796775342941,odom_ekf,base_link,-0.0114628747106,-0.0433493107557,-0.0285349562764,-0.00406791464094,-0.01080505535,0.0107837626587,0.999875198868,0.000532581781077,0.0,0.0,0.0,0.0,0.0,0.0,0.000532581781077,0.0,0.0,0.0,0.0,0.0,0.0,0.000532581781077,0.0,0.0,0.0,0.0,0.0,0.0,5.32581781077e-05,0.0,0.0,0.0,0.0,0.0,0.0,5.32581781077e-05,0.0,0.0,0.0,0.0,0.0,0.0,5.32581781077e-05,-0.0992964878678,-0.321577221155,-0.0387729294598,-0.0779815837741,0.00330418511294,0.0885529741645,0.000266290890538,0.0,0.0,0.0,0.0,0.0,0.0,0.000266290890538,0.0,0.0,0.0,0.0,0.0,0.0,0.000266290890538,0.0,0.0,0.0,0.0,0.0,0.0,2.66290890538e-05,0.0,0.0,0.0,0.0,0.0,0.0,2.66290890538e-05,0.0,0.0,0.0,0.0,0.0,0.0,2.66290890538e-05
1662431796867413998,321,1662431796867413998,odom_ekf,base_link,0.00480104424059,-0.0381572544575,-0.0515514165163,-0.002452149077,-0.0120658372743,0.0052423901415,0.999910455932,0.00164323837585,0.0,0.0,0.0,0.0,0.0,0.0,0.00164323837585,0.0,0.0,0.0,0.0,0.0,0.0,0.00164323837585,0.0,0.0,0.0,0.0,0.0,0.0,0.000164323837585,0.0,0.0,0.0,0.0,0.0,0.0,0.000164323837585,0.0,0.0,0.0,0.0,0.0,0.0,0.000164323837585,0.172404378653,0.0546749159694,-0.25330594182,0.0336522646248,-0.0270774438977,-0.120898343623,0.000821619187924,0.0,0.0,0.0,0.0,0.0,0.0,0.000821619187924,0.0,0.0,0.0,0.0,0.0,0.0,0.000821619187924,0.0,0.0,0.0,0.0,0.0,0.0,8.21619187924e-05,0.0,0.0,0.0,0.0,0.0,0.0,8.21619187924e-05,0.0,0.0,0.0,0.0,0.0,0.0,8.21619187924e-05
1662431796959762096,322,1662431796959762096,odom_ekf,base_link,-0.0130128841847,0.00540012121201,-0.0457423254848,0.00106869860896,-0.0102220288017,0.00632033770321,0.999927208022,0.00234468501197,0.0,0.0,0.0,0.0,0.0,0.0,0.00234468501197,0.0,0.0,0.0,0.0,0.0,0.0,0.00234468501197,0.0,0.0,0.0,0.0,0.0,0.0,0.000234468501197,0.0,0.0,0.0,0.0,0.0,0.0,0.000234468501197,0.0,0.0,0.0,0.0,0.0,0.0,0.000234468501197,-0.186344012618,0.473327994347,0.0697980448604,0.0767782703042,0.0393955036998,0.0226590353996,0.00117234250599,0.0,0.0,0.0,0.0,0.0,0.0,0.00117234250599,0.0,0.0,0.0,0.0,0.0,0.0,0.00117234250599,0.0,0.0,0.0,0.0,0.0,0.0,0.000117234250599,0.0,0.0,0.0,0.0,0.0,0.0,0.000117234250599,0.0,0.0,0.0,0.0,0.0,0.0,0.000117234250599
1662431797067932129,323,1662431797067932129,odom_ekf,base_link,-0.00171285867691,0.0105743939057,0.00644244626164,0.00121067350055,-0.0075197618529,0.00443932810619,0.999961139154,0.000876371077197,0.0,0.0,0.0,0.0,0.0,0.0,0.000876371077197,0.0,0.0,0.0,0.0,0.0,0.0,0.000876371077197,0.0,0.0,0.0,0.0,0.0,0.0,8.76371077197e-05,0.0,0.0,0.0,0.0,0.0,0.0,8.76371077197e-05,0.0,0.0,0.0,0.0,0.0,0.0,8.76371077197e-05,0.114907465875,0.0474767312407,0.480088323355,0.00249036075547,0.0499171875417,-0.0348538421094,0.000438185538598,0.0,0.0,0.0,0.0,0.0,0.0,0.000438185538598,0.0,0.0,0.0,0.0,0.0,0.0,0.000438185538598,0.0,0.0,0.0,0.0,0.0,0.0,4.38185538598e-05,0.0,0.0,0.0,0.0,0.0,0.0,4.38185538598e-05,0.0,0.0,0.0,0.0,0.0,0.0,4.38185538598e-05
1662431797160003662,324,1662431797160003662,odom_ekf,base_link,0.010877661407,-0.0227767825127,-0.0136906709522,-0.00484646309405,-0.0107351229752,0.00663597485218,0.999908612208,0.000768844017182,0.0,0.0,0.0,0.0,0.0,0.0,0.000768844017182,0.0,0.0,0.0,0.0,0.0,0.0,0.000768844017182,0.0,0.0,0.0,0.0,0.0,0.0,7.68844017182e-05,0.0,0.0,0.0,0.0,0.0,0.0,7.68844017182e-05,0.0,0.0,0.0,0.0,0.0,0.0,7.68844017182e-05,0.130226016045,-0.363947242498,-0.219796657562,-0.131677240133,-0.0689120665193,0.049212180078,0.000384422008591,0.0,0.0,0.0,0.0,0.0,0.0,0.000384422008591,0.0,0.0,0.0,0.0,0.0,0.0,0.000384422008591,0.0,0.0,0.0,0.0,0.0,0.0,3.84422008591e-05,0.0,0.0,0.0,0.0,0.0,0.0,3.84422008591e-05,0.0,0.0,0.0,0.0,0.0,0.0,3.84422008591e-05
1662431797254733801,325,1662431797254733801,odom_ekf,base_link,0.00310903787613,-0.0293176993728,-0.0396633893251,-0.0043825435875,-0.012793967899,0.00854941927733,0.999871999371,0.000664190016012,0.0,0.0,0.0,0.0,0.0,0.0,0.000664190016012,0.0,0.0,0.0,0.0,0.0,0.0,0.000664190016012,0.0,0.0,0.0,0.0,0.0,0.0,6.64190016012e-05,0.0,0.0,0.0,0.0,0.0,0.0,6.64190016012e-05,0.0,0.0,0.0,0.0,0.0,0.0,6.64190016012e-05,-0.0887737646699,-0.0652624070644,-0.272993326187,0.00985215883702,-0.0437514856458,0.04006312415,0.000332095008006,0.0,0.0,0.0,0.0,0.0,0.0,0.000332095008006,0.0,0.0,0.0,0.0,0.0,0.0,0.000332095008006,0.0,0.0,0.0,0.0,0.0,0.0,3.32095008006e-05,0.0,0.0,0.0,0.0,0.0,0.0,3.32095008006e-05,0.0,0.0,0.0,0.0,0.0,0.0,3.32095008006e-05
1662431797347122431,326,1662431797347122431,odom_ekf,base_link,-0.021592836827,-0.0623773448169,-0.0181010682136,-0.00341738241036,-0.00993931737615,0.0169382282888,0.999801294203,0.00130410146161,0.0,0.0,0.0,0.0,0.0,0.0,0.00130410146161,0.0,0.0,0.0,0.0,0.0,0.0,0.00130410146161,0.0,0.0,0.0,0.0,0.0,0.0,0.000130410146161,0.0,0.0,0.0,0.0,0.0,0.0,0.000130410146161,0.0,0.0,0.0,0.0,0.0,0.0,0.000130410146161,-0.267446815968,-0.355321675539,0.237104639411,0.0242452472448,0.0605934001505,0.181662395597,0.000652050730807,0.0,0.0,0.0,0.0,0.0,0.0,0.000652050730807,0.0,0.0,0.0,0.0,0.0,0.0,0.000652050730807,0.0,0.0,0.0,0.0,0.0,0.0,6.52050730807e-05,0.0,0.0,0.0,0.0,0.0,0.0,6.52050730807e-05,0.0,0.0,0.0,0.0,0.0,0.0,6.52050730807e-05
1662431797439358950,327,1662431797439358950,odom_ekf,base_link,-0.00843008887023,-0.0258247926831,0.00154110603034,0.00116329497358,-0.0082668506034,0.0103322723273,0.999911771145,0.0011994263749,0.0,0.0,0.0,0.0,0.0,0.0,0.0011994263749,0.0,0.0,0.0,0.0,0.0,0.0,0.0011994263749,0.0,0.0,0.0,0.0,0.0,0.0,0.00011994263749,0.0,0.0,0.0,0.0,0.0,0.0,0.00011994263749,0.0,0.0,0.0,0.0,0.0,0.0,0.00011994263749,0.160253345966,0.389704227448,0.212629184127,0.0982689261436,0.0357420630753,-0.143955662847,0.000599713187451,0.0,0.0,0.0,0.0,0.0,0.0,0.000599713187451,0.0,0.0,0.0,0.0,0.0,0.0,0.000599713187451,0.0,0.0,0.0,0.0,0.0,0.0,5.99713187451e-05,0.0,0.0,0.0,0.0,0.0,0.0,5.99713187451e-05,0.0,0.0,0.0,0.0,0.0,0.0,5.99713187451e-05
1662431797547155857,328,1662431797547155857,odom_ekf,base_link,0.00379232130945,-0.00828391499817,-0.0341844707727,-0.00272353234697,-0.0118251265362,0.00198082700268,0.999924409682,0.000906580110267,0.0,0.0,0.0,0.0,0.0,0.0,0.000906580110267,0.0,0.0,0.0,0.0,0.0,0.0,0.000906580110267,0.0,0.0,0.0,0.0,0.0,0.0,9.06580110267e-05,0.0,0.0,0.0,0.0,0.0,0.0,9.06580110267e-05,0.0,0.0,0.0,0.0,0.0,0.0,9.06580110267e-05,0.111216105521,0.159626975656,-0.333647549152,-0.0735257267952,-0.0660587623715,-0.154005736113,0.000453290055133,0.0,0.0,0.0,0.0,0.0,0.0,0.000453290055133,0.0,0.0,0.0,0.0,0.0,0.0,0.000453290055133,0.0,0.0,0.0,0.0,0.0,0.0,4.53290055133e-05,0.0,0.0,0.0,0.0,0.0,0.0,4.53290055133e-05,0.0,0.0,0.0,0.0,0.0,0.0,4.53290055133e-05
1662431797639694452,329,1662431797639694452,odom_ekf,base_link,0.0136746671051,0.00923244282603,-0.0256455503404,0.000505558414306,-0.0108437436974,0.0025564657699,0.999937809124,0.000976363330814,0.0,0.0,0.0,0.0,0.0,0.0,0.000976363330814,0.0,0.0,0.0,0.0,0.0,0.0,0.000976363330814,0.0,0.0,0.0,0.0,0.0,0.0,9.76363330814e-05,0.0,0.0,0.0,0.0,0.0,0.0,9.76363330814e-05,0.0,0.0,0.0,0.0,0.0,0.0,9.76363330814e-05,0.109704077244,0.188359722495,0.0907424688339,0.0699852779508,0.021002041176,0.0117401136085,0.000488181665407,0.0,0.0,0.0,0.0,0.0,0.0,0.000488181665407,0.0,0.0,0.0,0.0,0.0,0.0,0.000488181665407,0.0,0.0,0.0,0.0,0.0,0.0,4.88181665407e-05,0.0,0.0,0.0,0.0,0.0,0.0,4.88181665407e-05,0.0,0.0,0.0,0.0,0.0,0.0,4.88181665407e-05
1662431797731755257,330,1662431797731755257,odom_ekf,base_link,-0.0126359239221,-0.0266018547118,-0.0175933241844,0.00133517268307,-0.00990179028033,0.00615664418589,0.999931131426,0.000592934696982,0.0,0.0,0.0,0.0,0.0,0.0,0.000592934696982,0.0,0.0,0.0,0.0,0.0,0.0,0.000592934696982,0.0,0.0,0.0,0.0,0.0,0.0,5.92934696982e-05,0.0,0.0,0.0,0.0,0.0,0.0,5.92934696982e-05,0.0,0.0,0.0,0.0,0.0,0.0,5.92934696982e-05,-0.285813629627,-0.387692779303,0.0940579622984,0.0189959146082,0.0203862879425,0.0780208185315,0.000296467348491,0.0,0.0,0.0,0.0,0.0,0.0,0.000296467348491,0.0,0.0,0.0,0.0,0.0,0.0,0.000296467348491,0.0,0.0,0.0,0.0,0.0,0.0,2.96467348491e-05,0.0,0.0,0.0,0.0,0.0,0.0,2.96467348491e-05,0.0,0.0,0.0,0.0,0.0,0.0,2.96467348491e-05
1662431797824077129,331,1662431797824077129,odom_ekf,base_link,-0.0156595297158,-0.0459146797657,-0.0452253073454,-0.00741098099463,-0.00899293720456,0.0117706209351,0.999862819053,0.00175410022717,0.0,0.0,0.0,0.0,0.0,0.0,0.00175410022717,0.0,0.0,0.0,0.0,0.0,0.0,0.00175410022717,0.0,0.0,0.0,0.0,0.0,0.0,0.000175410022717,0.0,0.0,0.0,0.0,0.0,0.0,0.000175410022717,0.0,0.0,0.0,0.0,0.0,0.0,0.000175410022717,-0.0412436276674,-0.209532096982,-0.298008650541,-0.188010305166,0.0220728199929,0.123281784356,0.000877050113585,0.0,0.0,0.0,0.0,0.0,0.0,0.000877050113585,0.0,0.0,0.0,0.0,0.0,0.0,0.000877050113585,0.0,0.0,0.0,0.0,0.0,0.0,8.77050113585e-05,0.0,0.0,0.0,0.0,0.0,0.0,8.77050113585e-05,0.0,0.0,0.0,0.0,0.0,0.0,8.77050113585e-05
1662431797932112932,332,1662431797932112932,odom_ekf,base_link,-0.0145564358681,-0.0391982086003,-0.00575916469097,-0.00573453997179,-0.00921516226904,0.00798408422421,0.999909220997,0.000862884824951,0.0,0.0,0.0,0.0,0.0,0.0,0.000862884824951,0.0,0.0,0.0,0.0,0.0,0.0,0.000862884824951,0.0,0.0,0.0,0.0,0.0,0.0,8.62884824951e-05,0.0,0.0,0.0,0.0,0.0,0.0,8.62884824951e-05,0.0,0.0,0.0,0.0,0.0,0.0,8.62884824951e-05,0.0181833058596,0.0564147531986,0.365929722786,0.0303730498999,-0.00383592583239,-0.0704144462943,0.000431442412476,0.0,0.0,0.0,0.0,0.0,0.0,0.000431442412476,0.0,0.0,0.0,0.0,0.0,0.0,0.000431442412476,0.0,0.0,0.0,0.0,0.0,0.0,4.31442412476e-05,0.0,0.0,0.0,0.0,0.0,0.0,4.31442412476e-05,0.0,0.0,0.0,0.0,0.0,0.0,4.31442412476e-05
1662431798024374485,333,1662431798024374485,odom_ekf,base_link,0.00581707060337,-0.0197885818779,-0.0257758777589,-0.0015900802439,-0.0130508068574,0.00985850051608,0.99986496991,0.000635212337743,0.0,0.0,0.0,0.0,0.0,0.0,0.000635212337743,0.0,0.0,0.0,0.0,0.0,0.0,0.000635212337743,0.0,0.0,0.0,0.0,0.0,0.0,6.35212337743e-05,0.0,0.0,0.0,0.0,0.0,0.0,6.35212337743e-05,0.0,0.0,0.0,0.0,0.0,0.0,6.35212337743e-05,0.220160588622,0.209352970123,-0.218613103032,0.0893879905343,-0.0842606052756,0.0389850959182,0.000317606168871,0.0,0.0,0.0,0.0,0.0,0.0,0.000317606168871,0.0,0.0,0.0,0.0,0.0,0.0,0.000317606168871,0.0,0.0,0.0,0.0,0.0,0.0,3.17606168871e-05,0.0,0.0,0.0,0.0,0.0,0.0,3.17606168871e-05,0.0,0.0,0.0,0.0,0.0,0.0,3.17606168871e-05
1662431798116154432,334,1662431798116154432,odom_ekf,base_link,-0.00315775163472,-0.00617449823767,-0.00402166508138,-9.84378466163e-07,-0.0106160496517,0.00799160980746,0.999911712933,0.000541027001878,0.0,0.0,0.0,0.0,0.0,0.0,0.000541027001878,0.0,0.0,0.0,0.0,0.0,0.0,0.000541027001878,0.0,0.0,0.0,0.0,0.0,0.0,5.41027001878e-05,0.0,0.0,0.0,0.0,0.0,0.0,5.41027001878e-05,0.0,0.0,0.0,0.0,0.0,0.0,5.41027001878e-05,-0.08862503618,0.149413451552,0.23993241787,0.0345182679594,0.0528509765863,-0.0409705340862,0.000270513500939,0.0,0.0,0.0,0.0,0.0,0.0,0.000270513500939,0.0,0.0,0.0,0.0,0.0,0.0,0.000270513500939,0.0,0.0,0.0,0.0,0.0,0.0,2.70513500939e-05,0.0,0.0,0.0,0.0,0.0,0.0,2.70513500939e-05,0.0,0.0,0.0,0.0,0.0,0.0,2.70513500939e-05
1662431798208250046,335,1662431798208250046,odom_ekf,base_link,0.000825260300189,-0.0148503948003,-0.03085266985,-0.00471510574231,-0.0125322239734,0.0108750958937,0.999851210646,0.000955952831721,0.0,0.0,0.0,0.0,0.0,0.0,0.000955952831721,0.0,0.0,0.0,0.0,0.0,0.0,0.000955952831721,0.0,0.0,0.0,0.0,0.0,0.0,9.55952831721e-05,0.0,0.0,0.0,0.0,0.0,0.0,9.55952831721e-05,0.0,0.0,0.0,0.0,0.0,0.0,9.55952831721e-05,0.0355426371098,-0.0948344692588,-0.292175322771,-0.102153405547,-0.0405049435794,0.063902541995,0.00047797641586,0.0,0.0,0.0,0.0,0.0,0.0,0.00047797641586,0.0,0.0,0.0,0.0,0.0,0.0,0.00047797641586,0.0,0.0,0.0,0.0,0.0,0.0,4.7797641586e-05,0.0,0.0,0.0,0.0,0.0,0.0,4.7797641586e-05,0.0,0.0,0.0,0.0,0.0,0.0,4.7797641586e-05
1662431798318973541,336,1662431798318973541,odom_ekf,base_link,0.0124333575368,-0.00939568597823,-0.0334208346903,-0.0029692827611,-0.0116999989202,0.00673486977847,0.999904462893,0.00102366362994,0.0,0.0,0.0,0.0,0.0,0.0,0.00102366362994,0.0,0.0,0.0,0.0,0.0,0.0,0.00102366362994,0.0,0.0,0.0,0.0,0.0,0.0,0.000102366362994,0.0,0.0,0.0,0.0,0.0,0.0,0.000102366362994,0.0,0.0,0.0,0.0,0.0,0.0,0.000102366362994,0.105279155076,0.0472078844905,-0.0253730788827,0.0306981243193,0.0151797579601,-0.075083181262,0.000511831814968,0.0,0.0,0.0,0.0,0.0,0.0,0.000511831814968,0.0,0.0,0.0,0.0,0.0,0.0,0.000511831814968,0.0,0.0,0.0,0.0,0.0,0.0,5.11831814968e-05,0.0,0.0,0.0,0.0,0.0,0.0,5.11831814968e-05,0.0,0.0,0.0,0.0,0.0,0.0,5.11831814968e-05
1662431798411245823,337,1662431798411245823,odom_ekf,base_link,0.00528170261532,0.0132889701054,-0.044091925025,-0.000641970826428,-0.010332468681,0.00368511222782,0.999939622133,0.000716033942699,0.0,0.0,0.0,0.0,0.0,0.0,0.000716033942699,0.0,0.0,0.0,0.0,0.0,0.0,0.000716033942699,0.0,0.0,0.0,0.0,0.0,0.0,7.16033942699e-05,0.0,0.0,0.0,0.0,0.0,0.0,7.16033942699e-05,0.0,0.0,0.0,0.0,0.0,0.0,7.16033942699e-05,-0.0768507868052,0.247561559081,-0.112376473844,0.0497773960233,0.0296568404883,-0.0665366873145,0.00035801697135,0.0,0.0,0.0,0.0,0.0,0.0,0.00035801697135,0.0,0.0,0.0,0.0,0.0,0.0,0.00035801697135,0.0,0.0,0.0,0.0,0.0,0.0,3.5801697135e-05,0.0,0.0,0.0,0.0,0.0,0.0,3.5801697135e-05,0.0,0.0,0.0,0.0,0.0,0.0,3.5801697135e-05
1662431798506321192,338,1662431798506321192,odom_ekf,base_link,0.0110762771219,0.0186022277921,-0.0224994923919,0.000528501937524,-0.00932740866863,0.00130673237552,0.999955505302,0.000361125758383,0.0,0.0,0.0,0.0,0.0,0.0,0.000361125758383,0.0,0.0,0.0,0.0,0.0,0.0,0.000361125758383,0.0,0.0,0.0,0.0,0.0,0.0,3.61125758383e-05,0.0,0.0,0.0,0.0,0.0,0.0,3.61125758383e-05,0.0,0.0,0.0,0.0,0.0,0.0,3.61125758383e-05,0.0660369172692,0.0551258921623,0.225867718458,0.0241312719882,0.0211437195539,-0.0502463616431,0.000180562879192,0.0,0.0,0.0,0.0,0.0,0.0,0.000180562879192,0.0,0.0,0.0,0.0,0.0,0.0,0.000180562879192,0.0,0.0,0.0,0.0,0.0,0.0,1.80562879192e-05,0.0,0.0,0.0,0.0,0.0,0.0,1.80562879192e-05,0.0,0.0,0.0,0.0,0.0,0.0,1.80562879192e-05
1662431798598227978,339,1662431798598227978,odom_ekf,base_link,0.0188677534461,0.00232060998678,-0.00913953781128,0.000852329286267,-0.0141905542013,0.00311437493491,0.99989409558,0.000584428215511,0.0,0.0,0.0,0.0,0.0,0.0,0.000584428215511,0.0,0.0,0.0,0.0,0.0,0.0,0.000584428215511,0.0,0.0,0.0,0.0,0.0,0.0,5.84428215511e-05,0.0,0.0,0.0,0.0,0.0,0.0,5.84428215511e-05,0.0,0.0,0.0,0.0,0.0,0.0,5.84428215511e-05,0.0870114192367,-0.177225202322,0.143949076533,0.00708486419171,-0.105837292969,0.0392926521599,0.000292214107756,0.0,0.0,0.0,0.0,0.0,0.0,0.000292214107756,0.0,0.0,0.0,0.0,0.0,0.0,0.000292214107756,0.0,0.0,0.0,0.0,0.0,0.0,2.92214107756e-05,0.0,0.0,0.0,0.0,0.0,0.0,2.92214107756e-05,0.0,0.0,0.0,0.0,0.0,0.0,2.92214107756e-05
1662431798689994335,340,1662431798689994335,odom_ekf,base_link,0.0177197586745,-0.000554440775886,0.0160521995276,-4.60128757366e-05,-0.00693527890944,0.0027613100851,0.99997213709,0.000975649083615,0.0,0.0,0.0,0.0,0.0,0.0,0.000975649083615,0.0,0.0,0.0,0.0,0.0,0.0,0.000975649083615,0.0,0.0,0.0,0.0,0.0,0.0,9.75649083615e-05,0.0,0.0,0.0,0.0,0.0,0.0,9.75649083615e-05,0.0,0.0,0.0,0.0,0.0,0.0,9.75649083615e-05,-0.00490723084658,-0.0308075994253,0.274820536375,-0.0192513782531,0.158181414008,-0.00769622111693,0.000487824541808,0.0,0.0,0.0,0.0,0.0,0.0,0.000487824541808,0.0,0.0,0.0,0.0,0.0,0.0,0.000487824541808,0.0,0.0,0.0,0.0,0.0,0.0,4.87824541808e-05,0.0,0.0,0.0,0.0,0.0,0.0,4.87824541808e-05,0.0,0.0,0.0,0.0,0.0,0.0,4.87824541808e-05
1662431798798561335,341,1662431798798561335,odom_ekf,base_link,0.00555713102221,-0.0154498340562,-0.00112554989755,-0.00824616940329,-0.00985455433344,0.00677085563484,0.999894516418,0.00110144543648,0.0,0.0,0.0,0.0,0.0,0.0,0.00110144543648,0.0,0.0,0.0,0.0,0.0,0.0,0.00110144543648,0.0,0.0,0.0,0.0,0.0,0.0,0.000110144543648,0.0,0.0,0.0,0.0,0.0,0.0,0.000110144543648,0.0,0.0,0.0,0.0,0.0,0.0,0.000110144543648,-0.114968590438,-0.136558696628,-0.156660810113,-0.150913074613,-0.0527580603957,0.0753453671932,0.000550722718241,0.0,0.0,0.0,0.0,0.0,0.0,0.000550722718241,0.0,0.0,0.0,0.0,0.0,0.0,0.000550722718241,0.0,0.0,0.0,0.0,0.0,0.0,5.50722718241e-05,0.0,0.0,0.0,0.0,0.0,0.0,5.50722718241e-05,0.0,0.0,0.0,0.0,0.0,0.0,5.50722718241e-05
1662431798890176535,342,1662431798890176535,odom_ekf,base_link,-0.00498111732304,-0.0226510707289,0.00735723040998,-0.00274300609409,-0.00856849575333,0.00790942597524,0.999928246315,0.00103020495922,0.0,0.0,0.0,0.0,0.0,0.0,0.00103020495922,0.0,0.0,0.0,0.0,0.0,0.0,0.00103020495922,0.0,0.0,0.0,0.0,0.0,0.0,0.000103020495922,0.0,0.0,0.0,0.0,0.0,0.0,0.000103020495922,0.0,0.0,0.0,0.0,0.0,0.0,0.000103020495922,-0.114257127047,-0.0785856097937,0.0935548022389,0.12059533596,0.0269287507981,0.0240446552634,0.000515102479609,0.0,0.0,0.0,0.0,0.0,0.0,0.000515102479609,0.0,0.0,0.0,0.0,0.0,0.0,0.000515102479609,0.0,0.0,0.0,0.0,0.0,0.0,5.15102479609e-05,0.0,0.0,0.0,0.0,0.0,0.0,5.15102479609e-05,0.0,0.0,0.0,0.0,0.0,0.0,5.15102479609e-05
1662431798984799147,343,1662431798984799147,odom_ekf,base_link,-0.00947860255837,0.00115311890841,0.00321303261444,0.00115968636888,-0.00924689336319,0.00542346155839,0.999941866388,0.0012877505438,0.0,0.0,0.0,0.0,0.0,0.0,0.0012877505438,0.0,0.0,0.0,0.0,0.0,0.0,0.0012877505438,0.0,0.0,0.0,0.0,0.0,0.0,0.00012877505438,0.0,0.0,0.0,0.0,0.0,0.0,0.00012877505438,0.0,0.0,0.0,0.0,0.0,0.0,0.00012877505438,-0.044275354594,0.252530306578,-0.0416275709867,0.0819582864642,-0.0146371116862,-0.0533467195928,0.000643875271899,0.0,0.0,0.0,0.0,0.0,0.0,0.000643875271899,0.0,0.0,0.0,0.0,0.0,0.0,0.000643875271899,0.0,0.0,0.0,0.0,0.0,0.0,6.43875271899e-05,0.0,0.0,0.0,0.0,0.0,0.0,6.43875271899e-05,0.0,0.0,0.0,0.0,0.0,0.0,6.43875271899e-05
1662431799077130556,344,1662431799077130556,odom_ekf,base_link,0.0195694044232,0.00946706160903,-0.0102925319225,-0.000352284064342,-0.0102990198674,0.00289466722746,0.999942711853,0.00130286754789,0.0,0.0,0.0,0.0,0.0,0.0,0.00130286754789,0.0,0.0,0.0,0.0,0.0,0.0,0.00130286754789,0.0,0.0,0.0,0.0,0.0,0.0,0.000130286754789,0.0,0.0,0.0,0.0,0.0,0.0,0.000130286754789,0.0,0.0,0.0,0.0,0.0,0.0,0.000130286754789,0.312801510096,0.0862954109907,-0.152279108763,-0.033322148025,-0.0227584224194,-0.0544092468917,0.000651433773944,0.0,0.0,0.0,0.0,0.0,0.0,0.000651433773944,0.0,0.0,0.0,0.0,0.0,0.0,0.000651433773944,0.0,0.0,0.0,0.0,0.0,0.0,6.51433773944e-05,0.0,0.0,0.0,0.0,0.0,0.0,6.51433773944e-05,0.0,0.0,0.0,0.0,0.0,0.0,6.51433773944e-05
1662431799171528816,345,1662431799171528816,odom_ekf,base_link,0.0131918378174,0.0102464724332,-0.00761751364917,-0.000523817535241,-0.0115432156105,-6.33261661044e-05,0.99993323566,0.00153338381984,0.0,0.0,0.0,0.0,0.0,0.0,0.00153338381984,0.0,0.0,0.0,0.0,0.0,0.0,0.00153338381984,0.0,0.0,0.0,0.0,0.0,0.0,0.000153338381984,0.0,0.0,0.0,0.0,0.0,0.0,0.000153338381984,0.0,0.0,0.0,0.0,0.0,0.0,0.000153338381984,-0.0669132769108,0.00862544868141,0.0297285523266,-0.00427801534534,-0.0263412911445,-0.0626330152154,0.000766691909919,0.0,0.0,0.0,0.0,0.0,0.0,0.000766691909919,0.0,0.0,0.0,0.0,0.0,0.0,0.000766691909919,0.0,0.0,0.0,0.0,0.0,0.0,7.66691909919e-05,0.0,0.0,0.0,0.0,0.0,0.0,7.66691909919e-05,0.0,0.0,0.0,0.0,0.0,0.0,7.66691909919e-05
1662431799279605150,346,1662431799279605150,odom_ekf,base_link,0.0240925252438,0.00160673074424,-0.0451573580503,-0.00569198209164,-0.0135890811347,0.00106480948348,0.999890896245,0.00114945353431,0.0,0.0,0.0,0.0,0.0,0.0,0.00114945353431,0.0,0.0,0.0,0.0,0.0,0.0,0.00114945353431,0.0,0.0,0.0,0.0,0.0,0.0,0.000114945353431,0.0,0.0,0.0,0.0,0.0,0.0,0.000114945353431,0.0,0.0,0.0,0.0,0.0,0.0,0.000114945353431,0.0928248241544,-0.0795637071133,-0.349665105343,-0.0954357087612,-0.0377694778144,0.0221544820815,0.000574726767156,0.0,0.0,0.0,0.0,0.0,0.0,0.000574726767156,0.0,0.0,0.0,0.0,0.0,0.0,0.000574726767156,0.0,0.0,0.0,0.0,0.0,0.0,5.74726767156e-05,0.0,0.0,0.0,0.0,0.0,0.0,5.74726767156e-05,0.0,0.0,0.0,0.0,0.0,0.0,5.74726767156e-05
1662431799371740818,347,1662431799371740818,odom_ekf,base_link,0.0241237487644,0.00271367817186,-0.0215000361204,-0.000249597806813,-0.0148977371395,0.000837048951623,0.999888641039,0.000548568717374,0.0,0.0,0.0,0.0,0.0,0.0,0.000548568717374,0.0,0.0,0.0,0.0,0.0,0.0,0.000548568717374,0.0,0.0,0.0,0.0,0.0,0.0,5.48568717374e-05,0.0,0.0,0.0,0.0,0.0,0.0,5.48568717374e-05,0.0,0.0,0.0,0.0,0.0,0.0,5.48568717374e-05,0.00734075205401,0.00908271688968,0.25678190589,0.118037581444,-0.0284654684365,-0.00686541572213,0.000274284358687,0.0,0.0,0.0,0.0,0.0,0.0,0.000274284358687,0.0,0.0,0.0,0.0,0.0,0.0,0.000274284358687,0.0,0.0,0.0,0.0,0.0,0.0,2.74284358687e-05,0.0,0.0,0.0,0.0,0.0,0.0,2.74284358687e-05,0.0,0.0,0.0,0.0,0.0,0.0,2.74284358687e-05
1662431799465374470,348,1662431799465374470,odom_ekf,base_link,0.0130867641419,0.027043223381,-0.0268645100296,0.00198159821618,-0.01379558633,0.00065785251949,0.99990265641,0.00067783661051,0.0,0.0,0.0,0.0,0.0,0.0,0.00067783661051,0.0,0.0,0.0,0.0,0.0,0.0,0.00067783661051,0.0,0.0,0.0,0.0,0.0,0.0,6.7783661051e-05,0.0,0.0,0.0,0.0,0.0,0.0,6.7783661051e-05,0.0,0.0,0.0,0.0,0.0,0.0,6.7783661051e-05,-0.11909160018,0.260063678026,-0.0536317229271,0.0476105809212,0.0235147383064,-0.0044791540131,0.000338918305255,0.0,0.0,0.0,0.0,0.0,0.0,0.000338918305255,0.0,0.0,0.0,0.0,0.0,0.0,0.000338918305255,0.0,0.0,0.0,0.0,0.0,0.0,3.38918305255e-05,0.0,0.0,0.0,0.0,0.0,0.0,3.38918305255e-05,0.0,0.0,0.0,0.0,0.0,0.0,3.38918305255e-05
1662431799555931330,349,1662431799555931330,odom_ekf,base_link,0.00358155183494,0.0204418301582,-0.00810139626265,0.00508166164856,-0.0124447810862,0.00137407758619,0.999908703857,0.000860491001615,0.0,0.0,0.0,0.0,0.0,0.0,0.000860491001615,0.0,0.0,0.0,0.0,0.0,0.0,0.000860491001615,0.0,0.0,0.0,0.0,0.0,0.0,8.60491001615e-05,0.0,0.0,0.0,0.0,0.0,0.0,8.60491001615e-05,0.0,0.0,0.0,0.0,0.0,0.0,8.60491001615e-05,-0.0992991030216,-0.0719359740615,0.210302278399,0.0687178596854,0.0297723896801,0.0149056753144,0.000430245500808,0.0,0.0,0.0,0.0,0.0,0.0,0.000430245500808,0.0,0.0,0.0,0.0,0.0,0.0,0.000430245500808,0.0,0.0,0.0,0.0,0.0,0.0,4.30245500808e-05,0.0,0.0,0.0,0.0,0.0,0.0,4.30245500808e-05,0.0,0.0,0.0,0.0,0.0,0.0,4.30245500808e-05
1662431799664905787,350,1662431799664905787,odom_ekf,base_link,0.0323070138693,0.00757301412523,-0.00618530623615,-0.00121775567589,-0.0113135892089,0.000263935986892,0.999935222956,0.000707912118863,0.0,0.0,0.0,0.0,0.0,0.0,0.000707912118863,0.0,0.0,0.0,0.0,0.0,0.0,0.000707912118863,0.0,0.0,0.0,0.0,0.0,0.0,7.07912118863e-05,0.0,0.0,0.0,0.0,0.0,0.0,7.07912118863e-05,0.0,0.0,0.0,0.0,0.0,0.0,7.07912118863e-05,0.26364377141,-0.118663258851,0.0122241284698,-0.115852199495,0.0206996295601,-0.0191709399223,0.000353956059432,0.0,0.0,0.0,0.0,0.0,0.0,0.000353956059432,0.0,0.0,0.0,0.0,0.0,0.0,0.000353956059432,0.0,0.0,0.0,0.0,0.0,0.0,3.53956059432e-05,0.0,0.0,0.0,0.0,0.0,0.0,3.53956059432e-05,0.0,0.0,0.0,0.0,0.0,0.0,3.53956059432e-05
1662431799756472588,351,1662431799756472588,odom_ekf,base_link,-0.000482182949781,-0.00728185568005,0.000517441891134,0.000420436998239,-0.0101546757704,0.00964307987377,0.999901853585,0.00108260550331,0.0,0.0,0.0,0.0,0.0,0.0,0.00108260550331,0.0,0.0,0.0,0.0,0.0,0.0,0.00108260550331,0.0,0.0,0.0,0.0,0.0,0.0,0.000108260550331,0.0,0.0,0.0,0.0,0.0,0.0,0.000108260550331,0.0,0.0,0.0,0.0,0.0,0.0,0.000108260550331,-0.356432676315,-0.162228912115,0.0808898434043,0.0383354015648,0.0246863663197,0.204518690705,0.000541302751657,0.0,0.0,0.0,0.0,0.0,0.0,0.000541302751657,0.0,0.0,0.0,0.0,0.0,0.0,0.000541302751657,0.0,0.0,0.0,0.0,0.0,0.0,5.41302751657e-05,0.0,0.0,0.0,0.0,0.0,0.0,5.41302751657e-05,0.0,0.0,0.0,0.0,0.0,0.0,5.41302751657e-05
1662431799851142883,352,1662431799851142883,odom_ekf,base_link,-0.0327064990997,-0.0654339045286,0.0312286391854,6.6520818467e-05,-0.00869052270675,0.0183798718048,0.99979330399,0.0022422620865,0.0,0.0,0.0,0.0,0.0,0.0,0.0022422620865,0.0,0.0,0.0,0.0,0.0,0.0,0.0022422620865,0.0,0.0,0.0,0.0,0.0,0.0,0.00022422620865,0.0,0.0,0.0,0.0,0.0,0.0,0.00022422620865,0.0,0.0,0.0,0.0,0.0,0.0,0.00022422620865,-0.345501095057,-0.607368052006,0.331880897284,-0.0050309561193,0.0311001334339,0.184635162354,0.00112113104325,0.0,0.0,0.0,0.0,0.0,0.0,0.00112113104325,0.0,0.0,0.0,0.0,0.0,0.0,0.00112113104325,0.0,0.0,0.0,0.0,0.0,0.0,0.000112113104325,0.0,0.0,0.0,0.0,0.0,0.0,0.000112113104325,0.0,0.0,0.0,0.0,0.0,0.0,0.000112113104325
1662431799943829298,353,1662431799943829298,odom_ekf,base_link,0.00340505689383,0.00557456165552,0.009610818699,0.000217528597002,-0.00945314790363,0.0022031597017,0.999952867271,0.000680655368962,0.0,0.0,0.0,0.0,0.0,0.0,0.000680655368962,0.0,0.0,0.0,0.0,0.0,0.0,0.000680655368962,0.0,0.0,0.0,0.0,0.0,0.0,6.80655368962e-05,0.0,0.0,0.0,0.0,0.0,0.0,6.80655368962e-05,0.0,0.0,0.0,0.0,0.0,0.0,6.80655368962e-05,0.413389831781,0.751321554184,-0.240317001939,0.000188595004147,-0.0165048912168,-0.349097192287,0.000340327684481,0.0,0.0,0.0,0.0,0.0,0.0,0.000340327684481,0.0,0.0,0.0,0.0,0.0,0.0,0.000340327684481,0.0,0.0,0.0,0.0,0.0,0.0,3.40327684481e-05,0.0,0.0,0.0,0.0,0.0,0.0,3.40327684481e-05,0.0,0.0,0.0,0.0,0.0,0.0,3.40327684481e-05
1662431800035474777,354,1662431800035474777,odom_ekf,base_link,0.000616762787104,0.0311731565744,-0.0130783002824,0.00257274545437,-0.0114199980903,0.00124954905731,0.999930699225,0.00105912040443,0.0,0.0,0.0,0.0,0.0,0.0,0.00105912040443,0.0,0.0,0.0,0.0,0.0,0.0,0.00105912040443,0.0,0.0,0.0,0.0,0.0,0.0,0.000105912040443,0.0,0.0,0.0,0.0,0.0,0.0,0.000105912040443,0.0,0.0,0.0,0.0,0.0,0.0,0.000105912040443,-0.033870216459,0.279356002808,-0.247088596225,0.0511471107602,-0.0429933220148,-0.0213862285018,0.000529560202213,0.0,0.0,0.0,0.0,0.0,0.0,0.000529560202213,0.0,0.0,0.0,0.0,0.0,0.0,0.000529560202213,0.0,0.0,0.0,0.0,0.0,0.0,5.29560202213e-05,0.0,0.0,0.0,0.0,0.0,0.0,5.29560202213e-05,0.0,0.0,0.0,0.0,0.0,0.0,5.29560202213e-05
1662431800143740177,355,1662431800143740177,odom_ekf,base_link,0.00997399259359,-0.00237446092069,-0.00244847405702,-0.00053675423744,-0.0127198738467,0.00155365721731,0.999917748044,0.000874345124946,0.0,0.0,0.0,0.0,0.0,0.0,0.000874345124946,0.0,0.0,0.0,0.0,0.0,0.0,0.000874345124946,0.0,0.0,0.0,0.0,0.0,0.0,8.74345124946e-05,0.0,0.0,0.0,0.0,0.0,0.0,8.74345124946e-05,0.0,0.0,0.0,0.0,0.0,0.0,8.74345124946e-05,0.0878926739097,-0.309578239918,0.0977859273553,-0.0574118569493,-0.0239077750593,0.00640983693302,0.000437172562473,0.0,0.0,0.0,0.0,0.0,0.0,0.000437172562473,0.0,0.0,0.0,0.0,0.0,0.0,0.000437172562473,0.0,0.0,0.0,0.0,0.0,0.0,4.37172562473e-05,0.0,0.0,0.0,0.0,0.0,0.0,4.37172562473e-05,0.0,0.0,0.0,0.0,0.0,0.0,4.37172562473e-05
1662431800235627174,356,1662431800235627174,odom_ekf,base_link,-0.00452085584402,-0.0251267142594,-0.0245079360902,-0.00424609438363,-0.0106462143511,0.00605628216918,0.999915971594,0.0019778293083,0.0,0.0,0.0,0.0,0.0,0.0,0.0019778293083,0.0,0.0,0.0,0.0,0.0,0.0,0.0019778293083,0.0,0.0,0.0,0.0,0.0,0.0,0.00019778293083,0.0,0.0,0.0,0.0,0.0,0.0,0.00019778293083,0.0,0.0,0.0,0.0,0.0,0.0,0.00019778293083,-0.164573833346,-0.246854752302,-0.236236870289,-0.0792078375816,0.0455642603338,0.0988821387291,0.000988914654152,0.0,0.0,0.0,0.0,0.0,0.0,0.000988914654152,0.0,0.0,0.0,0.0,0.0,0.0,0.000988914654152,0.0,0.0,0.0,0.0,0.0,0.0,9.88914654152e-05,0.0,0.0,0.0,0.0,0.0,0.0,9.88914654152e-05,0.0,0.0,0.0,0.0,0.0,0.0,9.88914654152e-05
