%time,field.header.seq,field.header.stamp,field.header.frame_id,field.child_frame_id,field.pose.pose.position.x,field.pose.pose.position.y,field.pose.pose.position.z,field.pose.pose.orientation.x,field.pose.pose.orientation.y,field.pose.pose.orientation.z,field.pose.pose.orientation.w,field.pose.covariance0,field.pose.covariance1,field.pose.covariance2,field.pose.covariance3,field.pose.covariance4,field.pose.covariance5,field.pose.covariance6,field.pose.covariance7,field.pose.covariance8,field.pose.covariance9,field.pose.covariance10,field.pose.covariance11,field.pose.covariance12,field.pose.covariance13,field.pose.covariance14,field.pose.covariance15,field.pose.covariance16,field.pose.covariance17,field.pose.covariance18,field.pose.covariance19,field.pose.covariance20,field.pose.covariance21,field.pose.covariance22,field.pose.covariance23,field.pose.covariance24,field.pose.covariance25,field.pose.covariance26,field.pose.covariance27,field.pose.covariance28,field.pose.covariance29,field.pose.covariance30,field.pose.covariance31,field.pose.covariance32,field.pose.covariance33,field.pose.covariance34,field.pose.covariance35,field.twist.twist.linear.x,field.twist.twist.linear.y,field.twist.twist.linear.z,field.twist.twist.angular.x,field.twist.twist.angular.y,field.twist.twist.angular.z,field.twist.covariance0,field.twist.covariance1,field.twist.covariance2,field.twist.covariance3,field.twist.covariance4,field.twist.covariance5,field.twist.covariance6,field.twist.covariance7,field.twist.covariance8,field.twist.covariance9,field.twist.covariance10,field.twist.covariance11,field.twist.covariance12,field.twist.covariance13,field.twist.covariance14,field.twist.covariance15,field.twist.covariance16,field.twist.covariance17,field.twist.covariance18,field.twist.covariance19,field.twist.covariance20,field.twist.covariance21,field.twist.covariance22,field.twist.covariance23,field.twist.covariance24,field.twist.covariance25,field.twist.covariance26,field.twist.covariance27,field.twist.covariance28,field.twist.covariance29,field.twist.covariance30,field.twist.covariance31,field.twist.covariance32,field.twist.covariance33,field.twist.covariance34,field.twist.covariance35
1662436534205333948,0,1662436534205333948,icp_odom,base_link,0.0,0.0,0.0,0.0,0.0,0.0,1.0,19998.0,0.0,0.0,0.0,0.0,0.0,0.0,19998.0,0.0,0.0,0.0,0.0,0.0,0.0,19998.0,0.0,0.0,0.0,0.0,0.0,0.0,19998.0,0.0,0.0,0.0,0.0,0.0,0.0,19998.0,0.0,0.0,0.0,0.0,0.0,0.0,19998.0,0.0,0.0,0.0,0.0,0.0,0.0,9999.0,0.0,0.0,0.0,0.0,0.0,0.0,9999.0,0.0,0.0,0.0,0.0,0.0,0.0,9999.0,0.0,0.0,0.0,0.0,0.0,0.0,9999.0,0.0,0.0,0.0,0.0,0.0,0.0,9999.0,0.0,0.0,0.0,0.0,0.0,0.0,9999.0
1662436534298110247,1,1662436534298110247,icp_odom,base_link,0.00371039332822,0.00244950246997,-0.00190178083722,-0.000252376502203,-0.000563967093434,-0.0004625254584,0.999999702159,7.38945816754e-05,0.0,0.0,0.0,0.0,0.0,0.0,7.38945816754e-05,0.0,0.0,0.0,0.0,0.0,0.0,7.38945816754e-05,0.0,0.0,0.0,0.0,0.0,0.0,7.38945816754e-06,0.0,0.0,0.0,0.0,0.0,0.0,7.38945816754e-06,0.0,0.0,0.0,0.0,0.0,0.0,7.38945816754e-06,0.0399929024279,0.0264022443444,-0.0204985626042,-0.00543491728604,-0.012160083279,-0.00996770337224,3.69472908377e-05,0.0,0.0,0.0,0.0,0.0,0.0,3.69472908377e-05,0.0,0.0,0.0,0.0,0.0,0.0,3.69472908377e-05,0.0,0.0,0.0,0.0,0.0,0.0,3.69472908377e-06,0.0,0.0,0.0,0.0,0.0,0.0,3.69472908377e-06,0.0,0.0,0.0,0.0,0.0,0.0,3.69472908377e-06
1662436534390278578,2,1662436534390278578,icp_odom,base_link,-0.000278357416391,8.64339526743e-05,0.00123523816001,-0.000327929761132,1.84669929091e-05,0.000138303231085,0.999999936497,7.49365568205e-05,0.0,0.0,0.0,0.0,0.0,0.0,7.49365568205e-05,0.0,0.0,0.0,0.0,0.0,0.0,7.49365568205e-05,0.0,0.0,0.0,0.0,0.0,0.0,7.49365568205e-06,0.0,0.0,0.0,0.0,0.0,0.0,7.49365568205e-06,0.0,0.0,0.0,0.0,0.0,0.0,7.49365568205e-06,-0.043214648962,-0.0256958082318,0.0340715795755,-0.00163036049344,0.0126354191452,0.0130408043042,3.74682784102e-05,0.0,0.0,0.0,0.0,0.0,0.0,3.74682784102e-05,0.0,0.0,0.0,0.0,0.0,0.0,3.74682784102e-05,0.0,0.0,0.0,0.0,0.0,0.0,3.74682784102e-06,0.0,0.0,0.0,0.0,0.0,0.0,3.74682784102e-06,0.0,0.0,0.0,0.0,0.0,0.0,3.74682784102e-06
1662436534499031305,3,1662436534499031305,icp_odom,base_link,0.000568441173527,0.000630668015219,-0.00105925381649,-0.000140734747552,-0.000156251062195,4.11256814763e-05,0.999999977044,7.04504666876e-05,0.0,0.0,0.0,0.0,0.0,0.0,7.04504666876e-05,0.0,0.0,0.0,0.0,0.0,0.0,7.04504666876e-05,0.0,0.0,0.0,0.0,0.0,0.0,7.04504666876e-06,0.0,0.0,0.0,0.0,0.0,0.0,7.04504666876e-06,0.0,0.0,0.0,0.0,0.0,0.0,7.04504666876e-06,0.00778862321749,0.00501600746065,-0.0210946742445,0.00344248232432,-0.00321267964318,-0.00178872002289,3.52252333438e-05,0.0,0.0,0.0,0.0,0.0,0.0,3.52252333438e-05,0.0,0.0,0.0,0.0,0.0,0.0,3.52252333438e-05,0.0,0.0,0.0,0.0,0.0,0.0,3.52252333438e-06,0.0,0.0,0.0,0.0,0.0,0.0,3.52252333438e-06,0.0,0.0,0.0,0.0,0.0,0.0,3.52252333438e-06
1662436534593967438,4,1662436534593967438,icp_odom,base_link,-0.000191270490177,0.000234405946685,-0.00104035274126,-0.000122883215031,-8.13693864132e-05,0.00010796579893,0.999999983311,7.84091142617e-05,0.0,0.0,0.0,0.0,0.0,0.0,7.84091142617e-05,0.0,0.0,0.0,0.0,0.0,0.0,7.84091142617e-05,0.0,0.0,0.0,0.0,0.0,0.0,7.84091142617e-06,0.0,0.0,0.0,0.0,0.0,0.0,7.84091142617e-06,0.0,0.0,0.0,0.0,0.0,0.0,7.84091142617e-06,-0.00800262577832,-0.00417338404804,0.000200418115128,0.000376465148292,0.0015772782499,0.00140829838347,3.92045571309e-05,0.0,0.0,0.0,0.0,0.0,0.0,3.92045571309e-05,0.0,0.0,0.0,0.0,0.0,0.0,3.92045571309e-05,0.0,0.0,0.0,0.0,0.0,0.0,3.92045571309e-06,0.0,0.0,0.0,0.0,0.0,0.0,3.92045571309e-06,0.0,0.0,0.0,0.0,0.0,0.0,3.92045571309e-06
1662436534686419010,5,1662436534686419010,icp_odom,base_link,0.000954270944931,-0.000997402588837,0.00317796482705,-9.06737018762e-05,0.000501871293616,-6.77826993765e-05,0.999999867654,8.08547238461e-05,0.0,0.0,0.0,0.0,0.0,0.0,8.08547238461e-05,0.0,0.0,0.0,0.0,0.0,0.0,8.08547238461e-05,0.0,0.0,0.0,0.0,0.0,0.0,8.08547238461e-06,0.0,0.0,0.0,0.0,0.0,0.0,8.08547238461e-06,0.0,0.0,0.0,0.0,0.0,0.0,8.08547238461e-06,0.0123952655122,-0.0133377155289,0.0456220321357,0.000695623341016,0.0126177268103,-0.0038000587374,4.04273619231e-05,0.0,0.0,0.0,0.0,0.0,0.0,4.04273619231e-05,0.0,0.0,0.0,0.0,0.0,0.0,4.04273619231e-05,0.0,0.0,0.0,0.0,0.0,0.0,4.04273619231e-06,0.0,0.0,0.0,0.0,0.0,0.0,4.04273619231e-06,0.0,0.0,0.0,0.0,0.0,0.0,4.04273619231e-06
1662436534778669596,6,1662436534778669596,icp_odom,base_link,0.000173573265783,-0.000380304991268,0.0013617008226,-0.000252030392136,-4.95006735063e-05,0.000188596510281,0.999999949231,7.65459352423e-05,0.0,0.0,0.0,0.0,0.0,0.0,7.65459352423e-05,0.0,0.0,0.0,0.0,0.0,0.0,7.65459352423e-05,0.0,0.0,0.0,0.0,0.0,0.0,7.65459352423e-06,0.0,0.0,0.0,0.0,0.0,0.0,7.65459352423e-06,0.0,0.0,0.0,0.0,0.0,0.0,7.65459352423e-06,-0.00844393484294,0.00669178785756,-0.0196956451982,-0.00350326905027,-0.011953631416,0.00555741321295,3.82729676212e-05,0.0,0.0,0.0,0.0,0.0,0.0,3.82729676212e-05,0.0,0.0,0.0,0.0,0.0,0.0,3.82729676212e-05,0.0,0.0,0.0,0.0,0.0,0.0,3.82729676212e-06,0.0,0.0,0.0,0.0,0.0,0.0,3.82729676212e-06,0.0,0.0,0.0,0.0,0.0,0.0,3.82729676212e-06
1662436534887255907,7,1662436534887255907,icp_odom,base_link,9.76982264547e-05,-0.000628577661701,0.000247752759606,8.73849511364e-05,-6.87300357354e-05,0.00019539959992,0.99999997473,7.04743094731e-05,0.0,0.0,0.0,0.0,0.0,0.0,7.04743094731e-05,0.0,0.0,0.0,0.0,0.0,0.0,7.04743094731e-05,0.0,0.0,0.0,0.0,0.0,0.0,7.04743094731e-06,0.0,0.0,0.0,0.0,0.0,0.0,7.04743094731e-06,0.0,0.0,0.0,0.0,0.0,0.0,7.04743094731e-06,-0.000700630305801,-0.00228097382933,-0.0102597232908,0.00625146785751,-0.0003554293653,0.00012478348799,3.52371547365e-05,0.0,0.0,0.0,0.0,0.0,0.0,3.52371547365e-05,0.0,0.0,0.0,0.0,0.0,0.0,3.52371547365e-05,0.0,0.0,0.0,0.0,0.0,0.0,3.52371547365e-06,0.0,0.0,0.0,0.0,0.0,0.0,3.52371547365e-06,0.0,0.0,0.0,0.0,0.0,0.0,3.52371547365e-06
1662436534979564190,8,1662436534979564190,icp_odom,base_link,5.16341206094e-05,-0.00137663003989,-0.00144932605326,-0.000478398450041,-0.000124925708907,0.000259958248395,0.999999843975,6.45884744672e-05,0.0,0.0,0.0,0.0,0.0,0.0,6.45884744672e-05,0.0,0.0,0.0,0.0,0.0,0.0,6.45884744672e-05,0.0,0.0,0.0,0.0,0.0,0.0,6.45884744672e-06,0.0,0.0,0.0,0.0,0.0,0.0,6.45884744672e-06,0.0,0.0,0.0,0.0,0.0,0.0,6.45884744672e-06,-0.000504719326273,-0.00810686592013,-0.0183834172785,-0.0122587811202,-0.00121425476391,0.00140039704274,3.22942372336e-05,0.0,0.0,0.0,0.0,0.0,0.0,3.22942372336e-05,0.0,0.0,0.0,0.0,0.0,0.0,3.22942372336e-05,0.0,0.0,0.0,0.0,0.0,0.0,3.22942372336e-06,0.0,0.0,0.0,0.0,0.0,0.0,3.22942372336e-06,0.0,0.0,0.0,0.0,0.0,0.0,3.22942372336e-06
1662436535071857452,9,1662436535071857452,icp_odom,base_link,-0.000153279834194,0.000631582690403,-0.000185362878256,-0.000262377619656,5.42257170435e-05,0.000161429422575,0.999999951079,7.17108013164e-05,0.0,0.0,0.0,0.0,0.0,0.0,7.17108013164e-05,0.0,0.0,0.0,0.0,0.0,0.0,7.17108013164e-05,0.0,0.0,0.0,0.0,0.0,0.0,7.17108013164e-06,0.0,0.0,0.0,0.0,0.0,0.0,7.17108013164e-06,0.0,0.0,0.0,0.0,0.0,0.0,7.17108013164e-06,-0.00220551434904,0.0217470768839,0.0137164415792,0.00468154391274,0.00388248590752,-0.00213301391341,3.58554006582e-05,0.0,0.0,0.0,0.0,0.0,0.0,3.58554006582e-05,0.0,0.0,0.0,0.0,0.0,0.0,3.58554006582e-05,0.0,0.0,0.0,0.0,0.0,0.0,3.58554006582e-06,0.0,0.0,0.0,0.0,0.0,0.0,3.58554006582e-06,0.0,0.0,0.0,0.0,0.0,0.0,3.58554006582e-06
1662436535180202246,10,1662436535180202246,icp_odom,base_link,9.39761812333e-05,0.000438402377767,-0.00038504472468,0.000137287123905,-0.000165331095663,-7.58967096833e-05,0.999999974029,6.75826024605e-05,0.0,0.0,0.0,0.0,0.0,0.0,6.75826024605e-05,0.0,0.0,0.0,0.0,0.0,0.0,6.75826024605e-05,0.0,0.0,0.0,0.0,0.0,0.0,6.75826024605e-06,0.0,0.0,0.0,0.0,0.0,0.0,6.75826024605e-06,0.0,0.0,0.0,0.0,0.0,0.0,6.75826024605e-06,0.0022817463614,-0.00178278353997,-0.00184371019714,0.00737819122151,-0.00405121734366,-0.00438322545961,3.37913012302e-05,0.0,0.0,0.0,0.0,0.0,0.0,3.37913012302e-05,0.0,0.0,0.0,0.0,0.0,0.0,3.37913012302e-05,0.0,0.0,0.0,0.0,0.0,0.0,3.37913012302e-06,0.0,0.0,0.0,0.0,0.0,0.0,3.37913012302e-06,0.0,0.0,0.0,0.0,0.0,0.0,3.37913012302e-06
1662436535272501469,11,1662436535272501469,icp_odom,base_link,0.000420886994107,-0.000961600104347,0.00116085470654,0.000148368747741,-5.90924396571e-05,0.000322000931748,0.999999935405,6.7862606452e-05,0.0,0.0,0.0,0.0,0.0,0.0,6.7862606452e-05,0.0,0.0,0.0,0.0,0.0,0.0,6.7862606452e-05,0.0,0.0,0.0,0.0,0.0,0.0,6.7862606452e-06,0.0,0.0,0.0,0.0,0.0,0.0,6.7862606452e-06,0.0,0.0,0.0,0.0,0.0,0.0,6.7862606452e-06,0.00354969943874,-0.0151629494503,0.0167517736554,0.000242290901951,0.00230315420777,0.00862157810479,3.3931303226e-05,0.0,0.0,0.0,0.0,0.0,0.0,3.3931303226e-05,0.0,0.0,0.0,0.0,0.0,0.0,3.3931303226e-05,0.0,0.0,0.0,0.0,0.0,0.0,3.3931303226e-06,0.0,0.0,0.0,0.0,0.0,0.0,3.3931303226e-06,0.0,0.0,0.0,0.0,0.0,0.0,3.3931303226e-06
1662436535367300510,12,1662436535367300510,icp_odom,base_link,0.000943053164519,0.00121889542788,0.000373028102331,-0.000107850462124,0.000277282973259,5.62012707563e-05,0.999999954162,7.73942253398e-05,0.0,0.0,0.0,0.0,0.0,0.0,7.73942253398e-05,0.0,0.0,0.0,0.0,0.0,0.0,7.73942253398e-05,0.0,0.0,0.0,0.0,0.0,0.0,7.73942253398e-06,0.0,0.0,0.0,0.0,0.0,0.0,7.73942253398e-06,0.0,0.0,0.0,0.0,0.0,0.0,7.73942253398e-06,0.00552196567878,0.0229952204973,-0.00831796787679,-0.00540545629337,0.00709606986493,-0.00561019685119,3.86971126699e-05,0.0,0.0,0.0,0.0,0.0,0.0,3.86971126699e-05,0.0,0.0,0.0,0.0,0.0,0.0,3.86971126699e-05,0.0,0.0,0.0,0.0,0.0,0.0,3.86971126699e-06,0.0,0.0,0.0,0.0,0.0,0.0,3.86971126699e-06,0.0,0.0,0.0,0.0,0.0,0.0,3.86971126699e-06
1662436535459254980,13,1662436535459254980,icp_odom,base_link,0.00197776779532,0.000540249515325,-0.000339603924658,-0.000183374419153,-7.03866833687e-05,1.53008697224e-05,0.999999980593,8.15926091163e-05,0.0,0.0,0.0,0.0,0.0,0.0,8.15926091163e-05,0.0,0.0,0.0,0.0,0.0,0.0,8.15926091163e-05,0.0,0.0,0.0,0.0,0.0,0.0,8.15926091163e-06,0.0,0.0,0.0,0.0,0.0,0.0,8.15926091163e-06,0.0,0.0,0.0,0.0,0.0,0.0,8.15926091163e-06,0.0112559329718,-0.00737983221188,-0.00774518633261,-0.00164250587113,-0.00756165711209,-0.000890279537998,4.07963045582e-05,0.0,0.0,0.0,0.0,0.0,0.0,4.07963045582e-05,0.0,0.0,0.0,0.0,0.0,0.0,4.07963045582e-05,0.0,0.0,0.0,0.0,0.0,0.0,4.07963045582e-06,0.0,0.0,0.0,0.0,0.0,0.0,4.07963045582e-06,0.0,0.0,0.0,0.0,0.0,0.0,4.07963045582e-06
1662436535567904711,14,1662436535567904711,icp_odom,base_link,-0.000758966896683,-0.000363525934517,0.00192825589329,-0.000182657562325,0.000141292197144,0.000358134743383,0.999999909206,6.67895147766e-05,0.0,0.0,0.0,0.0,0.0,0.0,6.67895147766e-05,0.0,0.0,0.0,0.0,0.0,0.0,6.67895147766e-05,0.0,0.0,0.0,0.0,0.0,0.0,6.67895147766e-06,0.0,0.0,0.0,0.0,0.0,0.0,6.67895147766e-06,0.0,0.0,0.0,0.0,0.0,0.0,6.67895147766e-06,-0.0251859184355,-0.00832513254136,0.0208736248314,1.50352161654e-05,0.00389537448063,0.00631152559072,3.33947573883e-05,0.0,0.0,0.0,0.0,0.0,0.0,3.33947573883e-05,0.0,0.0,0.0,0.0,0.0,0.0,3.33947573883e-05,0.0,0.0,0.0,0.0,0.0,0.0,3.33947573883e-06,0.0,0.0,0.0,0.0,0.0,0.0,3.33947573883e-06,0.0,0.0,0.0,0.0,0.0,0.0,3.33947573883e-06
1662436535665911198,15,1662436535665911198,icp_odom,base_link,0.000625416403636,-0.00011128562619,-0.000710130902007,-0.00013737293662,-0.000224406387517,0.00010728906275,0.99999995963,7.05246563262e-05,0.0,0.0,0.0,0.0,0.0,0.0,7.05246563262e-05,0.0,0.0,0.0,0.0,0.0,0.0,7.05246563262e-05,0.0,0.0,0.0,0.0,0.0,0.0,7.05246563262e-06,0.0,0.0,0.0,0.0,0.0,0.0,7.05246563262e-06,0.0,0.0,0.0,0.0,0.0,0.0,7.05246563262e-06,0.0141348754987,0.00257342285477,-0.0269155986607,0.000924038002267,-0.00746190594509,-0.00512053212151,3.52623281631e-05,0.0,0.0,0.0,0.0,0.0,0.0,3.52623281631e-05,0.0,0.0,0.0,0.0,0.0,0.0,3.52623281631e-05,0.0,0.0,0.0,0.0,0.0,0.0,3.52623281631e-06,0.0,0.0,0.0,0.0,0.0,0.0,3.52623281631e-06,0.0,0.0,0.0,0.0,0.0,0.0,3.52623281631e-06
1662436535757877350,16,1662436535757877350,icp_odom,base_link,0.000552340585273,0.00117476773448,-0.00153406627942,-0.000170491579563,-8.20373107151e-05,-2.61901116873e-05,0.999999981758,8.11305503923e-05,0.0,0.0,0.0,0.0,0.0,0.0,8.11305503923e-05,0.0,0.0,0.0,0.0,0.0,0.0,8.11305503923e-05,0.0,0.0,0.0,0.0,0.0,0.0,8.11305503923e-06,0.0,0.0,0.0,0.0,0.0,0.0,8.11305503923e-06,0.0,0.0,0.0,0.0,0.0,0.0,8.11305503923e-06,-0.000795613741502,0.0139866173267,-0.00895491614938,-0.000720968295354,0.00309649854898,-0.00290230521932,4.05652751961e-05,0.0,0.0,0.0,0.0,0.0,0.0,4.05652751961e-05,0.0,0.0,0.0,0.0,0.0,0.0,4.05652751961e-05,0.0,0.0,0.0,0.0,0.0,0.0,4.05652751961e-06,0.0,0.0,0.0,0.0,0.0,0.0,4.05652751961e-06,0.0,0.0,0.0,0.0,0.0,0.0,4.05652751961e-06
1662436535850530624,17,1662436535850530624,icp_odom,base_link,0.000821604975499,-0.000521270558238,-0.000204159528948,-0.00026933559646,7.22090820855e-05,0.000234174339731,0.999999933703,8.56784961442e-05,0.0,0.0,0.0,0.0,0.0,0.0,8.56784961442e-05,0.0,0.0,0.0,0.0,0.0,0.0,8.56784961442e-05,0.0,0.0,0.0,0.0,0.0,0.0,8.56784961442e-06,0.0,0.0,0.0,0.0,0.0,0.0,8.56784961442e-06,0.0,0.0,0.0,0.0,0.0,0.0,8.56784961442e-06,0.00290946406312,-0.0183099582791,0.0143468668684,-0.0021323915571,0.00332908099517,0.00562060251832,4.28392480721e-05,0.0,0.0,0.0,0.0,0.0,0.0,4.28392480721e-05,0.0,0.0,0.0,0.0,0.0,0.0,4.28392480721e-05,0.0,0.0,0.0,0.0,0.0,0.0,4.28392480721e-06,0.0,0.0,0.0,0.0,0.0,0.0,4.28392480721e-06,0.0,0.0,0.0,0.0,0.0,0.0,4.28392480721e-06
1662436535944684744,18,1662436535944684744,icp_odom,base_link,0.00101571739651,0.000131144595798,-0.000144130564877,-0.000363490974453,-0.00010071942136,-2.87975562795e-05,0.99999992845,6.88440886055e-05,0.0,0.0,0.0,0.0,0.0,0.0,6.88440886055e-05,0.0,0.0,0.0,0.0,0.0,0.0,6.88440886055e-05,0.0,0.0,0.0,0.0,0.0,0.0,6.88440886055e-06,0.0,0.0,0.0,0.0,0.0,0.0,6.88440886055e-06,0.0,0.0,0.0,0.0,0.0,0.0,6.88440886055e-06,0.00206479779445,0.00692791538313,0.000641590857413,-0.00199951813556,-0.00367185985669,-0.00558677595109,3.44220443028e-05,0.0,0.0,0.0,0.0,0.0,0.0,3.44220443028e-05,0.0,0.0,0.0,0.0,0.0,0.0,3.44220443028e-05,0.0,0.0,0.0,0.0,0.0,0.0,3.44220443028e-06,0.0,0.0,0.0,0.0,0.0,0.0,3.44220443028e-06,0.0,0.0,0.0,0.0,0.0,0.0,3.44220443028e-06
1662436536039669991,19,1662436536039669991,icp_odom,base_link,0.000436066475231,-0.000603230088018,8.58056882862e-05,7.33719825762e-05,-0.000301673208403,0.000114767213972,0.999999945219,7.80182512337e-05,0.0,0.0,0.0,0.0,0.0,0.0,7.80182512337e-05,0.0,0.0,0.0,0.0,0.0,0.0,7.80182512337e-05,0.0,0.0,0.0,0.0,0.0,0.0,7.80182512337e-06,0.0,0.0,0.0,0.0,0.0,0.0,7.80182512337e-06,0.0,0.0,0.0,0.0,0.0,0.0,7.80182512337e-06,-0.00610160361975,-0.0077335704118,0.00241636531428,0.00919836293906,-0.00423341663554,0.00301857176237,3.90091256169e-05,0.0,0.0,0.0,0.0,0.0,0.0,3.90091256169e-05,0.0,0.0,0.0,0.0,0.0,0.0,3.90091256169e-05,0.0,0.0,0.0,0.0,0.0,0.0,3.90091256169e-06,0.0,0.0,0.0,0.0,0.0,0.0,3.90091256169e-06,0.0,0.0,0.0,0.0,0.0,0.0,3.90091256169e-06
1662436536148415327,20,1662436536148415327,icp_odom,base_link,8.5686071543e-05,0.000146641454194,0.000928513007239,-0.000160427941477,0.000118928359624,0.000121101193436,0.999999972727,7.40051784221e-05,0.0,0.0,0.0,0.0,0.0,0.0,7.40051784221e-05,0.0,0.0,0.0,0.0,0.0,0.0,7.40051784221e-05,0.0,0.0,0.0,0.0,0.0,0.0,7.40051784221e-06,0.0,0.0,0.0,0.0,0.0,0.0,7.40051784221e-06,0.0,0.0,0.0,0.0,0.0,0.0,7.40051784221e-06,-0.00321576790884,0.00689754262567,0.00775029556826,-0.00429898221046,0.00773606169969,0.000115412985906,3.7002589211e-05,0.0,0.0,0.0,0.0,0.0,0.0,3.7002589211e-05,0.0,0.0,0.0,0.0,0.0,0.0,3.7002589211e-05,0.0,0.0,0.0,0.0,0.0,0.0,3.7002589211e-06,0.0,0.0,0.0,0.0,0.0,0.0,3.7002589211e-06,0.0,0.0,0.0,0.0,0.0,0.0,3.7002589211e-06
1662436536241037130,21,1662436536241037130,icp_odom,base_link,0.000402508070692,-0.00267519801855,-0.000405803322792,-0.000385566667955,4.27015352224e-05,0.000330198194451,0.999999870242,6.80145682243e-05,0.0,0.0,0.0,0.0,0.0,0.0,6.80145682243e-05,0.0,0.0,0.0,0.0,0.0,0.0,6.80145682243e-05,0.0,0.0,0.0,0.0,0.0,0.0,6.80145682243e-06,0.0,0.0,0.0,0.0,0.0,0.0,6.80145682243e-06,0.0,0.0,0.0,0.0,0.0,0.0,6.80145682243e-06,0.00341664766893,-0.0304624587297,-0.0144150331616,-0.00486254366115,-0.00164509890601,0.00451459921896,3.40072841122e-05,0.0,0.0,0.0,0.0,0.0,0.0,3.40072841122e-05,0.0,0.0,0.0,0.0,0.0,0.0,3.40072841122e-05,0.0,0.0,0.0,0.0,0.0,0.0,3.40072841122e-06,0.0,0.0,0.0,0.0,0.0,0.0,3.40072841122e-06,0.0,0.0,0.0,0.0,0.0,0.0,3.40072841122e-06
1662436536335441113,22,1662436536335441113,icp_odom,base_link,0.000716764829122,0.000347448745742,0.0022178189829,-0.000592095316366,0.000169362630978,-0.000128510405273,0.999999802112,8.38490629508e-05,0.0,0.0,0.0,0.0,0.0,0.0,8.38490629508e-05,0.0,0.0,0.0,0.0,0.0,0.0,8.38490629508e-05,0.0,0.0,0.0,0.0,0.0,0.0,8.38490629508e-06,0.0,0.0,0.0,0.0,0.0,0.0,8.38490629508e-06,0.0,0.0,0.0,0.0,0.0,0.0,8.38490629508e-06,0.00334761291742,0.0319945663214,0.0278164017946,-0.00437535438687,0.00268656923436,-0.00971770007163,4.19245314754e-05,0.0,0.0,0.0,0.0,0.0,0.0,4.19245314754e-05,0.0,0.0,0.0,0.0,0.0,0.0,4.19245314754e-05,0.0,0.0,0.0,0.0,0.0,0.0,4.19245314754e-06,0.0,0.0,0.0,0.0,0.0,0.0,4.19245314754e-06,0.0,0.0,0.0,0.0,0.0,0.0,4.19245314754e-06
1662436536427698135,23,1662436536427698135,icp_odom,base_link,-0.000606962130405,-0.00302515784279,0.0031795531977,-0.00029248870614,0.000433494965096,0.000445970150401,0.999999763822,7.73674909689e-05,0.0,0.0,0.0,0.0,0.0,0.0,7.73674909689e-05,0.0,0.0,0.0,0.0,0.0,0.0,7.73674909689e-05,0.0,0.0,0.0,0.0,0.0,0.0,7.73674909689e-06,0.0,0.0,0.0,0.0,0.0,0.0,7.73674909689e-06,0.0,0.0,0.0,0.0,0.0,0.0,7.73674909689e-06,-0.0143423778936,-0.0365726426244,0.0103763518855,0.0064954822883,0.00571573805064,0.0124601181597,3.86837454844e-05,0.0,0.0,0.0,0.0,0.0,0.0,3.86837454844e-05,0.0,0.0,0.0,0.0,0.0,0.0,3.86837454844e-05,0.0,0.0,0.0,0.0,0.0,0.0,3.86837454844e-06,0.0,0.0,0.0,0.0,0.0,0.0,3.86837454844e-06,0.0,0.0,0.0,0.0,0.0,0.0,3.86837454844e-06
1662436536536708832,24,1662436536536708832,icp_odom,base_link,0.000627927365713,-0.00034561753273,-0.00081452424638,-0.000348977124299,-4.44997156634e-05,-3.31728911903e-06,0.999999938112,9.25834678879e-05,0.0,0.0,0.0,0.0,0.0,0.0,9.25834678879e-05,0.0,0.0,0.0,0.0,0.0,0.0,9.25834678879e-05,0.0,0.0,0.0,0.0,0.0,0.0,9.25834678879e-06,0.0,0.0,0.0,0.0,0.0,0.0,9.25834678879e-06,0.0,0.0,0.0,0.0,0.0,0.0,9.25834678879e-06,0.0113818347454,0.0245918259025,-0.0366150923073,-0.00103277957533,-0.00876727607101,-0.00824551843107,4.62917339439e-05,0.0,0.0,0.0,0.0,0.0,0.0,4.62917339439e-05,0.0,0.0,0.0,0.0,0.0,0.0,4.62917339439e-05,0.0,0.0,0.0,0.0,0.0,0.0,4.62917339439e-06,0.0,0.0,0.0,0.0,0.0,0.0,4.62917339439e-06,0.0,0.0,0.0,0.0,0.0,0.0,4.62917339439e-06
1662436536631297112,25,1662436536631297112,icp_odom,base_link,4.07017651014e-05,0.000540780893061,-0.000306291505694,-0.000234693082775,-2.47091078728e-05,0.000220298996867,0.999999947888,7.35275422409e-05,0.0,0.0,0.0,0.0,0.0,0.0,7.35275422409e-05,0.0,0.0,0.0,0.0,0.0,0.0,7.35275422409e-05,0.0,0.0,0.0,0.0,0.0,0.0,7.35275422409e-06,0.0,0.0,0.0,0.0,0.0,0.0,7.35275422409e-06,0.0,0.0,0.0,0.0,0.0,0.0,7.35275422409e-06,-0.0062078111805,0.00936732906848,0.00538019649684,0.00241675507277,0.000416275550378,0.00472828838974,3.67637711205e-05,0.0,0.0,0.0,0.0,0.0,0.0,3.67637711205e-05,0.0,0.0,0.0,0.0,0.0,0.0,3.67637711205e-05,0.0,0.0,0.0,0.0,0.0,0.0,3.67637711205e-06,0.0,0.0,0.0,0.0,0.0,0.0,3.67637711205e-06,0.0,0.0,0.0,0.0,0.0,0.0,3.67637711205e-06
1662436536723398209,26,1662436536723398209,icp_odom,base_link,0.00213356409222,-0.000790427497122,0.00320231216028,-0.000458969364119,0.000448935117996,8.69061803442e-05,0.999999790126,7.2227998481e-05,0.0,0.0,0.0,0.0,0.0,0.0,7.2227998481e-05,0.0,0.0,0.0,0.0,0.0,0.0,7.2227998481e-05,0.0,0.0,0.0,0.0,0.0,0.0,7.2227998481e-06,0.0,0.0,0.0,0.0,0.0,0.0,7.2227998481e-06,0.0,0.0,0.0,0.0,0.0,0.0,7.2227998481e-06,0.022719040513,-0.0144816637039,0.0380872227252,-0.00486939772964,0.0102864140645,-0.00289643299766,3.61139992405e-05,0.0,0.0,0.0,0.0,0.0,0.0,3.61139992405e-05,0.0,0.0,0.0,0.0,0.0,0.0,3.61139992405e-05,0.0,0.0,0.0,0.0,0.0,0.0,3.61139992405e-06,0.0,0.0,0.0,0.0,0.0,0.0,3.61139992405e-06,0.0,0.0,0.0,0.0,0.0,0.0,3.61139992405e-06
1662436536818505764,27,1662436536818505764,icp_odom,base_link,0.000755003537051,0.00140776834451,-0.000205912161618,-0.000430215452886,0.000105529087716,3.71692802936e-05,0.999999901198,8.75500556437e-05,0.0,0.0,0.0,0.0,0.0,0.0,8.75500556437e-05,0.0,0.0,0.0,0.0,0.0,0.0,8.75500556437e-05,0.0,0.0,0.0,0.0,0.0,0.0,8.75500556437e-06,0.0,0.0,0.0,0.0,0.0,0.0,8.75500556437e-06,0.0,0.0,0.0,0.0,0.0,0.0,8.75500556437e-06,-0.0144585613161,0.0231481418014,-0.0358272381127,0.000604865665082,-0.0072209672071,-0.00104915921111,4.37750278218e-05,0.0,0.0,0.0,0.0,0.0,0.0,4.37750278218e-05,0.0,0.0,0.0,0.0,0.0,0.0,4.37750278218e-05,0.0,0.0,0.0,0.0,0.0,0.0,4.37750278218e-06,0.0,0.0,0.0,0.0,0.0,0.0,4.37750278218e-06,0.0,0.0,0.0,0.0,0.0,0.0,4.37750278218e-06
1662436536910820007,28,1662436536910820007,icp_odom,base_link,4.67429636046e-05,0.000426672399044,-0.0018587593222,0.000299491551581,-0.000401946012267,-0.000147270320061,0.999999863528,7.59977814803e-05,0.0,0.0,0.0,0.0,0.0,0.0,7.59977814803e-05,0.0,0.0,0.0,0.0,0.0,0.0,7.59977814803e-05,0.0,0.0,0.0,0.0,0.0,0.0,7.59977814803e-06,0.0,0.0,0.0,0.0,0.0,0.0,7.59977814803e-06,0.0,0.0,0.0,0.0,0.0,0.0,7.59977814803e-06,-0.00766928773373,-0.0106118032709,-0.0179153308272,0.0158112440258,-0.0109904594719,-0.00400699162856,3.79988907401e-05,0.0,0.0,0.0,0.0,0.0,0.0,3.79988907401e-05,0.0,0.0,0.0,0.0,0.0,0.0,3.79988907401e-05,0.0,0.0,0.0,0.0,0.0,0.0,3.79988907401e-06,0.0,0.0,0.0,0.0,0.0,0.0,3.79988907401e-06,0.0,0.0,0.0,0.0,0.0,0.0,3.79988907401e-06
1662436537018997192,29,1662436537018997192,icp_odom,base_link,0.00022725679446,-4.71088278573e-05,-0.00196582637727,-0.00015770265319,-0.000241286954185,0.00025688614281,0.99999992546,8.16447856009e-05,0.0,0.0,0.0,0.0,0.0,0.0,8.16447856009e-05,0.0,0.0,0.0,0.0,0.0,0.0,8.16447856009e-05,0.0,0.0,0.0,0.0,0.0,0.0,8.16447856009e-06,0.0,0.0,0.0,0.0,0.0,0.0,8.16447856009e-06,0.0,0.0,0.0,0.0,0.0,0.0,8.16447856009e-06,0.00166918151081,-0.00437977863476,-0.00098845618777,-0.00844892393798,0.00297470367514,0.00747326901183,4.08223928005e-05,0.0,0.0,0.0,0.0,0.0,0.0,4.08223928005e-05,0.0,0.0,0.0,0.0,0.0,0.0,4.08223928005e-05,0.0,0.0,0.0,0.0,0.0,0.0,4.08223928005e-06,0.0,0.0,0.0,0.0,0.0,0.0,4.08223928005e-06,0.0,0.0,0.0,0.0,0.0,0.0,4.08223928005e-06
1662436537111452579,30,1662436537111452579,icp_odom,base_link,0.00119362899568,-0.000837958767079,-0.000274145160802,-0.000431703804735,-0.000174408101023,0.000140083970578,0.999999881795,8.13140253283e-05,0.0,0.0,0.0,0.0,0.0,0.0,8.13140253283e-05,0.0,0.0,0.0,0.0,0.0,0.0,8.13140253283e-05,0.0,0.0,0.0,0.0,0.0,0.0,8.13140253283e-06,0.0,0.0,0.0,0.0,0.0,0.0,8.13140253283e-06,0.0,0.0,0.0,0.0,0.0,0.0,8.13140253283e-06,0.0104567380622,-0.00856499560177,0.0182895269245,-0.00592761533335,0.00144795537926,-0.00252540875226,4.06570126642e-05,0.0,0.0,0.0,0.0,0.0,0.0,4.06570126642e-05,0.0,0.0,0.0,0.0,0.0,0.0,4.06570126642e-05,0.0,0.0,0.0,0.0,0.0,0.0,4.06570126642e-06,0.0,0.0,0.0,0.0,0.0,0.0,4.06570126642e-06,0.0,0.0,0.0,0.0,0.0,0.0,4.06570126642e-06
1662436537204211235,31,1662436537204211235,icp_odom,base_link,0.00161271123216,-0.000722085649613,0.0021640448831,0.000119938531173,0.000316349899943,-8.67071712227e-05,0.99999993901,7.07833188816e-05,0.0,0.0,0.0,0.0,0.0,0.0,7.07833188816e-05,0.0,0.0,0.0,0.0,0.0,0.0,7.07833188816e-05,0.0,0.0,0.0,0.0,0.0,0.0,7.07833188816e-06,0.0,0.0,0.0,0.0,0.0,0.0,7.07833188816e-06,0.0,0.0,0.0,0.0,0.0,0.0,7.07833188816e-06,0.00452750083059,0.00122522749007,0.0262847989798,0.0118923764676,0.0105845341459,-0.00488158781081,3.53916594408e-05,0.0,0.0,0.0,0.0,0.0,0.0,3.53916594408e-05,0.0,0.0,0.0,0.0,0.0,0.0,3.53916594408e-05,0.0,0.0,0.0,0.0,0.0,0.0,3.53916594408e-06,0.0,0.0,0.0,0.0,0.0,0.0,3.53916594408e-06,0.0,0.0,0.0,0.0,0.0,0.0,3.53916594408e-06
1662436537312494278,32,1662436537312494278,icp_odom,base_link,0.0013682639692,0.000173657084815,0.00465850811452,0.000159844463266,0.000562769689724,-4.2848339982e-05,0.999999827952,6.58241282625e-05,0.0,0.0,0.0,0.0,0.0,0.0,6.58241282625e-05,0.0,0.0,0.0,0.0,0.0,0.0,6.58241282625e-05,0.0,0.0,0.0,0.0,0.0,0.0,6.58241282625e-06,0.0,0.0,0.0,0.0,0.0,0.0,6.58241282625e-06,0.0,0.0,0.0,0.0,0.0,0.0,6.58241282625e-06,-0.00227349367924,0.00827736780047,0.0230330936611,0.000736615387723,0.00455152848735,0.000809946388472,3.29120641312e-05,0.0,0.0,0.0,0.0,0.0,0.0,3.29120641312e-05,0.0,0.0,0.0,0.0,0.0,0.0,3.29120641312e-05,0.0,0.0,0.0,0.0,0.0,0.0,3.29120641312e-06,0.0,0.0,0.0,0.0,0.0,0.0,3.29120641312e-06,0.0,0.0,0.0,0.0,0.0,0.0,3.29120641312e-06
1662436537404764175,33,1662436537404764175,icp_odom,base_link,0.000379989505745,-0.000274764111964,0.00162035506219,-0.000746538404637,0.000495223759481,7.9979118883e-05,0.999999595519,7.55925948685e-05,0.0,0.0,0.0,0.0,0.0,0.0,7.55925948685e-05,0.0,0.0,0.0,0.0,0.0,0.0,7.55925948685e-05,0.0,0.0,0.0,0.0,0.0,0.0,7.55925948685e-06,0.0,0.0,0.0,0.0,0.0,0.0,7.55925948685e-06,0.0,0.0,0.0,0.0,0.0,0.0,7.55925948685e-06,-0.0106732090935,-0.00487133068964,-0.032937284559,-0.0196479484439,-0.00146210531238,0.00265285535716,3.77962974343e-05,0.0,0.0,0.0,0.0,0.0,0.0,3.77962974343e-05,0.0,0.0,0.0,0.0,0.0,0.0,3.77962974343e-05,0.0,0.0,0.0,0.0,0.0,0.0,3.77962974343e-06,0.0,0.0,0.0,0.0,0.0,0.0,3.77962974343e-06,0.0,0.0,0.0,0.0,0.0,0.0,3.77962974343e-06
1662436537496986628,34,1662436537496986628,icp_odom,base_link,0.000488340156153,-0.00264790747315,0.00222175335512,-0.000702649760333,0.000477440240411,0.000308076075555,0.999999591712,8.39224209386e-05,0.0,0.0,0.0,0.0,0.0,0.0,8.39224209386e-05,0.0,0.0,0.0,0.0,0.0,0.0,8.39224209386e-05,0.0,0.0,0.0,0.0,0.0,0.0,8.39224209386e-06,0.0,0.0,0.0,0.0,0.0,0.0,8.39224209386e-06,0.0,0.0,0.0,0.0,0.0,0.0,8.39224209386e-06,0.00116432609502,-0.0257427114993,0.00648390082642,0.000949230219703,-0.000389651599107,0.00494683161378,4.19612104693e-05,0.0,0.0,0.0,0.0,0.0,0.0,4.19612104693e-05,0.0,0.0,0.0,0.0,0.0,0.0,4.19612104693e-05,0.0,0.0,0.0,0.0,0.0,0.0,4.19612104693e-06,0.0,0.0,0.0,0.0,0.0,0.0,4.19612104693e-06,0.0,0.0,0.0,0.0,0.0,0.0,4.19612104693e-06
1662436537589289665,35,1662436537589289665,icp_odom,base_link,0.00342606892809,0.000550067983568,0.000420895172283,-0.000265995730532,0.000301754562046,-0.000105207372109,0.999999913561,7.52202968427e-05,0.0,0.0,0.0,0.0,0.0,0.0,7.52202968427e-05,0.0,0.0,0.0,0.0,0.0,0.0,7.52202968427e-05,0.0,0.0,0.0,0.0,0.0,0.0,7.52202968427e-06,0.0,0.0,0.0,0.0,0.0,0.0,7.52202968427e-06,0.0,0.0,0.0,0.0,0.0,0.0,7.52202968427e-06,0.031866941601,0.0346542187035,-0.0194311756641,0.00946598872542,-0.00379942869768,-0.00895474292338,3.76101484214e-05,0.0,0.0,0.0,0.0,0.0,0.0,3.76101484214e-05,0.0,0.0,0.0,0.0,0.0,0.0,3.76101484214e-05,0.0,0.0,0.0,0.0,0.0,0.0,3.76101484214e-06,0.0,0.0,0.0,0.0,0.0,0.0,3.76101484214e-06,0.0,0.0,0.0,0.0,0.0,0.0,3.76101484214e-06
1662436537697654486,36,1662436537697654486,icp_odom,base_link,0.00224247155711,0.00445352587849,0.000874413759448,-0.000271402617942,0.000245748374599,-0.00028377797536,0.999999892709,6.61695063952e-05,0.0,0.0,0.0,0.0,0.0,0.0,6.61695063952e-05,0.0,0.0,0.0,0.0,0.0,0.0,6.61695063952e-05,0.0,0.0,0.0,0.0,0.0,0.0,6.61695063952e-06,0.0,0.0,0.0,0.0,0.0,0.0,6.61695063952e-06,0.0,0.0,0.0,0.0,0.0,0.0,6.61695063952e-06,-0.0109324464574,0.0360169261694,0.00419767620042,-9.85031292657e-05,-0.00103281089105,-0.00329602882266,3.30847531976e-05,0.0,0.0,0.0,0.0,0.0,0.0,3.30847531976e-05,0.0,0.0,0.0,0.0,0.0,0.0,3.30847531976e-05,0.0,0.0,0.0,0.0,0.0,0.0,3.30847531976e-06,0.0,0.0,0.0,0.0,0.0,0.0,3.30847531976e-06,0.0,0.0,0.0,0.0,0.0,0.0,3.30847531976e-06
1662436537792568684,37,1662436537792568684,icp_odom,base_link,0.00129628472496,0.000984185608104,-0.00134170579258,0.000296033631916,-0.000148941983176,-0.000288291633796,0.999999903534,7.37344441371e-05,0.0,0.0,0.0,0.0,0.0,0.0,7.37344441371e-05,0.0,0.0,0.0,0.0,0.0,0.0,7.37344441371e-05,0.0,0.0,0.0,0.0,0.0,0.0,7.37344441371e-06,0.0,0.0,0.0,0.0,0.0,0.0,7.37344441371e-06,0.0,0.0,0.0,0.0,0.0,0.0,7.37344441371e-06,-0.00993664003909,-0.0365453511477,-0.0233733914793,0.0119592472911,-0.00831330753863,-9.91463748505e-05,3.68672220685e-05,0.0,0.0,0.0,0.0,0.0,0.0,3.68672220685e-05,0.0,0.0,0.0,0.0,0.0,0.0,3.68672220685e-05,0.0,0.0,0.0,0.0,0.0,0.0,3.68672220685e-06,0.0,0.0,0.0,0.0,0.0,0.0,3.68672220685e-06,0.0,0.0,0.0,0.0,0.0,0.0,3.68672220685e-06
1662436537884984255,38,1662436537884984255,icp_odom,base_link,0.00151594995987,0.00209144130349,0.00391191150993,-7.20071858285e-05,0.000876643637243,-0.000527950109869,0.99999947379,7.62718487653e-05,0.0,0.0,0.0,0.0,0.0,0.0,7.62718487653e-05,0.0,0.0,0.0,0.0,0.0,0.0,7.62718487653e-05,0.0,0.0,0.0,0.0,0.0,0.0,7.62718487653e-06,0.0,0.0,0.0,0.0,0.0,0.0,7.62718487653e-06,0.0,0.0,0.0,0.0,0.0,0.0,7.62718487653e-06,0.00238694343716,0.012016297318,0.0568399392068,-0.00797741208225,0.0221893340349,-0.00520010804757,3.81359243827e-05,0.0,0.0,0.0,0.0,0.0,0.0,3.81359243827e-05,0.0,0.0,0.0,0.0,0.0,0.0,3.81359243827e-05,0.0,0.0,0.0,0.0,0.0,0.0,3.81359243827e-06,0.0,0.0,0.0,0.0,0.0,0.0,3.81359243827e-06,0.0,0.0,0.0,0.0,0.0,0.0,3.81359243827e-06
1662436537977081537,39,1662436537977081537,icp_odom,base_link,0.000827174284495,0.00104868866038,0.00345813389868,0.000246415928637,0.000874794950476,-0.000235859877234,0.999999559191,7.62408026055e-05,0.0,0.0,0.0,0.0,0.0,0.0,7.62408026055e-05,0.0,0.0,0.0,0.0,0.0,0.0,7.62408026055e-05,0.0,0.0,0.0,0.0,0.0,0.0,7.62408026055e-06,0.0,0.0,0.0,0.0,0.0,0.0,7.62408026055e-06,0.0,0.0,0.0,0.0,0.0,0.0,7.62408026055e-06,-0.00745817366987,-0.0113294711336,-0.00494188163429,0.00690937554464,-3.89764136344e-05,0.00634912587702,3.81204013027e-05,0.0,0.0,0.0,0.0,0.0,0.0,3.81204013027e-05,0.0,0.0,0.0,0.0,0.0,0.0,3.81204013027e-05,0.0,0.0,0.0,0.0,0.0,0.0,3.81204013027e-06,0.0,0.0,0.0,0.0,0.0,0.0,3.81204013027e-06,0.0,0.0,0.0,0.0,0.0,0.0,3.81204013027e-06
1662436538085818529,40,1662436538085818529,icp_odom,base_link,0.00225545139983,-0.00115793047007,0.00304756918922,-0.000610212725016,0.000573075234397,-8.15470415698e-05,0.999999646288,6.95389135621e-05,0.0,0.0,0.0,0.0,0.0,0.0,6.95389135621e-05,0.0,0.0,0.0,0.0,0.0,0.0,6.95389135621e-05,0.0,0.0,0.0,0.0,0.0,0.0,6.95389135621e-06,0.0,0.0,0.0,0.0,0.0,0.0,6.95389135621e-06,0.0,0.0,0.0,0.0,0.0,0.0,6.95389135621e-06,0.013151303865,-0.0202888287604,-0.00374276516959,-0.0157580040395,-0.00555012561381,0.00283061689697,3.47694567811e-05,0.0,0.0,0.0,0.0,0.0,0.0,3.47694567811e-05,0.0,0.0,0.0,0.0,0.0,0.0,3.47694567811e-05,0.0,0.0,0.0,0.0,0.0,0.0,3.47694567811e-06,0.0,0.0,0.0,0.0,0.0,0.0,3.47694567811e-06,0.0,0.0,0.0,0.0,0.0,0.0,3.47694567811e-06
1662436538178426027,41,1662436538178426027,icp_odom,base_link,0.000944271683693,0.000286791007966,0.0012996684527,-0.000163099736012,0.000197716095481,-0.000145980745736,0.999999956498,6.38873673492e-05,0.0,0.0,0.0,0.0,0.0,0.0,6.38873673492e-05,0.0,0.0,0.0,0.0,0.0,0.0,6.38873673492e-05,0.0,0.0,0.0,0.0,0.0,0.0,6.38873673492e-06,0.0,0.0,0.0,0.0,0.0,0.0,6.38873673492e-06,0.0,0.0,0.0,0.0,0.0,0.0,6.38873673492e-06,-0.0141393756494,0.0156212076545,-0.018871454522,0.00965806934983,-0.00810419395566,-0.00139458070043,3.19436836746e-05,0.0,0.0,0.0,0.0,0.0,0.0,3.19436836746e-05,0.0,0.0,0.0,0.0,0.0,0.0,3.19436836746e-05,0.0,0.0,0.0,0.0,0.0,0.0,3.19436836746e-06,0.0,0.0,0.0,0.0,0.0,0.0,3.19436836746e-06,0.0,0.0,0.0,0.0,0.0,0.0,3.19436836746e-06
1662436538273266077,42,1662436538273266077,icp_odom,base_link,0.000247905729339,0.00184245605487,0.00270922249183,0.000448131448078,0.000300620902269,-6.89142065036e-05,0.999999852028,8.1983587296e-05,0.0,0.0,0.0,0.0,0.0,0.0,8.1983587296e-05,0.0,0.0,0.0,0.0,0.0,0.0,8.1983587296e-05,0.0,0.0,0.0,0.0,0.0,0.0,8.1983587296e-06,0.0,0.0,0.0,0.0,0.0,0.0,8.1983587296e-06,0.0,0.0,0.0,0.0,0.0,0.0,8.1983587296e-06,-0.00735319545493,0.0163960456848,0.0148648777977,0.0128892557696,0.00217069103383,0.00162941927556,4.0991793648e-05,0.0,0.0,0.0,0.0,0.0,0.0,4.0991793648e-05,0.0,0.0,0.0,0.0,0.0,0.0,4.0991793648e-05,0.0,0.0,0.0,0.0,0.0,0.0,4.0991793648e-06,0.0,0.0,0.0,0.0,0.0,0.0,4.0991793648e-06,0.0,0.0,0.0,0.0,0.0,0.0,4.0991793648e-06
1662436538365205526,43,1662436538365205526,icp_odom,base_link,0.00141709763557,-0.00260786246508,0.00983099639416,-0.000700099794303,0.00116609093911,0.000371533842149,0.999999006027,9.75769736938e-05,0.0,0.0,0.0,0.0,0.0,0.0,9.75769736938e-05,0.0,0.0,0.0,0.0,0.0,0.0,9.75769736938e-05,0.0,0.0,0.0,0.0,0.0,0.0,9.75769736938e-06,0.0,0.0,0.0,0.0,0.0,0.0,9.75769736938e-06,0.0,0.0,0.0,0.0,0.0,0.0,9.75769736938e-06,0.0126770548522,-0.0483336858451,0.0775125622749,-0.0249739084393,0.0188405010849,0.00954369548708,4.87884868469e-05,0.0,0.0,0.0,0.0,0.0,0.0,4.87884868469e-05,0.0,0.0,0.0,0.0,0.0,0.0,4.87884868469e-05,0.0,0.0,0.0,0.0,0.0,0.0,4.87884868469e-06,0.0,0.0,0.0,0.0,0.0,0.0,4.87884868469e-06,0.0,0.0,0.0,0.0,0.0,0.0,4.87884868469e-06
1662436538474209309,44,1662436538474209309,icp_odom,base_link,0.00186670676339,0.00150583684444,5.31487166882e-05,-0.000640352040554,-8.43378104851e-05,-3.55980920557e-05,0.999999790785,6.84394649573e-05,0.0,0.0,0.0,0.0,0.0,0.0,6.84394649573e-05,0.0,0.0,0.0,0.0,0.0,0.0,6.84394649573e-05,0.0,0.0,0.0,0.0,0.0,0.0,6.84394649573e-06,0.0,0.0,0.0,0.0,0.0,0.0,6.84394649573e-06,0.0,0.0,0.0,0.0,0.0,0.0,6.84394649573e-06,0.00436192750931,0.0378614552319,-0.0896390900016,0.00110580888577,-0.0229375790805,-0.00748622138053,3.42197324787e-05,0.0,0.0,0.0,0.0,0.0,0.0,3.42197324787e-05,0.0,0.0,0.0,0.0,0.0,0.0,3.42197324787e-05,0.0,0.0,0.0,0.0,0.0,0.0,3.42197324787e-06,0.0,0.0,0.0,0.0,0.0,0.0,3.42197324787e-06,0.0,0.0,0.0,0.0,0.0,0.0,3.42197324787e-06
1662436538569033146,45,1662436538569033146,icp_odom,base_link,-0.000305835274048,0.00140054710209,0.00441574864089,-0.000443927448975,0.000763383586881,0.000113265371508,0.999999603672,8.06970940545e-05,0.0,0.0,0.0,0.0,0.0,0.0,8.06970940545e-05,0.0,0.0,0.0,0.0,0.0,0.0,8.06970940545e-05,0.0,0.0,0.0,0.0,0.0,0.0,8.06970940545e-06,0.0,0.0,0.0,0.0,0.0,0.0,8.06970940545e-06,0.0,0.0,0.0,0.0,0.0,0.0,8.06970940545e-06,-0.0229035057127,-0.00117092602886,0.0460098236799,0.00414523901418,0.0178774353117,0.00315440376289,4.03485470272e-05,0.0,0.0,0.0,0.0,0.0,0.0,4.03485470272e-05,0.0,0.0,0.0,0.0,0.0,0.0,4.03485470272e-05,0.0,0.0,0.0,0.0,0.0,0.0,4.03485470272e-06,0.0,0.0,0.0,0.0,0.0,0.0,4.03485470272e-06,0.0,0.0,0.0,0.0,0.0,0.0,4.03485470272e-06
1662436538661177874,46,1662436538661177874,icp_odom,base_link,0.000709834392183,-0.0017502089031,-0.00146526796743,-0.0013665036965,-9.62283579695e-05,0.000244937084903,0.999999031706,0.000103551756939,0.0,0.0,0.0,0.0,0.0,0.0,0.000103551756939,0.0,0.0,0.0,0.0,0.0,0.0,0.000103551756939,0.0,0.0,0.0,0.0,0.0,0.0,1.03551756939e-05,0.0,0.0,0.0,0.0,0.0,0.0,1.03551756939e-05,0.0,0.0,0.0,0.0,0.0,0.0,1.03551756939e-05,0.0111122615635,-0.0341393910348,-0.0638371258974,-0.0200312566012,-0.0186542272568,0.00285158143379,5.17758784696e-05,0.0,0.0,0.0,0.0,0.0,0.0,5.17758784696e-05,0.0,0.0,0.0,0.0,0.0,0.0,5.17758784696e-05,0.0,0.0,0.0,0.0,0.0,0.0,5.17758784696e-06,0.0,0.0,0.0,0.0,0.0,0.0,5.17758784696e-06,0.0,0.0,0.0,0.0,0.0,0.0,5.17758784696e-06
1662436538755717516,47,1662436538755717516,icp_odom,base_link,0.000876505800989,0.00208926480263,0.00268742116168,-0.0011201277522,0.000668734236548,-8.05448096732e-05,0.99999914581,0.0001021502656,0.0,0.0,0.0,0.0,0.0,0.0,0.0001021502656,0.0,0.0,0.0,0.0,0.0,0.0,0.0001021502656,0.0,0.0,0.0,0.0,0.0,0.0,1.021502656e-05,0.0,0.0,0.0,0.0,0.0,0.0,1.021502656e-05,0.0,0.0,0.0,0.0,0.0,0.0,1.021502656e-05,0.00179130840115,0.040491245687,0.0440358631313,0.00521017285064,0.0161927025765,-0.00686001172289,5.10751327999e-05,0.0,0.0,0.0,0.0,0.0,0.0,5.10751327999e-05,0.0,0.0,0.0,0.0,0.0,0.0,5.10751327999e-05,0.0,0.0,0.0,0.0,0.0,0.0,5.10751327999e-06,0.0,0.0,0.0,0.0,0.0,0.0,5.10751327999e-06,0.0,0.0,0.0,0.0,0.0,0.0,5.10751327999e-06
1662436538864470959,48,1662436538864470959,icp_odom,base_link,0.000926320557483,0.00848358869553,0.004713463597,0.00128992016312,0.000817218713474,-0.000941931214179,0.999998390511,0.000114694954925,0.0,0.0,0.0,0.0,0.0,0.0,0.000114694954925,0.0,0.0,0.0,0.0,0.0,0.0,0.000114694954925,0.0,0.0,0.0,0.0,0.0,0.0,1.14694954925e-05,0.0,0.0,0.0,0.0,0.0,0.0,1.14694954925e-05,0.0,0.0,0.0,0.0,0.0,0.0,1.14694954925e-05,0.000423578865593,0.0587547048926,0.0187619496137,0.0443293042481,0.00279008271173,-0.0158016998321,5.73474774623e-05,0.0,0.0,0.0,0.0,0.0,0.0,5.73474774623e-05,0.0,0.0,0.0,0.0,0.0,0.0,5.73474774623e-05,0.0,0.0,0.0,0.0,0.0,0.0,5.73474774623e-06,0.0,0.0,0.0,0.0,0.0,0.0,5.73474774623e-06,0.0,0.0,0.0,0.0,0.0,0.0,5.73474774623e-06
1662436538959465265,49,1662436538959465265,icp_odom,base_link,0.000286878203042,-0.000372021459043,0.00565549312159,-0.000197205172776,0.00100681693849,0.000135595648427,0.999999464522,7.83209720836e-05,0.0,0.0,0.0,0.0,0.0,0.0,7.83209720836e-05,0.0,0.0,0.0,0.0,0.0,0.0,7.83209720836e-05,0.0,0.0,0.0,0.0,0.0,0.0,7.83209720836e-06,0.0,0.0,0.0,0.0,0.0,0.0,7.83209720836e-06,0.0,0.0,0.0,0.0,0.0,0.0,7.83209720836e-06,-0.00657216506079,-0.0932091847062,0.0101463040337,-0.0313277617097,0.00402523670346,0.0226494222879,3.91604860418e-05,0.0,0.0,0.0,0.0,0.0,0.0,3.91604860418e-05,0.0,0.0,0.0,0.0,0.0,0.0,3.91604860418e-05,0.0,0.0,0.0,0.0,0.0,0.0,3.91604860418e-06,0.0,0.0,0.0,0.0,0.0,0.0,3.91604860418e-06,0.0,0.0,0.0,0.0,0.0,0.0,3.91604860418e-06
1662436539051496267,50,1662436539051496267,icp_odom,base_link,0.00256995204836,0.00357189774513,-0.000313423573971,-0.000848973873743,0.000408911955154,-0.000455912193591,0.999999452089,8.44222749877e-05,0.0,0.0,0.0,0.0,0.0,0.0,8.44222749877e-05,0.0,0.0,0.0,0.0,0.0,0.0,8.44222749877e-05,0.0,0.0,0.0,0.0,0.0,0.0,8.44222749877e-06,0.0,0.0,0.0,0.0,0.0,0.0,8.44222749877e-06,0.0,0.0,0.0,0.0,0.0,0.0,8.44222749877e-06,0.0249498151243,0.042873069644,-0.0647906735539,-0.0141452345997,-0.0129974717274,-0.0128628965467,4.22111374939e-05,0.0,0.0,0.0,0.0,0.0,0.0,4.22111374939e-05,0.0,0.0,0.0,0.0,0.0,0.0,4.22111374939e-05,0.0,0.0,0.0,0.0,0.0,0.0,4.22111374939e-06,0.0,0.0,0.0,0.0,0.0,0.0,4.22111374939e-06,0.0,0.0,0.0,0.0,0.0,0.0,4.22111374939e-06
1662436539146426916,51,1662436539146426916,icp_odom,base_link,0.000911848852411,0.00245055370033,0.000432013534009,-4.65221536663e-05,0.000130477974871,-7.08650926562e-05,0.999999987895,0.00010331410316,0.0,0.0,0.0,0.0,0.0,0.0,0.00010331410316,0.0,0.0,0.0,0.0,0.0,0.0,0.00010331410316,0.0,0.0,0.0,0.0,0.0,0.0,1.0331410316e-05,0.0,0.0,0.0,0.0,0.0,0.0,1.0331410316e-05,0.0,0.0,0.0,0.0,0.0,0.0,1.0331410316e-05,-0.0174620933831,-0.0118414731696,0.00781807489693,0.0169031657279,-0.0058717392385,0.0081094019115,5.16570515798e-05,0.0,0.0,0.0,0.0,0.0,0.0,5.16570515798e-05,0.0,0.0,0.0,0.0,0.0,0.0,5.16570515798e-05,0.0,0.0,0.0,0.0,0.0,0.0,5.16570515798e-06,0.0,0.0,0.0,0.0,0.0,0.0,5.16570515798e-06,0.0,0.0,0.0,0.0,0.0,0.0,5.16570515798e-06
1662436539241563320,52,1662436539241563320,icp_odom,base_link,-0.00042835844215,0.00246362155303,0.00477615138516,-0.000120776121619,0.00118155383858,6.06441383191e-05,0.999999292833,8.14873285368e-05,0.0,0.0,0.0,0.0,0.0,0.0,8.14873285368e-05,0.0,0.0,0.0,0.0,0.0,0.0,8.14873285368e-05,0.0,0.0,0.0,0.0,0.0,0.0,8.14873285368e-06,0.0,0.0,0.0,0.0,0.0,0.0,8.14873285368e-06,0.0,0.0,0.0,0.0,0.0,0.0,8.14873285368e-06,-0.0140991527587,0.000131113527459,0.0456585437059,-0.00156002293807,0.022096157074,0.00276383059099,4.07436642684e-05,0.0,0.0,0.0,0.0,0.0,0.0,4.07436642684e-05,0.0,0.0,0.0,0.0,0.0,0.0,4.07436642684e-05,0.0,0.0,0.0,0.0,0.0,0.0,4.07436642684e-06,0.0,0.0,0.0,0.0,0.0,0.0,4.07436642684e-06,0.0,0.0,0.0,0.0,0.0,0.0,4.07436642684e-06
1662436539350017071,53,1662436539350017071,icp_odom,base_link,0.00438732653856,0.00613910425454,-0.00302384607494,0.00048552754352,-0.000425508877774,-0.00109521387347,0.999999191856,0.000104495853196,0.0,0.0,0.0,0.0,0.0,0.0,0.000104495853196,0.0,0.0,0.0,0.0,0.0,0.0,0.000104495853196,0.0,0.0,0.0,0.0,0.0,0.0,1.04495853196e-05,0.0,0.0,0.0,0.0,0.0,0.0,1.04495853196e-05,0.0,0.0,0.0,0.0,0.0,0.0,1.04495853196e-05,0.0445770546794,0.0339018255472,-0.0718067139387,0.0112385237589,-0.0296210292727,-0.0213236603886,5.22479265979e-05,0.0,0.0,0.0,0.0,0.0,0.0,5.22479265979e-05,0.0,0.0,0.0,0.0,0.0,0.0,5.22479265979e-05,0.0,0.0,0.0,0.0,0.0,0.0,5.22479265979e-06,0.0,0.0,0.0,0.0,0.0,0.0,5.22479265979e-06,0.0,0.0,0.0,0.0,0.0,0.0,5.22479265979e-06
1662436539442618847,54,1662436539442618847,icp_odom,base_link,0.00060521857813,0.00155365513638,0.00518272165209,-3.94657119881e-05,0.000902029752793,4.52914302038e-07,0.999999592392,8.08779716815e-05,0.0,0.0,0.0,0.0,0.0,0.0,8.08779716815e-05,0.0,0.0,0.0,0.0,0.0,0.0,8.08779716815e-05,0.0,0.0,0.0,0.0,0.0,0.0,8.08779716815e-06,0.0,0.0,0.0,0.0,0.0,0.0,8.08779716815e-06,0.0,0.0,0.0,0.0,0.0,0.0,8.08779716815e-06,-0.0406587906182,-0.0495211035013,0.088704906404,-0.0113286813721,0.0286834686995,0.0236399304122,4.04389858407e-05,0.0,0.0,0.0,0.0,0.0,0.0,4.04389858407e-05,0.0,0.0,0.0,0.0,0.0,0.0,4.04389858407e-05,0.0,0.0,0.0,0.0,0.0,0.0,4.04389858407e-06,0.0,0.0,0.0,0.0,0.0,0.0,4.04389858407e-06,0.0,0.0,0.0,0.0,0.0,0.0,4.04389858407e-06
1662436539537174225,55,1662436539537174225,icp_odom,base_link,0.000980220502242,0.00235861656256,0.00156561098993,0.000635206146043,0.000241200727584,7.17434614008e-05,0.999999766594,8.50385089545e-05,0.0,0.0,0.0,0.0,0.0,0.0,8.50385089545e-05,0.0,0.0,0.0,0.0,0.0,0.0,8.50385089545e-05,0.0,0.0,0.0,0.0,0.0,0.0,8.50385089545e-06,0.0,0.0,0.0,0.0,0.0,0.0,8.50385089545e-06,0.0,0.0,0.0,0.0,0.0,0.0,8.50385089545e-06,0.00403496297076,0.00851613655686,-0.038245998323,0.0142680415884,-0.0139786945656,0.00151080230717,4.25192544772e-05,0.0,0.0,0.0,0.0,0.0,0.0,4.25192544772e-05,0.0,0.0,0.0,0.0,0.0,0.0,4.25192544772e-05,0.0,0.0,0.0,0.0,0.0,0.0,4.25192544772e-06,0.0,0.0,0.0,0.0,0.0,0.0,4.25192544772e-06,0.0,0.0,0.0,0.0,0.0,0.0,4.25192544772e-06
1662436539630473614,56,1662436539630473614,icp_odom,base_link,0.00667613185942,0.00292490841821,0.000121674616821,0.000652566812319,3.88464916051e-05,-0.000453218696034,0.99999968362,9.5491577611e-05,0.0,0.0,0.0,0.0,0.0,0.0,9.5491577611e-05,0.0,0.0,0.0,0.0,0.0,0.0,9.5491577611e-05,0.0,0.0,0.0,0.0,0.0,0.0,9.5491577611e-06,0.0,0.0,0.0,0.0,0.0,0.0,9.5491577611e-06,0.0,0.0,0.0,0.0,0.0,0.0,9.5491577611e-06,0.0610581487417,0.00604121107608,-0.0154546154663,0.000376833195332,-0.00434471573681,-0.0112505108118,4.77457888055e-05,0.0,0.0,0.0,0.0,0.0,0.0,4.77457888055e-05,0.0,0.0,0.0,0.0,0.0,0.0,4.77457888055e-05,0.0,0.0,0.0,0.0,0.0,0.0,4.77457888055e-06,0.0,0.0,0.0,0.0,0.0,0.0,4.77457888055e-06,0.0,0.0,0.0,0.0,0.0,0.0,4.77457888055e-06
1662436539728325844,57,1662436539728325844,icp_odom,base_link,0.0124919284135,0.00340776378289,-0.00186137191486,-0.000484192647792,0.000452410441051,-0.000358629316312,0.999999716134,0.000130664989521,0.0,0.0,0.0,0.0,0.0,0.0,0.000130664989521,0.0,0.0,0.0,0.0,0.0,0.0,0.000130664989521,0.0,0.0,0.0,0.0,0.0,0.0,1.30664989521e-05,0.0,0.0,0.0,0.0,0.0,0.0,1.30664989521e-05,0.0,0.0,0.0,0.0,0.0,0.0,1.30664989521e-05,0.0594315640628,0.0049619586207,-0.020267566666,-0.0232373178005,0.00844573881477,0.00191729224753,6.53324947605e-05,0.0,0.0,0.0,0.0,0.0,0.0,6.53324947605e-05,0.0,0.0,0.0,0.0,0.0,0.0,6.53324947605e-05,0.0,0.0,0.0,0.0,0.0,0.0,6.53324947605e-06,0.0,0.0,0.0,0.0,0.0,0.0,6.53324947605e-06,0.0,0.0,0.0,0.0,0.0,0.0,6.53324947605e-06
1662436539833085537,58,1662436539833085537,icp_odom,base_link,0.0185566097498,0.00852260738611,0.00583621207625,0.00171224993969,0.000783266044442,-0.000969348379274,0.999997757527,0.000202294321057,0.0,0.0,0.0,0.0,0.0,0.0,0.000202294321057,0.0,0.0,0.0,0.0,0.0,0.0,0.000202294321057,0.0,0.0,0.0,0.0,0.0,0.0,2.02294321057e-05,0.0,0.0,0.0,0.0,0.0,0.0,2.02294321057e-05,0.0,0.0,0.0,0.0,0.0,0.0,2.02294321057e-05,0.0577898211777,0.0487948283553,0.0735780969262,0.0419321171939,0.00636271201074,-0.0116234607995,0.000101147160528,0.0,0.0,0.0,0.0,0.0,0.0,0.000101147160528,0.0,0.0,0.0,0.0,0.0,0.0,0.000101147160528,0.0,0.0,0.0,0.0,0.0,0.0,1.01147160528e-05,0.0,0.0,0.0,0.0,0.0,0.0,1.01147160528e-05,0.0,0.0,0.0,0.0,0.0,0.0,1.01147160528e-05
1662436539925781488,59,1662436539925781488,icp_odom,base_link,0.0317452885211,-0.00500999670476,0.00283912476152,-0.00172677757694,0.00161593403345,0.000511819249475,0.999997072514,0.000316786519544,0.0,0.0,0.0,0.0,0.0,0.0,0.000316786519544,0.0,0.0,0.0,0.0,0.0,0.0,0.000316786519544,0.0,0.0,0.0,0.0,0.0,0.0,3.16786519544e-05,0.0,0.0,0.0,0.0,0.0,0.0,3.16786519544e-05,0.0,0.0,0.0,0.0,0.0,0.0,3.16786519544e-05,0.142611846328,-0.145822495222,-0.0316096507013,-0.0742160603404,0.0180578734726,0.0318066738546,0.000158393259772,0.0,0.0,0.0,0.0,0.0,0.0,0.000158393259772,0.0,0.0,0.0,0.0,0.0,0.0,0.000158393259772,0.0,0.0,0.0,0.0,0.0,0.0,1.58393259772e-05,0.0,0.0,0.0,0.0,0.0,0.0,1.58393259772e-05,0.0,0.0,0.0,0.0,0.0,0.0,1.58393259772e-05
1662436540017940044,60,1662436540017940044,icp_odom,base_link,0.0459452420473,0.00133950263262,0.00141744071152,-0.000550672944523,0.000412307422932,0.00183000999484,0.999998088911,0.000528924718732,0.0,0.0,0.0,0.0,0.0,0.0,0.000528924718732,0.0,0.0,0.0,0.0,0.0,0.0,0.000528924718732,0.0,0.0,0.0,0.0,0.0,0.0,5.28924718732e-05,0.0,0.0,0.0,0.0,0.0,0.0,5.28924718732e-05,0.0,0.0,0.0,0.0,0.0,0.0,5.28924718732e-05,0.154200896621,0.0687917768955,-0.0146905751899,0.0254294034094,-0.0262167248875,0.028572389856,0.000264462359366,0.0,0.0,0.0,0.0,0.0,0.0,0.000264462359366,0.0,0.0,0.0,0.0,0.0,0.0,0.000264462359366,0.0,0.0,0.0,0.0,0.0,0.0,2.64462359366e-05,0.0,0.0,0.0,0.0,0.0,0.0,2.64462359366e-05,0.0,0.0,0.0,0.0,0.0,0.0,2.64462359366e-05
1662436540126356125,61,1662436540126356125,icp_odom,base_link,0.0644503980875,-0.00511013669893,-0.000235360697843,0.000661006603943,0.000102631824348,0.0039029054701,0.999992159902,0.00070739060991,0.0,0.0,0.0,0.0,0.0,0.0,0.00070739060991,0.0,0.0,0.0,0.0,0.0,0.0,0.00070739060991,0.0,0.0,0.0,0.0,0.0,0.0,7.0739060991e-05,0.0,0.0,0.0,0.0,0.0,0.0,7.0739060991e-05,0.0,0.0,0.0,0.0,0.0,0.0,7.0739060991e-05,0.170480176806,-0.060097284615,-0.0151701709256,0.0223140586168,-0.00582090206444,0.0382388457656,0.000353695304955,0.0,0.0,0.0,0.0,0.0,0.0,0.000353695304955,0.0,0.0,0.0,0.0,0.0,0.0,0.000353695304955,0.0,0.0,0.0,0.0,0.0,0.0,3.53695304955e-05,0.0,0.0,0.0,0.0,0.0,0.0,3.53695304955e-05,0.0,0.0,0.0,0.0,0.0,0.0,3.53695304955e-05
1662436540218841791,62,1662436540218841791,icp_odom,base_link,0.0752191320062,-0.000314788892865,-0.00678476132452,-0.000318929720159,6.82969195636e-05,0.00429285997159,0.999990732443,0.000977274922323,0.0,0.0,0.0,0.0,0.0,0.0,0.000977274922323,0.0,0.0,0.0,0.0,0.0,0.0,0.000977274922323,0.0,0.0,0.0,0.0,0.0,0.0,9.77274922323e-05,0.0,0.0,0.0,0.0,0.0,0.0,9.77274922323e-05,0.0,0.0,0.0,0.0,0.0,0.0,9.77274922323e-05,0.116852149367,0.05084547773,-0.0708592459559,-0.0211949273944,-0.000645937747322,0.00843175686896,0.000488637461162,0.0,0.0,0.0,0.0,0.0,0.0,0.000488637461162,0.0,0.0,0.0,0.0,0.0,0.0,0.000488637461162,0.0,0.0,0.0,0.0,0.0,0.0,4.88637461162e-05,0.0,0.0,0.0,0.0,0.0,0.0,4.88637461162e-05,0.0,0.0,0.0,0.0,0.0,0.0,4.88637461162e-05
1662436540311506748,63,1662436540311506748,icp_odom,base_link,0.090810649097,-0.000867746362928,0.00291446782649,-4.65712612361e-05,0.00163721324099,0.00359119713799,0.999992210303,0.000893144012955,0.0,0.0,0.0,0.0,0.0,0.0,0.000893144012955,0.0,0.0,0.0,0.0,0.0,0.0,0.000893144012955,0.0,0.0,0.0,0.0,0.0,0.0,8.93144012955e-05,0.0,0.0,0.0,0.0,0.0,0.0,8.93144012955e-05,0.0,0.0,0.0,0.0,0.0,0.0,8.93144012955e-05,0.16818484664,-0.00747835822403,0.104688555002,0.00600099703297,0.0338456295431,-0.0151234986261,0.000446572006478,0.0,0.0,0.0,0.0,0.0,0.0,0.000446572006478,0.0,0.0,0.0,0.0,0.0,0.0,0.000446572006478,0.0,0.0,0.0,0.0,0.0,0.0,4.46572006478e-05,0.0,0.0,0.0,0.0,0.0,0.0,4.46572006478e-05,0.0,0.0,0.0,0.0,0.0,0.0,4.46572006478e-05
1662436540403841019,64,1662436540403841019,icp_odom,base_link,0.112295553088,0.00569232227281,-0.0202235653996,9.50572568279e-05,-0.00155028769071,0.00228854747057,0.999996175054,0.000967973433975,0.0,0.0,0.0,0.0,0.0,0.0,0.000967973433975,0.0,0.0,0.0,0.0,0.0,0.0,0.000967973433975,0.0,0.0,0.0,0.0,0.0,0.0,9.67973433975e-05,0.0,0.0,0.0,0.0,0.0,0.0,9.67973433975e-05,0.0,0.0,0.0,0.0,0.0,0.0,9.67973433975e-05,0.23400978744,0.0693942457438,-0.249819234014,0.00295595242642,-0.0690482705832,-0.028223818168,0.000483986716988,0.0,0.0,0.0,0.0,0.0,0.0,0.000483986716988,0.0,0.0,0.0,0.0,0.0,0.0,0.000483986716988,0.0,0.0,0.0,0.0,0.0,0.0,4.83986716988e-05,0.0,0.0,0.0,0.0,0.0,0.0,4.83986716988e-05,0.0,0.0,0.0,0.0,0.0,0.0,4.83986716988e-05
1662436540514405966,65,1662436540514405966,icp_odom,base_link,0.131039574742,0.0106448400766,-0.00993233453482,0.000294468096453,0.000550637618659,0.00319906510277,0.999994688021,0.00114074326004,0.0,0.0,0.0,0.0,0.0,0.0,0.00114074326004,0.0,0.0,0.0,0.0,0.0,0.0,0.00114074326004,0.0,0.0,0.0,0.0,0.0,0.0,0.000114074326004,0.0,0.0,0.0,0.0,0.0,0.0,0.000114074326004,0.0,0.0,0.0,0.0,0.0,0.0,0.000114074326004,0.170020565391,0.0440334044397,0.0925437584519,0.00375422113575,0.0379932112992,0.0164689905941,0.00057037163002,0.0,0.0,0.0,0.0,0.0,0.0,0.00057037163002,0.0,0.0,0.0,0.0,0.0,0.0,0.00057037163002,0.0,0.0,0.0,0.0,0.0,0.0,5.7037163002e-05,0.0,0.0,0.0,0.0,0.0,0.0,5.7037163002e-05,0.0,0.0,0.0,0.0,0.0,0.0,5.7037163002e-05
1662436540607243299,66,1662436540607243299,icp_odom,base_link,0.148456841707,0.0125829018652,-0.0105041600764,-0.00120820088308,0.000567063662229,0.00450657672554,0.999988954667,0.00120606443156,0.0,0.0,0.0,0.0,0.0,0.0,0.00120606443156,0.0,0.0,0.0,0.0,0.0,0.0,0.00120606443156,0.0,0.0,0.0,0.0,0.0,0.0,0.000120606443156,0.0,0.0,0.0,0.0,0.0,0.0,0.000120606443156,0.0,0.0,0.0,0.0,0.0,0.0,0.000120606443156,0.187747016549,0.0196715146303,-0.00596468849108,-0.0323856212199,0.000508104509208,0.0281493794173,0.000603032215778,0.0,0.0,0.0,0.0,0.0,0.0,0.000603032215778,0.0,0.0,0.0,0.0,0.0,0.0,0.000603032215778,0.0,0.0,0.0,0.0,0.0,0.0,6.03032215778e-05,0.0,0.0,0.0,0.0,0.0,0.0,6.03032215778e-05,0.0,0.0,0.0,0.0,0.0,0.0,6.03032215778e-05
1662436540699829102,67,1662436540699829102,icp_odom,base_link,0.162460803986,0.0200832895935,-0.0141926398501,0.000470962367496,-4.00637935914e-05,0.00724030614668,0.999973676932,0.00196856804626,0.0,0.0,0.0,0.0,0.0,0.0,0.00196856804626,0.0,0.0,0.0,0.0,0.0,0.0,0.00196856804626,0.0,0.0,0.0,0.0,0.0,0.0,0.000196856804626,0.0,0.0,0.0,0.0,0.0,0.0,0.000196856804626,0.0,0.0,0.0,0.0,0.0,0.0,0.000196856804626,0.152023360133,0.0797391906381,-0.0394723042846,0.0361426025629,-0.0134482402354,0.0590360946953,0.00098428402313,0.0,0.0,0.0,0.0,0.0,0.0,0.00098428402313,0.0,0.0,0.0,0.0,0.0,0.0,0.00098428402313,0.0,0.0,0.0,0.0,0.0,0.0,9.8428402313e-05,0.0,0.0,0.0,0.0,0.0,0.0,9.8428402313e-05,0.0,0.0,0.0,0.0,0.0,0.0,9.8428402313e-05
1662436540792075872,68,1662436540792075872,icp_odom,base_link,0.182853192091,0.00740904919803,-0.0149582661688,0.00074499112744,-0.000674694432747,0.00807763860111,0.999966870216,0.00163626233635,0.0,0.0,0.0,0.0,0.0,0.0,0.00163626233635,0.0,0.0,0.0,0.0,0.0,0.0,0.00163626233635,0.0,0.0,0.0,0.0,0.0,0.0,0.000163626233635,0.0,0.0,0.0,0.0,0.0,0.0,0.000163626233635,0.0,0.0,0.0,0.0,0.0,0.0,0.000163626233635,0.219050049782,-0.140589356422,-0.0081864753738,0.00583067536354,-0.0137984119356,0.0181573033333,0.000818131168177,0.0,0.0,0.0,0.0,0.0,0.0,0.000818131168177,0.0,0.0,0.0,0.0,0.0,0.0,0.000818131168177,0.0,0.0,0.0,0.0,0.0,0.0,8.18131168177e-05,0.0,0.0,0.0,0.0,0.0,0.0,8.18131168177e-05,0.0,0.0,0.0,0.0,0.0,0.0,8.18131168177e-05
1662436540903059244,69,1662436540903059244,icp_odom,base_link,0.198504179716,0.00233255233616,-0.0232282020152,0.00123772085441,-0.000520164914776,0.0106120824919,0.999942788954,0.00201222597127,0.0,0.0,0.0,0.0,0.0,0.0,0.00201222597127,0.0,0.0,0.0,0.0,0.0,0.0,0.00201222597127,0.0,0.0,0.0,0.0,0.0,0.0,0.000201222597127,0.0,0.0,0.0,0.0,0.0,0.0,0.000201222597127,0.0,0.0,0.0,0.0,0.0,0.0,0.000201222597127,0.14016212523,-0.0481235459447,-0.0746348798275,0.0089396154508,0.00272400351241,0.0456678308547,0.00100611298563,0.0,0.0,0.0,0.0,0.0,0.0,0.00100611298563,0.0,0.0,0.0,0.0,0.0,0.0,0.00100611298563,0.0,0.0,0.0,0.0,0.0,0.0,0.000100611298563,0.0,0.0,0.0,0.0,0.0,0.0,0.000100611298563,0.0,0.0,0.0,0.0,0.0,0.0,0.000100611298563
1662436540995206833,70,1662436540995206833,icp_odom,base_link,0.218456417322,-0.00115471659228,-0.0207523368299,-0.00272982682123,0.000245995566336,0.0139861567027,0.999898432318,0.00248737579837,0.0,0.0,0.0,0.0,0.0,0.0,0.00248737579837,0.0,0.0,0.0,0.0,0.0,0.0,0.00248737579837,0.0,0.0,0.0,0.0,0.0,0.0,0.000248737579837,0.0,0.0,0.0,0.0,0.0,0.0,0.000248737579837,0.0,0.0,0.0,0.0,0.0,0.0,0.000248737579837,0.215701371431,-0.0423651076853,0.026742907241,-0.0858325064182,0.0179217010736,0.0731920599937,0.00124368789918,0.0,0.0,0.0,0.0,0.0,0.0,0.00124368789918,0.0,0.0,0.0,0.0,0.0,0.0,0.00124368789918,0.0,0.0,0.0,0.0,0.0,0.0,0.000124368789918,0.0,0.0,0.0,0.0,0.0,0.0,0.000124368789918,0.0,0.0,0.0,0.0,0.0,0.0,0.000124368789918
1662436541087677240,71,1662436541087677240,icp_odom,base_link,0.242492735386,0.0175052285194,-0.0176864024252,-0.000678068427097,0.000244599178133,0.0139406623974,0.999902564416,0.00237659480908,0.0,0.0,0.0,0.0,0.0,0.0,0.00237659480908,0.0,0.0,0.0,0.0,0.0,0.0,0.00237659480908,0.0,0.0,0.0,0.0,0.0,0.0,0.000237659480908,0.0,0.0,0.0,0.0,0.0,0.0,0.000237659480908,0.0,0.0,0.0,0.0,0.0,0.0,0.000237659480908,0.265458494425,0.19426035881,0.0343663655221,0.0443721674383,-0.000646191590931,-0.000975679024123,0.00118829740454,0.0,0.0,0.0,0.0,0.0,0.0,0.00118829740454,0.0,0.0,0.0,0.0,0.0,0.0,0.00118829740454,0.0,0.0,0.0,0.0,0.0,0.0,0.000118829740454,0.0,0.0,0.0,0.0,0.0,0.0,0.000118829740454,0.0,0.0,0.0,0.0,0.0,0.0,0.000118829740454
1662436541179664850,72,1662436541179664850,icp_odom,base_link,0.258706867695,0.00825283396989,-0.0228734873235,-0.000622244830301,8.38661942179e-05,0.0163652010331,0.999865883993,0.00251013242243,0.0,0.0,0.0,0.0,0.0,0.0,0.00251013242243,0.0,0.0,0.0,0.0,0.0,0.0,0.00251013242243,0.0,0.0,0.0,0.0,0.0,0.0,0.000251013242243,0.0,0.0,0.0,0.0,0.0,0.0,0.000251013242243,0.0,0.0,0.0,0.0,0.0,0.0,0.000251013242243,0.173420235515,-0.105381838977,-0.0564430765808,0.00114284397569,-0.00354957603849,0.0527182631195,0.00125506621121,0.0,0.0,0.0,0.0,0.0,0.0,0.00125506621121,0.0,0.0,0.0,0.0,0.0,0.0,0.00125506621121,0.0,0.0,0.0,0.0,0.0,0.0,0.000125506621121,0.0,0.0,0.0,0.0,0.0,0.0,0.000125506621121,0.0,0.0,0.0,0.0,0.0,0.0,0.000125506621121
1662436541288183689,73,1662436541288183689,icp_odom,base_link,0.288226187229,0.0207674521953,-0.0393492430449,-0.00174123066062,-0.00319732076053,0.0127318517251,0.99991231876,0.00299348104583,0.0,0.0,0.0,0.0,0.0,0.0,0.00299348104583,0.0,0.0,0.0,0.0,0.0,0.0,0.00299348104583,0.0,0.0,0.0,0.0,0.0,0.0,0.000299348104583,0.0,0.0,0.0,0.0,0.0,0.0,0.000299348104583,0.0,0.0,0.0,0.0,0.0,0.0,0.000299348104583,0.27567717433,0.106546550989,-0.151639908552,-0.0213853530586,-0.0601632110775,-0.0669376775622,0.00149674052292,0.0,0.0,0.0,0.0,0.0,0.0,0.00149674052292,0.0,0.0,0.0,0.0,0.0,0.0,0.00149674052292,0.0,0.0,0.0,0.0,0.0,0.0,0.000149674052292,0.0,0.0,0.0,0.0,0.0,0.0,0.000149674052292,0.0,0.0,0.0,0.0,0.0,0.0,0.000149674052292
1662436541380450249,74,1662436541380450249,icp_odom,base_link,0.301369696856,0.0233043078333,-0.0636788383126,0.000491751605703,-0.00834449309355,0.0161949772044,0.999833911372,0.0021680720897,0.0,0.0,0.0,0.0,0.0,0.0,0.0021680720897,0.0,0.0,0.0,0.0,0.0,0.0,0.0021680720897,0.0,0.0,0.0,0.0,0.0,0.0,0.00021680720897,0.0,0.0,0.0,0.0,0.0,0.0,0.00021680720897,0.0,0.0,0.0,0.0,0.0,0.0,0.00021680720897,0.141428545117,0.0248000044376,-0.264504820108,0.0468295589089,-0.112476758659,0.0744921639562,0.00108403604485,0.0,0.0,0.0,0.0,0.0,0.0,0.00108403604485,0.0,0.0,0.0,0.0,0.0,0.0,0.00108403604485,0.0,0.0,0.0,0.0,0.0,0.0,0.000108403604485,0.0,0.0,0.0,0.0,0.0,0.0,0.000108403604485,0.0,0.0,0.0,0.0,0.0,0.0,0.000108403604485
1662436541475290298,75,1662436541475290298,icp_odom,base_link,0.326078087091,0.0198393221945,-0.0638781562448,0.000792261908821,-0.00906700036351,0.0144552883512,0.999854092588,0.00275898789707,0.0,0.0,0.0,0.0,0.0,0.0,0.00275898789707,0.0,0.0,0.0,0.0,0.0,0.0,0.00275898789707,0.0,0.0,0.0,0.0,0.0,0.0,0.000275898789707,0.0,0.0,0.0,0.0,0.0,0.0,0.000275898789707,0.0,0.0,0.0,0.0,0.0,0.0,0.000275898789707,0.259136140347,-0.0449565686285,-0.00639858748764,0.0058097881265,-0.0153408283368,-0.0367372594774,0.00137949394853,0.0,0.0,0.0,0.0,0.0,0.0,0.00137949394853,0.0,0.0,0.0,0.0,0.0,0.0,0.00137949394853,0.0,0.0,0.0,0.0,0.0,0.0,0.000137949394853,0.0,0.0,0.0,0.0,0.0,0.0,0.000137949394853,0.0,0.0,0.0,0.0,0.0,0.0,0.000137949394853
1662436541567421198,76,1662436541567421198,icp_odom,base_link,0.336634159088,0.038991317153,-0.0685864835978,0.00156401344344,-0.00755199938873,0.0152167303607,0.999854475553,0.00207452126493,0.0,0.0,0.0,0.0,0.0,0.0,0.00207452126493,0.0,0.0,0.0,0.0,0.0,0.0,0.00207452126493,0.0,0.0,0.0,0.0,0.0,0.0,0.000207452126493,0.0,0.0,0.0,0.0,0.0,0.0,0.000207452126493,0.0,0.0,0.0,0.0,0.0,0.0,0.000207452126493,0.119588539004,0.204409718513,-0.0535549409688,0.0174008458853,0.0326411351562,0.0163752306253,0.00103726063246,0.0,0.0,0.0,0.0,0.0,0.0,0.00103726063246,0.0,0.0,0.0,0.0,0.0,0.0,0.00103726063246,0.0,0.0,0.0,0.0,0.0,0.0,0.000103726063246,0.0,0.0,0.0,0.0,0.0,0.0,0.000103726063246,0.0,0.0,0.0,0.0,0.0,0.0,0.000103726063246
1662436541659537315,77,1662436541659537315,icp_odom,base_link,0.361589103937,0.0501637458801,-0.0650242492557,0.00485620813193,-0.00736213198765,0.0107885233524,0.999902907296,0.00281439927254,0.0,0.0,0.0,0.0,0.0,0.0,0.00281439927254,0.0,0.0,0.0,0.0,0.0,0.0,0.00281439927254,0.0,0.0,0.0,0.0,0.0,0.0,0.000281439927254,0.0,0.0,0.0,0.0,0.0,0.0,0.000281439927254,0.0,0.0,0.0,0.0,0.0,0.0,0.000281439927254,0.275024712086,0.113091789186,0.0341810211539,0.0707903653383,0.00320694735274,-0.0966827049851,0.00140719963627,0.0,0.0,0.0,0.0,0.0,0.0,0.00140719963627,0.0,0.0,0.0,0.0,0.0,0.0,0.00140719963627,0.0,0.0,0.0,0.0,0.0,0.0,0.000140719963627,0.0,0.0,0.0,0.0,0.0,0.0,0.000140719963627,0.0,0.0,0.0,0.0,0.0,0.0,0.000140719963627
