%time,field.header.seq,field.header.stamp,field.header.frame_id,field.child_frame_id,field.pose.pose.position.x,field.pose.pose.position.y,field.pose.pose.position.z,field.pose.pose.orientation.x,field.pose.pose.orientation.y,field.pose.pose.orientation.z,field.pose.pose.orientation.w,field.pose.covariance0,field.pose.covariance1,field.pose.covariance2,field.pose.covariance3,field.pose.covariance4,field.pose.covariance5,field.pose.covariance6,field.pose.covariance7,field.pose.covariance8,field.pose.covariance9,field.pose.covariance10,field.pose.covariance11,field.pose.covariance12,field.pose.covariance13,field.pose.covariance14,field.pose.covariance15,field.pose.covariance16,field.pose.covariance17,field.pose.covariance18,field.pose.covariance19,field.pose.covariance20,field.pose.covariance21,field.pose.covariance22,field.pose.covariance23,field.pose.covariance24,field.pose.covariance25,field.pose.covariance26,field.pose.covariance27,field.pose.covariance28,field.pose.covariance29,field.pose.covariance30,field.pose.covariance31,field.pose.covariance32,field.pose.covariance33,field.pose.covariance34,field.pose.covariance35,field.twist.twist.linear.x,field.twist.twist.linear.y,field.twist.twist.linear.z,field.twist.twist.angular.x,field.twist.twist.angular.y,field.twist.twist.angular.z,field.twist.covariance0,field.twist.covariance1,field.twist.covariance2,field.twist.covariance3,field.twist.covariance4,field.twist.covariance5,field.twist.covariance6,field.twist.covariance7,field.twist.covariance8,field.twist.covariance9,field.twist.covariance10,field.twist.covariance11,field.twist.covariance12,field.twist.covariance13,field.twist.covariance14,field.twist.covariance15,field.twist.covariance16,field.twist.covariance17,field.twist.covariance18,field.twist.covariance19,field.twist.covariance20,field.twist.covariance21,field.twist.covariance22,field.twist.covariance23,field.twist.covariance24,field.twist.covariance25,field.twist.covariance26,field.twist.covariance27,field.twist.covariance28,field.twist.covariance29,field.twist.covariance30,field.twist.covariance31,field.twist.covariance32,field.twist.covariance33,field.twist.covariance34,field.twist.covariance35
1662436534110275984,254,1662436534110275984,odom_ekf,base_link,-0.0175239630044,-0.0151663189754,0.00220908620395,-0.00262772849026,0.000851999346933,0.00510250330009,0.999983166658,0.000524716105652,0.0,0.0,0.0,0.0,0.0,0.0,0.000524716105652,0.0,0.0,0.0,0.0,0.0,0.0,0.000524716105652,0.0,0.0,0.0,0.0,0.0,0.0,5.24716105652e-05,0.0,0.0,0.0,0.0,0.0,0.0,5.24716105652e-05,0.0,0.0,0.0,0.0,0.0,0.0,5.24716105652e-05,-0.0796946808696,-0.173586457968,0.0268668532372,0.0670296177268,-0.0330029651523,0.0318783596158,0.000262358052826,0.0,0.0,0.0,0.0,0.0,0.0,0.000262358052826,0.0,0.0,0.0,0.0,0.0,0.0,0.000262358052826,0.0,0.0,0.0,0.0,0.0,0.0,2.62358052826e-05,0.0,0.0,0.0,0.0,0.0,0.0,2.62358052826e-05,0.0,0.0,0.0,0.0,0.0,0.0,2.62358052826e-05
1662436534205333948,255,1662436534205333948,odom_ekf,base_link,-0.000188253819942,0.00994014274329,-0.00367592344992,-0.00361749291036,0.00425238463325,-0.00292765998004,0.999980129691,0.000598987783338,0.0,0.0,0.0,0.0,0.0,0.0,0.000598987783338,0.0,0.0,0.0,0.0,0.0,0.0,0.000598987783338,0.0,0.0,0.0,0.0,0.0,0.0,5.98987783338e-05,0.0,0.0,0.0,0.0,0.0,0.0,5.98987783338e-05,0.0,0.0,0.0,0.0,0.0,0.0,5.98987783338e-05,0.18516138196,0.262562960386,-0.0602125562727,-0.0208932943642,0.0719272792339,-0.168853849173,0.000299493891669,0.0,0.0,0.0,0.0,0.0,0.0,0.000299493891669,0.0,0.0,0.0,0.0,0.0,0.0,0.000299493891669,0.0,0.0,0.0,0.0,0.0,0.0,2.99493891669e-05,0.0,0.0,0.0,0.0,0.0,0.0,2.99493891669e-05,0.0,0.0,0.0,0.0,0.0,0.0,2.99493891669e-05
1662436534298110247,256,1662436534298110247,odom_ekf,base_link,-0.000167023405083,0.0189796928316,-0.000156675465405,0.00138784906033,0.00144269947521,-0.00255387198293,0.999994735102,0.000258621740568,0.0,0.0,0.0,0.0,0.0,0.0,0.000258621740568,0.0,0.0,0.0,0.0,0.0,0.0,0.000258621740568,0.0,0.0,0.0,0.0,0.0,0.0,2.58621740568e-05,0.0,0.0,0.0,0.0,0.0,0.0,2.58621740568e-05,0.0,0.0,0.0,0.0,0.0,0.0,2.58621740568e-05,-0.000666468520649,0.0971555560827,0.038634698838,0.108021870255,-0.0603233240545,0.00799618009478,0.000129310870284,0.0,0.0,0.0,0.0,0.0,0.0,0.000129310870284,0.0,0.0,0.0,0.0,0.0,0.0,0.000129310870284,0.0,0.0,0.0,0.0,0.0,0.0,1.29310870284e-05,0.0,0.0,0.0,0.0,0.0,0.0,1.29310870284e-05,0.0,0.0,0.0,0.0,0.0,0.0,1.29310870284e-05
1662436534390278578,257,1662436534390278578,odom_ekf,base_link,-0.0135250110179,-0.00878946483135,0.00156562984921,0.000441286652401,0.00148287403619,0.00223208064152,0.999996312077,0.000218257382582,0.0,0.0,0.0,0.0,0.0,0.0,0.000218257382582,0.0,0.0,0.0,0.0,0.0,0.0,0.000218257382582,0.0,0.0,0.0,0.0,0.0,0.0,2.18257382582e-05,0.0,0.0,0.0,0.0,0.0,0.0,2.18257382582e-05,0.0,0.0,0.0,0.0,0.0,0.0,2.18257382582e-05,-0.143444225192,-0.301971435547,0.0191077142954,-0.0206870120019,0.00106237770524,0.103820554912,0.000109128691291,0.0,0.0,0.0,0.0,0.0,0.0,0.000109128691291,0.0,0.0,0.0,0.0,0.0,0.0,0.000109128691291,0.0,0.0,0.0,0.0,0.0,0.0,1.09128691291e-05,0.0,0.0,0.0,0.0,0.0,0.0,1.09128691291e-05,0.0,0.0,0.0,0.0,0.0,0.0,1.09128691291e-05
1662436534499031305,258,1662436534499031305,odom_ekf,base_link,0.00317952595651,0.0261349007487,0.00445648096502,0.00223693010355,0.00231232379705,-0.00482649327193,0.999983176991,0.000471679617469,0.0,0.0,0.0,0.0,0.0,0.0,0.000471679617469,0.0,0.0,0.0,0.0,0.0,0.0,0.000471679617469,0.0,0.0,0.0,0.0,0.0,0.0,4.71679617469e-05,0.0,0.0,0.0,0.0,0.0,0.0,4.71679617469e-05,0.0,0.0,0.0,0.0,0.0,0.0,4.71679617469e-05,0.154954105616,0.320470333099,0.0267562903464,0.0331415347755,0.0153573919088,-0.129739999771,0.000235839808735,0.0,0.0,0.0,0.0,0.0,0.0,0.000235839808735,0.0,0.0,0.0,0.0,0.0,0.0,0.000235839808735,0.0,0.0,0.0,0.0,0.0,0.0,2.35839808735e-05,0.0,0.0,0.0,0.0,0.0,0.0,2.35839808735e-05,0.0,0.0,0.0,0.0,0.0,0.0,2.35839808735e-05
1662436534593967438,259,1662436534593967438,odom_ekf,base_link,0.00286871264689,0.00961572863162,-0.0195808671415,-0.00138007932696,0.00051758657304,-0.00222753291405,0.999996432785,0.000369211143125,0.0,0.0,0.0,0.0,0.0,0.0,0.000369211143125,0.0,0.0,0.0,0.0,0.0,0.0,0.000369211143125,0.0,0.0,0.0,0.0,0.0,0.0,3.69211143125e-05,0.0,0.0,0.0,0.0,0.0,0.0,3.69211143125e-05,0.0,0.0,0.0,0.0,0.0,0.0,3.69211143125e-05,-0.000419526710175,-0.175151869655,-0.252422422171,-0.0762412771583,-0.0378567501903,0.0547980815172,0.000184605571562,0.0,0.0,0.0,0.0,0.0,0.0,0.000184605571562,0.0,0.0,0.0,0.0,0.0,0.0,0.000184605571562,0.0,0.0,0.0,0.0,0.0,0.0,1.84605571562e-05,0.0,0.0,0.0,0.0,0.0,0.0,1.84605571562e-05,0.0,0.0,0.0,0.0,0.0,0.0,1.84605571562e-05
1662436534686419010,260,1662436534686419010,odom_ekf,base_link,-0.00834555272013,0.0135787725449,0.0097069516778,0.00275528130013,0.00227629563973,-0.000752035897014,0.99999333065,0.000350415249058,0.0,0.0,0.0,0.0,0.0,0.0,0.000350415249058,0.0,0.0,0.0,0.0,0.0,0.0,0.000350415249058,0.0,0.0,0.0,0.0,0.0,0.0,3.50415249058e-05,0.0,0.0,0.0,0.0,0.0,0.0,3.50415249058e-05,0.0,0.0,0.0,0.0,0.0,0.0,3.50415249058e-05,-0.121814548969,0.0414502322674,0.316781461239,0.0894154831767,0.0380685813725,0.0321755819023,0.000175207624529,0.0,0.0,0.0,0.0,0.0,0.0,0.000175207624529,0.0,0.0,0.0,0.0,0.0,0.0,0.000175207624529,0.0,0.0,0.0,0.0,0.0,0.0,1.75207624529e-05,0.0,0.0,0.0,0.0,0.0,0.0,1.75207624529e-05,0.0,0.0,0.0,0.0,0.0,0.0,1.75207624529e-05
1662436534778669596,261,1662436534778669596,odom_ekf,base_link,-0.00804803147912,-0.00383374840021,-0.0156913623214,0.000523948615501,-0.00154253742655,0.000782621903213,0.999998366778,0.00010779165288,0.0,0.0,0.0,0.0,0.0,0.0,0.00010779165288,0.0,0.0,0.0,0.0,0.0,0.0,0.00010779165288,0.0,0.0,0.0,0.0,0.0,0.0,1.0779165288e-05,0.0,0.0,0.0,0.0,0.0,0.0,1.0779165288e-05,0.0,0.0,0.0,0.0,0.0,0.0,1.0779165288e-05,0.0047611836344,-0.190260648727,-0.274256259203,-0.0485173873603,-0.0826623737812,0.0335746891797,5.38958264398e-05,0.0,0.0,0.0,0.0,0.0,0.0,5.38958264398e-05,0.0,0.0,0.0,0.0,0.0,0.0,5.38958264398e-05,0.0,0.0,0.0,0.0,0.0,0.0,5.38958264398e-06,0.0,0.0,0.0,0.0,0.0,0.0,5.38958264398e-06,0.0,0.0,0.0,0.0,0.0,0.0,5.38958264398e-06
1662436534887255907,262,1662436534887255907,odom_ekf,base_link,-8.86339694262e-06,0.0189226213843,0.0189966484904,0.00057227719223,0.00411145422105,-0.00314522514886,0.999986437909,0.00027128547749,0.0,0.0,0.0,0.0,0.0,0.0,0.00027128547749,0.0,0.0,0.0,0.0,0.0,0.0,0.00027128547749,0.0,0.0,0.0,0.0,0.0,0.0,2.7128547749e-05,0.0,0.0,0.0,0.0,0.0,0.0,2.7128547749e-05,0.0,0.0,0.0,0.0,0.0,0.0,2.7128547749e-05,0.0753478482366,0.209787026048,0.319000869989,0.000450967694633,0.104102194309,-0.0723995864391,0.000135642738745,0.0,0.0,0.0,0.0,0.0,0.0,0.000135642738745,0.0,0.0,0.0,0.0,0.0,0.0,0.000135642738745,0.0,0.0,0.0,0.0,0.0,0.0,1.35642738745e-05,0.0,0.0,0.0,0.0,0.0,0.0,1.35642738745e-05,0.0,0.0,0.0,0.0,0.0,0.0,1.35642738745e-05
1662436534979564190,263,1662436534979564190,odom_ekf,base_link,-0.0113127771765,-0.00418509542942,-0.00156346336007,-0.000342269783094,0.00152833186795,0.00115832113441,0.999998102671,0.000168321300953,0.0,0.0,0.0,0.0,0.0,0.0,0.000168321300953,0.0,0.0,0.0,0.0,0.0,0.0,0.000168321300953,0.0,0.0,0.0,0.0,0.0,0.0,1.68321300953e-05,0.0,0.0,0.0,0.0,0.0,0.0,1.68321300953e-05,0.0,0.0,0.0,0.0,0.0,0.0,1.68321300953e-05,-0.11904592067,-0.251346945763,-0.223438948393,-0.0202630590647,-0.0558899380267,0.0932459011674,8.41606504764e-05,0.0,0.0,0.0,0.0,0.0,0.0,8.41606504764e-05,0.0,0.0,0.0,0.0,0.0,0.0,8.41606504764e-05,0.0,0.0,0.0,0.0,0.0,0.0,8.41606504764e-06,0.0,0.0,0.0,0.0,0.0,0.0,8.41606504764e-06,0.0,0.0,0.0,0.0,0.0,0.0,8.41606504764e-06
1662436535071857452,264,1662436535071857452,odom_ekf,base_link,-0.00286961812526,0.0017419513315,-0.0214687567204,-0.00180295533612,-0.0034985048215,0.000428129171472,0.99999216323,0.000144937279611,0.0,0.0,0.0,0.0,0.0,0.0,0.000144937279611,0.0,0.0,0.0,0.0,0.0,0.0,0.000144937279611,0.0,0.0,0.0,0.0,0.0,0.0,1.44937279611e-05,0.0,0.0,0.0,0.0,0.0,0.0,1.44937279611e-05,0.0,0.0,0.0,0.0,0.0,0.0,1.44937279611e-05,0.0922892987728,0.0641543716192,-0.215349584818,-0.0316763669252,-0.108912959695,-0.0157497953624,7.24686398057e-05,0.0,0.0,0.0,0.0,0.0,0.0,7.24686398057e-05,0.0,0.0,0.0,0.0,0.0,0.0,7.24686398057e-05,0.0,0.0,0.0,0.0,0.0,0.0,7.24686398057e-06,0.0,0.0,0.0,0.0,0.0,0.0,7.24686398057e-06,0.0,0.0,0.0,0.0,0.0,0.0,7.24686398057e-06
1662436535180202246,265,1662436535180202246,odom_ekf,base_link,-0.00796315446496,0.00674487790093,-0.00773689895868,0.00150927395022,0.00260671223556,-0.00174482129133,0.999993941353,0.000608231235263,0.0,0.0,0.0,0.0,0.0,0.0,0.000608231235263,0.0,0.0,0.0,0.0,0.0,0.0,0.000608231235263,0.0,0.0,0.0,0.0,0.0,0.0,6.08231235263e-05,0.0,0.0,0.0,0.0,0.0,0.0,6.08231235263e-05,0.0,0.0,0.0,0.0,0.0,0.0,6.08231235263e-05,-0.04608438164,0.0457579232752,0.127233669162,0.060808185488,0.1128776595,-0.0397513359785,0.000304115617631,0.0,0.0,0.0,0.0,0.0,0.0,0.000304115617631,0.0,0.0,0.0,0.0,0.0,0.0,0.000304115617631,0.0,0.0,0.0,0.0,0.0,0.0,3.04115617631e-05,0.0,0.0,0.0,0.0,0.0,0.0,3.04115617631e-05,0.0,0.0,0.0,0.0,0.0,0.0,3.04115617631e-05
1662436535272501469,266,1662436535272501469,odom_ekf,base_link,0.0209891982377,0.0113280918449,0.0148101616651,-0.00667511701095,0.00697370707678,-0.00646673535106,0.9999324935,0.00134381956304,0.0,0.0,0.0,0.0,0.0,0.0,0.00134381956304,0.0,0.0,0.0,0.0,0.0,0.0,0.00134381956304,0.0,0.0,0.0,0.0,0.0,0.0,0.000134381956304,0.0,0.0,0.0,0.0,0.0,0.0,0.000134381956304,0.0,0.0,0.0,0.0,0.0,0.0,0.000134381956304,0.312225371599,0.0514877587557,0.245761141181,-0.177692234516,0.0933200865984,-0.103694401681,0.000671909781522,0.0,0.0,0.0,0.0,0.0,0.0,0.000671909781522,0.0,0.0,0.0,0.0,0.0,0.0,0.000671909781522,0.0,0.0,0.0,0.0,0.0,0.0,6.71909781522e-05,0.0,0.0,0.0,0.0,0.0,0.0,6.71909781522e-05,0.0,0.0,0.0,0.0,0.0,0.0,6.71909781522e-05
1662436535367300510,267,1662436535367300510,odom_ekf,base_link,-0.000172656029463,-0.00582834333181,0.0257130376995,-0.0047557813814,0.00533528248243,0.000750178927108,0.999974176935,0.000261413144111,0.0,0.0,0.0,0.0,0.0,0.0,0.000261413144111,0.0,0.0,0.0,0.0,0.0,0.0,0.000261413144111,0.0,0.0,0.0,0.0,0.0,0.0,2.61413144111e-05,0.0,0.0,0.0,0.0,0.0,0.0,2.61413144111e-05,0.0,0.0,0.0,0.0,0.0,0.0,2.61413144111e-05,-0.222424909472,-0.18535746634,0.109456844628,0.0394017398357,-0.0356098748744,0.152239471674,0.000130706572055,0.0,0.0,0.0,0.0,0.0,0.0,0.000130706572055,0.0,0.0,0.0,0.0,0.0,0.0,0.000130706572055,0.0,0.0,0.0,0.0,0.0,0.0,1.30706572055e-05,0.0,0.0,0.0,0.0,0.0,0.0,1.30706572055e-05,0.0,0.0,0.0,0.0,0.0,0.0,1.30706572055e-05
1662436535459254980,268,1662436535459254980,odom_ekf,base_link,-0.013817710802,-0.00206205993891,0.0166827570647,-0.00173466307113,0.00286419103146,0.00411087275194,0.999985943941,0.000531611027217,0.0,0.0,0.0,0.0,0.0,0.0,0.000531611027217,0.0,0.0,0.0,0.0,0.0,0.0,0.000531611027217,0.0,0.0,0.0,0.0,0.0,0.0,5.31611027217e-05,0.0,0.0,0.0,0.0,0.0,0.0,5.31611027217e-05,0.0,0.0,0.0,0.0,0.0,0.0,5.31611027217e-05,-0.147272706032,0.0421196557581,-0.0993862003088,0.0650963634253,-0.0543620437384,0.0730256214738,0.000265805513609,0.0,0.0,0.0,0.0,0.0,0.0,0.000265805513609,0.0,0.0,0.0,0.0,0.0,0.0,0.000265805513609,0.0,0.0,0.0,0.0,0.0,0.0,2.65805513609e-05,0.0,0.0,0.0,0.0,0.0,0.0,2.65805513609e-05,0.0,0.0,0.0,0.0,0.0,0.0,2.65805513609e-05
1662436535567904711,269,1662436535567904711,odom_ekf,base_link,-0.00429395306855,-0.00594718568027,-0.000650113448501,-0.000307269602579,0.000355975042791,8.64474808448e-05,0.999999885697,9.64863597782e-05,0.0,0.0,0.0,0.0,0.0,0.0,9.64863597782e-05,0.0,0.0,0.0,0.0,0.0,0.0,9.64863597782e-05,0.0,0.0,0.0,0.0,0.0,0.0,9.64863597782e-06,0.0,0.0,0.0,0.0,0.0,0.0,9.64863597782e-06,0.0,0.0,0.0,0.0,0.0,0.0,9.64863597782e-06,0.0882736742496,-0.0359286852181,-0.159150242805,0.0264833848923,-0.0460440628231,-0.074152328074,4.82431798891e-05,0.0,0.0,0.0,0.0,0.0,0.0,4.82431798891e-05,0.0,0.0,0.0,0.0,0.0,0.0,4.82431798891e-05,0.0,0.0,0.0,0.0,0.0,0.0,4.82431798891e-06,0.0,0.0,0.0,0.0,0.0,0.0,4.82431798891e-06,0.0,0.0,0.0,0.0,0.0,0.0,4.82431798891e-06
1662436535665911198,270,1662436535665911198,odom_ekf,base_link,-0.00328754470684,0.0108230691403,-0.0275273490697,-0.000625024079559,-0.000323924828528,-0.00131304672973,0.999998890162,0.00039669898956,0.0,0.0,0.0,0.0,0.0,0.0,0.00039669898956,0.0,0.0,0.0,0.0,0.0,0.0,0.00039669898956,0.0,0.0,0.0,0.0,0.0,0.0,3.9669898956e-05,0.0,0.0,0.0,0.0,0.0,0.0,3.9669898956e-05,0.0,0.0,0.0,0.0,0.0,0.0,3.9669898956e-05,0.0104935979471,0.171280443668,-0.27412673831,-0.00645598163828,-0.0138742951676,-0.0285614077002,0.00019834949478,0.0,0.0,0.0,0.0,0.0,0.0,0.00019834949478,0.0,0.0,0.0,0.0,0.0,0.0,0.00019834949478,0.0,0.0,0.0,0.0,0.0,0.0,1.9834949478e-05,0.0,0.0,0.0,0.0,0.0,0.0,1.9834949478e-05,0.0,0.0,0.0,0.0,0.0,0.0,1.9834949478e-05
1662436535757877350,271,1662436535757877350,odom_ekf,base_link,0.000907724024728,0.0123499101028,-0.00888647697866,0.00292057012747,-0.00173490542824,-0.00232074115778,0.999991537231,0.000213500263888,0.0,0.0,0.0,0.0,0.0,0.0,0.000213500263888,0.0,0.0,0.0,0.0,0.0,0.0,0.000213500263888,0.0,0.0,0.0,0.0,0.0,0.0,2.13500263888e-05,0.0,0.0,0.0,0.0,0.0,0.0,2.13500263888e-05,0.0,0.0,0.0,0.0,0.0,0.0,2.13500263888e-05,0.0457054153085,0.016468744725,0.202683836222,0.0771707221866,-0.0304917637259,-0.0220671650022,0.000106750131944,0.0,0.0,0.0,0.0,0.0,0.0,0.000106750131944,0.0,0.0,0.0,0.0,0.0,0.0,0.000106750131944,0.0,0.0,0.0,0.0,0.0,0.0,1.06750131944e-05,0.0,0.0,0.0,0.0,0.0,0.0,1.06750131944e-05,0.0,0.0,0.0,0.0,0.0,0.0,1.06750131944e-05
1662436535850530624,272,1662436535850530624,odom_ekf,base_link,-0.0173887237906,-0.00995171349496,0.0259198080748,-0.00182776880893,0.00635984569716,0.00543396163458,0.99996334117,0.000756693728599,0.0,0.0,0.0,0.0,0.0,0.0,0.000756693728599,0.0,0.0,0.0,0.0,0.0,0.0,0.000756693728599,0.0,0.0,0.0,0.0,0.0,0.0,7.56693728599e-05,0.0,0.0,0.0,0.0,0.0,0.0,7.56693728599e-05,0.0,0.0,0.0,0.0,0.0,0.0,7.56693728599e-05,-0.195050910115,-0.239410340786,0.377744883299,-0.101262494922,0.175769492984,0.166241005063,0.000378346864299,0.0,0.0,0.0,0.0,0.0,0.0,0.000378346864299,0.0,0.0,0.0,0.0,0.0,0.0,0.000378346864299,0.0,0.0,0.0,0.0,0.0,0.0,3.78346864299e-05,0.0,0.0,0.0,0.0,0.0,0.0,3.78346864299e-05,0.0,0.0,0.0,0.0,0.0,0.0,3.78346864299e-05
1662436535944684744,273,1662436535944684744,odom_ekf,base_link,-0.0543012991548,-0.0146466707811,0.0238097086549,0.00309515549993,0.00373419013713,0.0113437938753,0.999923894192,0.00271126476115,0.0,0.0,0.0,0.0,0.0,0.0,0.00271126476115,0.0,0.0,0.0,0.0,0.0,0.0,0.00271126476115,0.0,0.0,0.0,0.0,0.0,0.0,0.000271126476115,0.0,0.0,0.0,0.0,0.0,0.0,0.000271126476115,0.0,0.0,0.0,0.0,0.0,0.0,0.000271126476115,-0.392244547606,-0.0455112829804,-0.0275735985488,0.103128701448,-0.0571764968336,0.125823408365,0.00135563238057,0.0,0.0,0.0,0.0,0.0,0.0,0.00135563238057,0.0,0.0,0.0,0.0,0.0,0.0,0.00135563238057,0.0,0.0,0.0,0.0,0.0,0.0,0.000135563238057,0.0,0.0,0.0,0.0,0.0,0.0,0.000135563238057,0.0,0.0,0.0,0.0,0.0,0.0,0.000135563238057
1662436536039669991,274,1662436536039669991,odom_ekf,base_link,-0.0217102095485,-0.0239336043596,0.015113315545,-0.00473920484148,0.00143854240951,0.00520882613643,0.999974168998,0.000727724034176,0.0,0.0,0.0,0.0,0.0,0.0,0.000727724034176,0.0,0.0,0.0,0.0,0.0,0.0,0.000727724034176,0.0,0.0,0.0,0.0,0.0,0.0,7.27724034176e-05,0.0,0.0,0.0,0.0,0.0,0.0,7.27724034176e-05,0.0,0.0,0.0,0.0,0.0,0.0,7.27724034176e-05,0.341476470232,-0.106095790863,-0.0883675515652,-0.164727464318,-0.0478795282543,-0.129276365042,0.000363862017088,0.0,0.0,0.0,0.0,0.0,0.0,0.000363862017088,0.0,0.0,0.0,0.0,0.0,0.0,0.000363862017088,0.0,0.0,0.0,0.0,0.0,0.0,3.63862017088e-05,0.0,0.0,0.0,0.0,0.0,0.0,3.63862017088e-05,0.0,0.0,0.0,0.0,0.0,0.0,3.63862017088e-05
1662436536148415327,275,1662436536148415327,odom_ekf,base_link,-0.00176704861224,0.00380751676857,0.00207379739732,-0.00064167260563,0.00148500783388,-0.000734857862931,0.999998421495,0.000101382383329,0.0,0.0,0.0,0.0,0.0,0.0,0.000101382383329,0.0,0.0,0.0,0.0,0.0,0.0,0.000101382383329,0.0,0.0,0.0,0.0,0.0,0.0,1.01382383329e-05,0.0,0.0,0.0,0.0,0.0,0.0,1.01382383329e-05,0.0,0.0,0.0,0.0,0.0,0.0,1.01382383329e-05,0.186387464404,0.254298150539,-0.116962581873,0.0755150914192,0.00142781797331,-0.109196551144,5.06911916645e-05,0.0,0.0,0.0,0.0,0.0,0.0,5.06911916645e-05,0.0,0.0,0.0,0.0,0.0,0.0,5.06911916645e-05,0.0,0.0,0.0,0.0,0.0,0.0,5.06911916645e-06,0.0,0.0,0.0,0.0,0.0,0.0,5.06911916645e-06,0.0,0.0,0.0,0.0,0.0,0.0,5.06911916645e-06
1662436536241037130,276,1662436536241037130,odom_ekf,base_link,-0.00341692147776,0.00599829666317,0.00772036984563,-0.00240519482645,0.00242820119353,-0.000585259547406,0.999993988156,0.000130332098943,0.0,0.0,0.0,0.0,0.0,0.0,0.000130332098943,0.0,0.0,0.0,0.0,0.0,0.0,0.000130332098943,0.0,0.0,0.0,0.0,0.0,0.0,1.30332098943e-05,0.0,0.0,0.0,0.0,0.0,0.0,1.30332098943e-05,0.0,0.0,0.0,0.0,0.0,0.0,1.30332098943e-05,-0.018028723076,0.0235484037548,0.0609408132732,-0.0380968898535,0.0203422047198,0.00315086496994,6.51660494716e-05,0.0,0.0,0.0,0.0,0.0,0.0,6.51660494716e-05,0.0,0.0,0.0,0.0,0.0,0.0,6.51660494716e-05,0.0,0.0,0.0,0.0,0.0,0.0,6.51660494716e-06,0.0,0.0,0.0,0.0,0.0,0.0,6.51660494716e-06,0.0,0.0,0.0,0.0,0.0,0.0,6.51660494716e-06
1662436536335441113,277,1662436536335441113,odom_ekf,base_link,0.00184698496014,0.00122132664546,0.0153199452907,-0.00132268251032,0.00264992386801,-0.00122825592886,0.999994859888,0.000138417739577,0.0,0.0,0.0,0.0,0.0,0.0,0.000138417739577,0.0,0.0,0.0,0.0,0.0,0.0,0.000138417739577,0.0,0.0,0.0,0.0,0.0,0.0,1.38417739577e-05,0.0,0.0,0.0,0.0,0.0,0.0,1.38417739577e-05,0.0,0.0,0.0,0.0,0.0,0.0,1.38417739577e-05,0.0554277822375,-0.0509235970676,0.080526381731,0.0229608118534,0.00475811911747,-0.0135500030592,6.92088697886e-05,0.0,0.0,0.0,0.0,0.0,0.0,6.92088697886e-05,0.0,0.0,0.0,0.0,0.0,0.0,6.92088697886e-05,0.0,0.0,0.0,0.0,0.0,0.0,6.92088697886e-06,0.0,0.0,0.0,0.0,0.0,0.0,6.92088697886e-06,0.0,0.0,0.0,0.0,0.0,0.0,6.92088697886e-06
1662436536427698135,278,1662436536427698135,odom_ekf,base_link,-0.0115033863112,-0.0109534934163,-0.00498134829104,-0.00117081592971,0.00213431869243,0.00191583355907,0.999995201716,0.000302218149015,0.0,0.0,0.0,0.0,0.0,0.0,0.000302218149015,0.0,0.0,0.0,0.0,0.0,0.0,0.000302218149015,0.0,0.0,0.0,0.0,0.0,0.0,3.02218149015e-05,0.0,0.0,0.0,0.0,0.0,0.0,3.02218149015e-05,0.0,0.0,0.0,0.0,0.0,0.0,3.02218149015e-05,-0.143215373158,-0.131736382842,-0.221163243055,0.0030899355188,-0.011273435317,0.0681514590979,0.000151109074507,0.0,0.0,0.0,0.0,0.0,0.0,0.000151109074507,0.0,0.0,0.0,0.0,0.0,0.0,0.000151109074507,0.0,0.0,0.0,0.0,0.0,0.0,1.51109074507e-05,0.0,0.0,0.0,0.0,0.0,0.0,1.51109074507e-05,0.0,0.0,0.0,0.0,0.0,0.0,1.51109074507e-05
1662436536536708832,279,1662436536536708832,odom_ekf,base_link,-0.0145656531677,0.0178339630365,0.0061159869656,0.00529030544053,0.0019456898365,5.38659865906e-05,0.999984111903,0.000747737797508,0.0,0.0,0.0,0.0,0.0,0.0,0.000747737797508,0.0,0.0,0.0,0.0,0.0,0.0,0.000747737797508,0.0,0.0,0.0,0.0,0.0,0.0,7.47737797508e-05,0.0,0.0,0.0,0.0,0.0,0.0,7.47737797508e-05,0.0,0.0,0.0,0.0,0.0,0.0,7.47737797508e-05,-0.027515437454,0.263946771622,0.102299965918,0.118613906205,-0.00342808919959,-0.0339345782995,0.000373868898754,0.0,0.0,0.0,0.0,0.0,0.0,0.000373868898754,0.0,0.0,0.0,0.0,0.0,0.0,0.000373868898754,0.0,0.0,0.0,0.0,0.0,0.0,3.73868898754e-05,0.0,0.0,0.0,0.0,0.0,0.0,3.73868898754e-05,0.0,0.0,0.0,0.0,0.0,0.0,3.73868898754e-05
1662436536631297112,280,1662436536631297112,odom_ekf,base_link,-0.0329102352262,-0.0160412304103,0.0055189342238,-0.00210817868513,0.00326422366927,0.00703453645851,0.99996770734,0.00103682489868,0.0,0.0,0.0,0.0,0.0,0.0,0.00103682489868,0.0,0.0,0.0,0.0,0.0,0.0,0.00103682489868,0.0,0.0,0.0,0.0,0.0,0.0,0.000103682489868,0.0,0.0,0.0,0.0,0.0,0.0,0.000103682489868,0.0,0.0,0.0,0.0,0.0,0.0,0.000103682489868,-0.193961307406,-0.358162909746,-0.00327738653868,-0.156515493989,0.0297580994666,0.146932065487,0.000518412449341,0.0,0.0,0.0,0.0,0.0,0.0,0.000518412449341,0.0,0.0,0.0,0.0,0.0,0.0,0.000518412449341,0.0,0.0,0.0,0.0,0.0,0.0,5.18412449341e-05,0.0,0.0,0.0,0.0,0.0,0.0,5.18412449341e-05,0.0,0.0,0.0,0.0,0.0,0.0,5.18412449341e-05
1662436536723398209,281,1662436536723398209,odom_ekf,base_link,-0.00500128977001,0.00598633475602,0.0196419321001,-0.0058068754884,0.00541414998827,7.84424839593e-05,0.999968480015,0.000406146029573,0.0,0.0,0.0,0.0,0.0,0.0,0.000406146029573,0.0,0.0,0.0,0.0,0.0,0.0,0.000406146029573,0.0,0.0,0.0,0.0,0.0,0.0,4.06146029573e-05,0.0,0.0,0.0,0.0,0.0,0.0,4.06146029573e-05,0.0,0.0,0.0,0.0,0.0,0.0,4.06146029573e-05,0.305344521999,0.234234660864,0.156326308846,-0.0798241272569,0.047013130039,-0.151387870312,0.000203073014786,0.0,0.0,0.0,0.0,0.0,0.0,0.000203073014786,0.0,0.0,0.0,0.0,0.0,0.0,0.000203073014786,0.0,0.0,0.0,0.0,0.0,0.0,2.03073014786e-05,0.0,0.0,0.0,0.0,0.0,0.0,2.03073014786e-05,0.0,0.0,0.0,0.0,0.0,0.0,2.03073014786e-05
1662436536818505764,282,1662436536818505764,odom_ekf,base_link,-0.0132309440523,-0.0052176034078,0.0168901327997,-0.00136658153743,0.00255775451359,0.0027584603269,0.99999199059,0.000282187496776,0.0,0.0,0.0,0.0,0.0,0.0,0.000282187496776,0.0,0.0,0.0,0.0,0.0,0.0,0.000282187496776,0.0,0.0,0.0,0.0,0.0,0.0,2.82187496776e-05,0.0,0.0,0.0,0.0,0.0,0.0,2.82187496776e-05,0.0,0.0,0.0,0.0,0.0,0.0,2.82187496776e-05,-0.0862226486206,-0.117439866066,-0.0312349591404,0.0929030403495,-0.0606513991952,0.0562454424798,0.000141093748388,0.0,0.0,0.0,0.0,0.0,0.0,0.000141093748388,0.0,0.0,0.0,0.0,0.0,0.0,0.000141093748388,0.0,0.0,0.0,0.0,0.0,0.0,1.41093748388e-05,0.0,0.0,0.0,0.0,0.0,0.0,1.41093748388e-05,0.0,0.0,0.0,0.0,0.0,0.0,1.41093748388e-05
1662436536910820007,283,1662436536910820007,odom_ekf,base_link,-0.000991669483483,0.00458579603583,0.014556504786,-0.000195999420887,0.00219069409707,-0.000424579438992,0.999997491085,8.50286698871e-05,0.0,0.0,0.0,0.0,0.0,0.0,8.50286698871e-05,0.0,0.0,0.0,0.0,0.0,0.0,8.50286698871e-05,0.0,0.0,0.0,0.0,0.0,0.0,8.50286698871e-06,0.0,0.0,0.0,0.0,0.0,0.0,8.50286698871e-06,0.0,0.0,0.0,0.0,0.0,0.0,8.50286698871e-06,0.133293613791,0.105530314147,-0.0243097823113,0.0255403220654,-0.00784716848284,-0.068916156888,4.25143349436e-05,0.0,0.0,0.0,0.0,0.0,0.0,4.25143349436e-05,0.0,0.0,0.0,0.0,0.0,0.0,4.25143349436e-05,0.0,0.0,0.0,0.0,0.0,0.0,4.25143349436e-06,0.0,0.0,0.0,0.0,0.0,0.0,4.25143349436e-06,0.0,0.0,0.0,0.0,0.0,0.0,4.25143349436e-06
1662436537018997192,284,1662436537018997192,odom_ekf,base_link,0.00578964082524,0.0143937943503,-0.00611287727952,-0.000350348106439,0.00158572626688,-0.0030930547192,0.999993897852,0.000313203793976,0.0,0.0,0.0,0.0,0.0,0.0,0.000313203793976,0.0,0.0,0.0,0.0,0.0,0.0,0.000313203793976,0.0,0.0,0.0,0.0,0.0,0.0,3.13203793976e-05,0.0,0.0,0.0,0.0,0.0,0.0,3.13203793976e-05,0.0,0.0,0.0,0.0,0.0,0.0,3.13203793976e-05,0.0634464919567,0.0907944366336,-0.190757796168,-0.00271096965298,-0.0111834034324,-0.0493420362473,0.000156601896988,0.0,0.0,0.0,0.0,0.0,0.0,0.000156601896988,0.0,0.0,0.0,0.0,0.0,0.0,0.000156601896988,0.0,0.0,0.0,0.0,0.0,0.0,1.56601896988e-05,0.0,0.0,0.0,0.0,0.0,0.0,1.56601896988e-05,0.0,0.0,0.0,0.0,0.0,0.0,1.56601896988e-05
1662436537111452579,285,1662436537111452579,odom_ekf,base_link,0.0146106686443,0.0415336154401,-0.00958355143666,0.005122873395,0.00215527711683,-0.00884233385554,0.999945460553,0.00137571093589,0.0,0.0,0.0,0.0,0.0,0.0,0.00137571093589,0.0,0.0,0.0,0.0,0.0,0.0,0.00137571093589,0.0,0.0,0.0,0.0,0.0,0.0,0.000137571093589,0.0,0.0,0.0,0.0,0.0,0.0,0.000137571093589,0.0,0.0,0.0,0.0,0.0,0.0,0.000137571093589,0.0937089249492,0.294156134129,-0.037033110857,0.11848064512,0.0134120872244,-0.124108247459,0.000687855467945,0.0,0.0,0.0,0.0,0.0,0.0,0.000687855467945,0.0,0.0,0.0,0.0,0.0,0.0,0.000687855467945,0.0,0.0,0.0,0.0,0.0,0.0,6.87855467945e-05,0.0,0.0,0.0,0.0,0.0,0.0,6.87855467945e-05,0.0,0.0,0.0,0.0,0.0,0.0,6.87855467945e-05
1662436537204211235,286,1662436537204211235,odom_ekf,base_link,-0.00726720690727,0.0136198978871,0.0139684099704,0.00303219501386,0.00419501184409,-0.00145538405913,0.999985544659,0.000476866251756,0.0,0.0,0.0,0.0,0.0,0.0,0.000476866251756,0.0,0.0,0.0,0.0,0.0,0.0,0.000476866251756,0.0,0.0,0.0,0.0,0.0,0.0,4.76866251756e-05,0.0,0.0,0.0,0.0,0.0,0.0,4.76866251756e-05,0.0,0.0,0.0,0.0,0.0,0.0,4.76866251756e-05,-0.231621518731,-0.30245000124,0.25598937273,-0.0454837679863,0.0447289049625,0.158856779337,0.000238433125878,0.0,0.0,0.0,0.0,0.0,0.0,0.000238433125878,0.0,0.0,0.0,0.0,0.0,0.0,0.000238433125878,0.0,0.0,0.0,0.0,0.0,0.0,2.38433125878e-05,0.0,0.0,0.0,0.0,0.0,0.0,2.38433125878e-05,0.0,0.0,0.0,0.0,0.0,0.0,2.38433125878e-05
1662436537312494278,287,1662436537312494278,odom_ekf,base_link,-0.00231290329248,-0.0064996983856,-0.00534259714186,-0.00293793268743,0.00158607829066,0.000829680794075,0.999994082251,0.000222196822321,0.0,0.0,0.0,0.0,0.0,0.0,0.000222196822321,0.0,0.0,0.0,0.0,0.0,0.0,0.000222196822321,0.0,0.0,0.0,0.0,0.0,0.0,2.22196822321e-05,0.0,0.0,0.0,0.0,0.0,0.0,2.22196822321e-05,0.0,0.0,0.0,0.0,0.0,0.0,2.22196822321e-05,0.0477853827178,-0.186746403575,-0.176816165447,-0.110485576093,-0.0479685217142,0.042176425457,0.000111098411161,0.0,0.0,0.0,0.0,0.0,0.0,0.000111098411161,0.0,0.0,0.0,0.0,0.0,0.0,0.000111098411161,0.0,0.0,0.0,0.0,0.0,0.0,1.11098411161e-05,0.0,0.0,0.0,0.0,0.0,0.0,1.11098411161e-05,0.0,0.0,0.0,0.0,0.0,0.0,1.11098411161e-05
1662436537404764175,288,1662436537404764175,odom_ekf,base_link,-0.00861600041389,-0.0114733828232,-0.00712569616735,0.00244529752188,0.00074196237076,0.00216738371947,0.999994386214,0.000344974948517,0.0,0.0,0.0,0.0,0.0,0.0,0.000344974948517,0.0,0.0,0.0,0.0,0.0,0.0,0.000344974948517,0.0,0.0,0.0,0.0,0.0,0.0,3.44974948517e-05,0.0,0.0,0.0,0.0,0.0,0.0,3.44974948517e-05,0.0,0.0,0.0,0.0,0.0,0.0,3.44974948517e-05,-0.0683386325836,-0.053675159812,-0.019857622683,0.116598337889,-0.0186350028962,0.029026767239,0.000172487474259,0.0,0.0,0.0,0.0,0.0,0.0,0.000172487474259,0.0,0.0,0.0,0.0,0.0,0.0,0.000172487474259,0.0,0.0,0.0,0.0,0.0,0.0,1.72487474259e-05,0.0,0.0,0.0,0.0,0.0,0.0,1.72487474259e-05,0.0,0.0,0.0,0.0,0.0,0.0,1.72487474259e-05
1662436537496986628,289,1662436537496986628,odom_ekf,base_link,-0.0127791147679,-0.00829909183085,-0.0145529173315,-0.00125674061758,-0.000460969310882,0.00215713721329,0.999996777429,0.000236878041452,0.0,0.0,0.0,0.0,0.0,0.0,0.000236878041452,0.0,0.0,0.0,0.0,0.0,0.0,0.000236878041452,0.0,0.0,0.0,0.0,0.0,0.0,2.36878041452e-05,0.0,0.0,0.0,0.0,0.0,0.0,2.36878041452e-05,0.0,0.0,0.0,0.0,0.0,0.0,2.36878041452e-05,-0.0448736287653,0.0342205911875,-0.0807705745101,-0.0803411081433,-0.0259146746248,-0.00012209363922,0.000118439020726,0.0,0.0,0.0,0.0,0.0,0.0,0.000118439020726,0.0,0.0,0.0,0.0,0.0,0.0,0.000118439020726,0.0,0.0,0.0,0.0,0.0,0.0,1.18439020726e-05,0.0,0.0,0.0,0.0,0.0,0.0,1.18439020726e-05,0.0,0.0,0.0,0.0,0.0,0.0,1.18439020726e-05
1662436537589289665,290,1662436537589289665,odom_ekf,base_link,-0.00719992956147,-0.00898201204836,0.0173682756722,-0.00290884099856,0.0017248983078,0.00109352233884,0.999993683769,0.00023643069015,0.0,0.0,0.0,0.0,0.0,0.0,0.00023643069015,0.0,0.0,0.0,0.0,0.0,0.0,0.00023643069015,0.0,0.0,0.0,0.0,0.0,0.0,2.3643069015e-05,0.0,0.0,0.0,0.0,0.0,0.0,2.3643069015e-05,0.0,0.0,0.0,0.0,0.0,0.0,2.3643069015e-05,0.0607286654413,-0.00852921139449,0.345754474401,-0.0357563085854,0.0474309436977,-0.0230482667685,0.000118215345075,0.0,0.0,0.0,0.0,0.0,0.0,0.000118215345075,0.0,0.0,0.0,0.0,0.0,0.0,0.000118215345075,0.0,0.0,0.0,0.0,0.0,0.0,1.18215345075e-05,0.0,0.0,0.0,0.0,0.0,0.0,1.18215345075e-05,0.0,0.0,0.0,0.0,0.0,0.0,1.18215345075e-05
1662436537697654486,291,1662436537697654486,odom_ekf,base_link,0.0166022479534,0.0350650027394,-0.010295778513,0.00263166358549,0.000905740009635,-0.0063687969836,0.999975845912,0.000764855369311,0.0,0.0,0.0,0.0,0.0,0.0,0.000764855369311,0.0,0.0,0.0,0.0,0.0,0.0,0.000764855369311,0.0,0.0,0.0,0.0,0.0,0.0,7.64855369311e-05,0.0,0.0,0.0,0.0,0.0,0.0,7.64855369311e-05,0.0,0.0,0.0,0.0,0.0,0.0,7.64855369311e-05,0.221413910389,0.407463461161,-0.252157896757,0.102584250271,-0.0140644563362,-0.137673825026,0.000382427684655,0.0,0.0,0.0,0.0,0.0,0.0,0.000382427684655,0.0,0.0,0.0,0.0,0.0,0.0,0.000382427684655,0.0,0.0,0.0,0.0,0.0,0.0,3.82427684655e-05,0.0,0.0,0.0,0.0,0.0,0.0,3.82427684655e-05,0.0,0.0,0.0,0.0,0.0,0.0,3.82427684655e-05
1662436537792568684,292,1662436537792568684,odom_ekf,base_link,-0.0081550758332,-0.00711996853352,0.0099762827158,-0.00328170934636,0.0047544168586,0.000150249301513,0.999983301525,0.000318884735842,0.0,0.0,0.0,0.0,0.0,0.0,0.000318884735842,0.0,0.0,0.0,0.0,0.0,0.0,0.000318884735842,0.0,0.0,0.0,0.0,0.0,0.0,3.18884735842e-05,0.0,0.0,0.0,0.0,0.0,0.0,3.18884735842e-05,0.0,0.0,0.0,0.0,0.0,0.0,3.18884735842e-05,-0.255552440882,-0.446613460779,0.215460345149,-0.124719209969,0.0814754441381,0.136560693383,0.000159442367921,0.0,0.0,0.0,0.0,0.0,0.0,0.000159442367921,0.0,0.0,0.0,0.0,0.0,0.0,0.000159442367921,0.0,0.0,0.0,0.0,0.0,0.0,1.59442367921e-05,0.0,0.0,0.0,0.0,0.0,0.0,1.59442367921e-05,0.0,0.0,0.0,0.0,0.0,0.0,1.59442367921e-05
1662436537884984255,293,1662436537884984255,odom_ekf,base_link,-0.0116079840809,0.00618304405361,0.00659980624914,-0.000166131428332,0.00426113327061,0.000409836278348,0.999990823547,0.000368778121804,0.0,0.0,0.0,0.0,0.0,0.0,0.000368778121804,0.0,0.0,0.0,0.0,0.0,0.0,0.000368778121804,0.0,0.0,0.0,0.0,0.0,0.0,3.68778121804e-05,0.0,0.0,0.0,0.0,0.0,0.0,3.68778121804e-05,0.0,0.0,0.0,0.0,0.0,0.0,3.68778121804e-05,-0.0369749441743,0.144196763635,-0.0359436124563,0.0673936977983,-0.0107228299603,0.00586987286806,0.000184389060902,0.0,0.0,0.0,0.0,0.0,0.0,0.000184389060902,0.0,0.0,0.0,0.0,0.0,0.0,0.000184389060902,0.0,0.0,0.0,0.0,0.0,0.0,1.84389060902e-05,0.0,0.0,0.0,0.0,0.0,0.0,1.84389060902e-05,0.0,0.0,0.0,0.0,0.0,0.0,1.84389060902e-05
1662436537977081537,294,1662436537977081537,odom_ekf,base_link,-0.00717287277803,0.012443838641,0.0167798139155,0.00227586045835,0.00219387897038,-0.000540061369928,0.999994857831,0.000230560157517,0.0,0.0,0.0,0.0,0.0,0.0,0.000230560157517,0.0,0.0,0.0,0.0,0.0,0.0,0.000230560157517,0.0,0.0,0.0,0.0,0.0,0.0,2.30560157517e-05,0.0,0.0,0.0,0.0,0.0,0.0,2.30560157517e-05,0.0,0.0,0.0,0.0,0.0,0.0,2.30560157517e-05,0.0472686551511,0.06790433079,0.11096458137,0.0531423166394,-0.0448610857129,-0.0205193627626,0.000115280078758,0.0,0.0,0.0,0.0,0.0,0.0,0.000115280078758,0.0,0.0,0.0,0.0,0.0,0.0,0.000115280078758,0.0,0.0,0.0,0.0,0.0,0.0,1.15280078758e-05,0.0,0.0,0.0,0.0,0.0,0.0,1.15280078758e-05,0.0,0.0,0.0,0.0,0.0,0.0,1.15280078758e-05
1662436538085818529,295,1662436538085818529,odom_ekf,base_link,0.00280245067552,0.0167601518333,0.0111405272037,0.00350042902122,0.00230743343283,-0.0034198845043,0.999985363462,0.000396813706176,0.0,0.0,0.0,0.0,0.0,0.0,0.000396813706176,0.0,0.0,0.0,0.0,0.0,0.0,0.000396813706176,0.0,0.0,0.0,0.0,0.0,0.0,3.96813706176e-05,0.0,0.0,0.0,0.0,0.0,0.0,3.96813706176e-05,0.0,0.0,0.0,0.0,0.0,0.0,3.96813706176e-05,0.0919223502278,0.0395586155355,-0.0516391545534,0.0226330701262,0.00204572686926,-0.052921358496,0.000198406853088,0.0,0.0,0.0,0.0,0.0,0.0,0.000198406853088,0.0,0.0,0.0,0.0,0.0,0.0,0.000198406853088,0.0,0.0,0.0,0.0,0.0,0.0,1.98406853088e-05,0.0,0.0,0.0,0.0,0.0,0.0,1.98406853088e-05,0.0,0.0,0.0,0.0,0.0,0.0,1.98406853088e-05
1662436538178426027,296,1662436538178426027,odom_ekf,base_link,-0.0209461804479,-0.00569628365338,-0.00158908776939,0.000256026337681,0.00096189752082,0.0038313360486,0.999992165003,0.000464155097951,0.0,0.0,0.0,0.0,0.0,0.0,0.000464155097951,0.0,0.0,0.0,0.0,0.0,0.0,0.000464155097951,0.0,0.0,0.0,0.0,0.0,0.0,4.64155097951e-05,0.0,0.0,0.0,0.0,0.0,0.0,4.64155097951e-05,0.0,0.0,0.0,0.0,0.0,0.0,4.64155097951e-05,-0.254142910242,-0.24519713223,-0.136928737164,-0.070536121726,-0.0282395947725,0.156633973122,0.000232077548975,0.0,0.0,0.0,0.0,0.0,0.0,0.000232077548975,0.0,0.0,0.0,0.0,0.0,0.0,0.000232077548975,0.0,0.0,0.0,0.0,0.0,0.0,2.32077548975e-05,0.0,0.0,0.0,0.0,0.0,0.0,2.32077548975e-05,0.0,0.0,0.0,0.0,0.0,0.0,2.32077548975e-05
1662436538273266077,297,1662436538273266077,odom_ekf,base_link,-0.0041795372963,0.0240849815309,0.0320939272642,0.00349515117977,0.00763330157253,-0.00332533830706,0.999959228544,0.00071030763109,0.0,0.0,0.0,0.0,0.0,0.0,0.00071030763109,0.0,0.0,0.0,0.0,0.0,0.0,0.00071030763109,0.0,0.0,0.0,0.0,0.0,0.0,7.1030763109e-05,0.0,0.0,0.0,0.0,0.0,0.0,7.1030763109e-05,0.0,0.0,0.0,0.0,0.0,0.0,7.1030763109e-05,0.178506910801,0.31283634901,0.355337321758,0.0679893270135,0.140877053142,-0.150438606739,0.000355153815545,0.0,0.0,0.0,0.0,0.0,0.0,0.000355153815545,0.0,0.0,0.0,0.0,0.0,0.0,0.000355153815545,0.0,0.0,0.0,0.0,0.0,0.0,3.55153815545e-05,0.0,0.0,0.0,0.0,0.0,0.0,3.55153815545e-05,0.0,0.0,0.0,0.0,0.0,0.0,3.55153815545e-05
1662436538365205526,298,1662436538365205526,odom_ekf,base_link,-0.00306858122349,0.0123542780057,0.0249579101801,-0.00054247924998,0.00584137770275,-0.000183135064425,0.999982775094,0.000242266907596,0.0,0.0,0.0,0.0,0.0,0.0,0.000242266907596,0.0,0.0,0.0,0.0,0.0,0.0,0.000242266907596,0.0,0.0,0.0,0.0,0.0,0.0,2.42266907596e-05,0.0,0.0,0.0,0.0,0.0,0.0,2.42266907596e-05,0.0,0.0,0.0,0.0,0.0,0.0,2.42266907596e-05,0.0141103100032,-0.128043279052,-0.0765230208635,-0.0883446633816,-0.038760509342,0.0679766535759,0.000121133453798,0.0,0.0,0.0,0.0,0.0,0.0,0.000121133453798,0.0,0.0,0.0,0.0,0.0,0.0,0.000121133453798,0.0,0.0,0.0,0.0,0.0,0.0,1.21133453798e-05,0.0,0.0,0.0,0.0,0.0,0.0,1.21133453798e-05,0.0,0.0,0.0,0.0,0.0,0.0,1.21133453798e-05
1662436538474209309,299,1662436538474209309,odom_ekf,base_link,0.00271216779947,0.0306110419333,0.00195512548089,0.00496952646395,0.00457587329174,-0.00542990069433,0.999962439979,0.0011614680975,0.0,0.0,0.0,0.0,0.0,0.0,0.0011614680975,0.0,0.0,0.0,0.0,0.0,0.0,0.0011614680975,0.0,0.0,0.0,0.0,0.0,0.0,0.00011614680975,0.0,0.0,0.0,0.0,0.0,0.0,0.00011614680975,0.0,0.0,0.0,0.0,0.0,0.0,0.00011614680975,0.0554318241775,0.167735800147,-0.21021194756,0.101818948984,-0.0226150956005,-0.095815308392,0.000580734048751,0.0,0.0,0.0,0.0,0.0,0.0,0.000580734048751,0.0,0.0,0.0,0.0,0.0,0.0,0.000580734048751,0.0,0.0,0.0,0.0,0.0,0.0,5.80734048751e-05,0.0,0.0,0.0,0.0,0.0,0.0,5.80734048751e-05,0.0,0.0,0.0,0.0,0.0,0.0,5.80734048751e-05
1662436538569033146,300,1662436538569033146,odom_ekf,base_link,-0.00489090429619,-0.000817075371742,0.0101982578635,8.32322416666e-05,0.00310140435238,-0.000192826685524,0.999995168579,0.000136858266594,0.0,0.0,0.0,0.0,0.0,0.0,0.000136858266594,0.0,0.0,0.0,0.0,0.0,0.0,0.000136858266594,0.0,0.0,0.0,0.0,0.0,0.0,1.36858266594e-05,0.0,0.0,0.0,0.0,0.0,0.0,1.36858266594e-05,0.0,0.0,0.0,0.0,0.0,0.0,1.36858266594e-05,-0.0773890390992,-0.331415683031,0.089504159987,-0.103558398783,-0.0305710621178,0.110293611884,6.84291332969e-05,0.0,0.0,0.0,0.0,0.0,0.0,6.84291332969e-05,0.0,0.0,0.0,0.0,0.0,0.0,6.84291332969e-05,0.0,0.0,0.0,0.0,0.0,0.0,6.84291332969e-06,0.0,0.0,0.0,0.0,0.0,0.0,6.84291332969e-06,0.0,0.0,0.0,0.0,0.0,0.0,6.84291332969e-06
1662436538661177874,301,1662436538661177874,odom_ekf,base_link,-0.0465420670807,-0.00813452899456,0.016450855881,0.00149896232236,0.00328235650176,0.00900701284228,0.999952925376,0.00210714101024,0.0,0.0,0.0,0.0,0.0,0.0,0.00210714101024,0.0,0.0,0.0,0.0,0.0,0.0,0.00210714101024,0.0,0.0,0.0,0.0,0.0,0.0,0.000210714101024,0.0,0.0,0.0,0.0,0.0,0.0,0.000210714101024,0.0,0.0,0.0,0.0,0.0,0.0,0.000210714101024,-0.452400505543,-0.0795759484172,0.0650645121932,0.0301433932036,0.00367563730106,0.199784338474,0.00105357050512,0.0,0.0,0.0,0.0,0.0,0.0,0.00105357050512,0.0,0.0,0.0,0.0,0.0,0.0,0.00105357050512,0.0,0.0,0.0,0.0,0.0,0.0,0.000105357050512,0.0,0.0,0.0,0.0,0.0,0.0,0.000105357050512,0.0,0.0,0.0,0.0,0.0,0.0,0.000105357050512
1662436538755717516,302,1662436538755717516,odom_ekf,base_link,-0.0189605131745,0.00333484914154,0.0181274805218,-0.00105266909793,0.00377164910523,0.00361852911273,0.999985786298,0.000609905795907,0.0,0.0,0.0,0.0,0.0,0.0,0.000609905795907,0.0,0.0,0.0,0.0,0.0,0.0,0.000609905795907,0.0,0.0,0.0,0.0,0.0,0.0,6.09905795907e-05,0.0,0.0,0.0,0.0,0.0,0.0,6.09905795907e-05,0.0,0.0,0.0,0.0,0.0,0.0,6.09905795907e-05,0.293762862682,0.116099774837,0.0193006545305,-0.0535680912435,0.0103745730594,-0.114214964211,0.000304952897953,0.0,0.0,0.0,0.0,0.0,0.0,0.000304952897953,0.0,0.0,0.0,0.0,0.0,0.0,0.000304952897953,0.0,0.0,0.0,0.0,0.0,0.0,3.04952897953e-05,0.0,0.0,0.0,0.0,0.0,0.0,3.04952897953e-05,0.0,0.0,0.0,0.0,0.0,0.0,3.04952897953e-05
1662436538864470959,303,1662436538864470959,odom_ekf,base_link,0.00285303220153,0.0346580035985,0.0295914672315,0.00370864895985,0.00342034940613,-0.00321225981446,0.9999821141,0.000529392592614,0.0,0.0,0.0,0.0,0.0,0.0,0.000529392592614,0.0,0.0,0.0,0.0,0.0,0.0,0.000529392592614,0.0,0.0,0.0,0.0,0.0,0.0,5.29392592614e-05,0.0,0.0,0.0,0.0,0.0,0.0,5.29392592614e-05,0.0,0.0,0.0,0.0,0.0,0.0,5.29392592614e-05,0.201853170991,0.286339491606,0.107535108924,0.0880543738604,-0.00604489026591,-0.125325605273,0.000264696296307,0.0,0.0,0.0,0.0,0.0,0.0,0.000264696296307,0.0,0.0,0.0,0.0,0.0,0.0,0.000264696296307,0.0,0.0,0.0,0.0,0.0,0.0,2.64696296307e-05,0.0,0.0,0.0,0.0,0.0,0.0,2.64696296307e-05,0.0,0.0,0.0,0.0,0.0,0.0,2.64696296307e-05
1662436538959465265,304,1662436538959465265,odom_ekf,base_link,0.0013156272471,0.00927423872054,-0.0160279646516,0.00019017959368,-0.000811064524145,-0.0021373494521,0.999997368868,0.000193787430158,0.0,0.0,0.0,0.0,0.0,0.0,0.000193787430158,0.0,0.0,0.0,0.0,0.0,0.0,0.000193787430158,0.0,0.0,0.0,0.0,0.0,0.0,1.93787430158e-05,0.0,0.0,0.0,0.0,0.0,0.0,1.93787430158e-05,0.0,0.0,0.0,0.0,0.0,0.0,1.93787430158e-05,-0.0111770443618,-0.27085646987,-0.478331357241,-0.0739669427276,-0.0891612619162,0.0230222884566,9.68937150791e-05,0.0,0.0,0.0,0.0,0.0,0.0,9.68937150791e-05,0.0,0.0,0.0,0.0,0.0,0.0,9.68937150791e-05,0.0,0.0,0.0,0.0,0.0,0.0,9.68937150791e-06,0.0,0.0,0.0,0.0,0.0,0.0,9.68937150791e-06,0.0,0.0,0.0,0.0,0.0,0.0,9.68937150791e-06
1662436539051496267,305,1662436539051496267,odom_ekf,base_link,0.00595078989863,0.0313144922256,-0.00223029684275,0.00281075616786,0.00210890574581,-0.00636263650379,0.999973584163,0.000758157740878,0.0,0.0,0.0,0.0,0.0,0.0,0.000758157740878,0.0,0.0,0.0,0.0,0.0,0.0,0.000758157740878,0.0,0.0,0.0,0.0,0.0,0.0,7.58157740878e-05,0.0,0.0,0.0,0.0,0.0,0.0,7.58157740878e-05,0.0,0.0,0.0,0.0,0.0,0.0,7.58157740878e-05,0.0495839677751,0.239757865667,0.149751916528,0.0564712658525,0.063799098134,-0.0917174145579,0.000379078870439,0.0,0.0,0.0,0.0,0.0,0.0,0.000379078870439,0.0,0.0,0.0,0.0,0.0,0.0,0.000379078870439,0.0,0.0,0.0,0.0,0.0,0.0,3.79078870439e-05,0.0,0.0,0.0,0.0,0.0,0.0,3.79078870439e-05,0.0,0.0,0.0,0.0,0.0,0.0,3.79078870439e-05
1662436539146426916,306,1662436539146426916,odom_ekf,base_link,0.0112779084593,0.0290074013174,0.0363071523607,0.00386766033432,0.0060493128465,-0.0063458027557,0.999954087849,0.000855140596116,0.0,0.0,0.0,0.0,0.0,0.0,0.000855140596116,0.0,0.0,0.0,0.0,0.0,0.0,0.000855140596116,0.0,0.0,0.0,0.0,0.0,0.0,8.55140596116e-05,0.0,0.0,0.0,0.0,0.0,0.0,8.55140596116e-05,0.0,0.0,0.0,0.0,0.0,0.0,8.55140596116e-05,0.0546931065619,-0.0213147103786,0.406315624714,0.0217396486551,0.0831578969955,0.000251458579442,0.000427570298058,0.0,0.0,0.0,0.0,0.0,0.0,0.000427570298058,0.0,0.0,0.0,0.0,0.0,0.0,0.000427570298058,0.0,0.0,0.0,0.0,0.0,0.0,4.27570298058e-05,0.0,0.0,0.0,0.0,0.0,0.0,4.27570298058e-05,0.0,0.0,0.0,0.0,0.0,0.0,4.27570298058e-05
1662436539241563320,307,1662436539241563320,odom_ekf,base_link,-0.00629122927785,-0.00675006583333,-0.00250778719783,-0.00323226038577,0.00144884494767,0.00134049025985,0.999992828188,0.0002119534192,0.0,0.0,0.0,0.0,0.0,0.0,0.0002119534192,0.0,0.0,0.0,0.0,0.0,0.0,0.0002119534192,0.0,0.0,0.0,0.0,0.0,0.0,2.119534192e-05,0.0,0.0,0.0,0.0,0.0,0.0,2.119534192e-05,0.0,0.0,0.0,0.0,0.0,0.0,2.119534192e-05,-0.174936383963,-0.381289988756,-0.407239466906,-0.150362744927,-0.0958845540881,0.161746770144,0.0001059767096,0.0,0.0,0.0,0.0,0.0,0.0,0.0001059767096,0.0,0.0,0.0,0.0,0.0,0.0,0.0001059767096,0.0,0.0,0.0,0.0,0.0,0.0,1.059767096e-05,0.0,0.0,0.0,0.0,0.0,0.0,1.059767096e-05,0.0,0.0,0.0,0.0,0.0,0.0,1.059767096e-05
1662436539350017071,308,1662436539350017071,odom_ekf,base_link,-0.0128199644387,0.0112542081624,-0.0157591514289,-0.00236693952639,-0.00157726425466,0.00115310803867,0.999995290077,0.000353215071465,0.0,0.0,0.0,0.0,0.0,0.0,0.000353215071465,0.0,0.0,0.0,0.0,0.0,0.0,0.000353215071465,0.0,0.0,0.0,0.0,0.0,0.0,3.53215071465e-05,0.0,0.0,0.0,0.0,0.0,0.0,3.53215071465e-05,0.0,0.0,0.0,0.0,0.0,0.0,3.53215071465e-05,-0.0593992471695,0.166956052184,-0.121281519532,0.0158988051116,-0.0558114387095,-0.00366094987839,0.000176607535732,0.0,0.0,0.0,0.0,0.0,0.0,0.000176607535732,0.0,0.0,0.0,0.0,0.0,0.0,0.000176607535732,0.0,0.0,0.0,0.0,0.0,0.0,1.76607535732e-05,0.0,0.0,0.0,0.0,0.0,0.0,1.76607535732e-05,0.0,0.0,0.0,0.0,0.0,0.0,1.76607535732e-05
1662436539442618847,309,1662436539442618847,odom_ekf,base_link,-0.0022968519479,0.0194548219442,0.0314881503582,0.00166995664139,0.00527492946799,-0.00170462570505,0.999983240167,0.00029639521239,0.0,0.0,0.0,0.0,0.0,0.0,0.00029639521239,0.0,0.0,0.0,0.0,0.0,0.0,0.00029639521239,0.0,0.0,0.0,0.0,0.0,0.0,2.9639521239e-05,0.0,0.0,0.0,0.0,0.0,0.0,2.9639521239e-05,0.0,0.0,0.0,0.0,0.0,0.0,2.9639521239e-05,0.115449085832,0.0858782455325,0.510271787643,0.0868449956179,0.148285016418,-0.0609133280814,0.000148197606195,0.0,0.0,0.0,0.0,0.0,0.0,0.000148197606195,0.0,0.0,0.0,0.0,0.0,0.0,0.000148197606195,0.0,0.0,0.0,0.0,0.0,0.0,1.48197606195e-05,0.0,0.0,0.0,0.0,0.0,0.0,1.48197606195e-05,0.0,0.0,0.0,0.0,0.0,0.0,1.48197606195e-05
1662436539537174225,310,1662436539537174225,odom_ekf,base_link,-6.66205305606e-05,0.00363088399172,0.00964571349323,-0.00118431896754,0.00418813521684,-0.00154275392355,0.999989338354,0.000262134300407,0.0,0.0,0.0,0.0,0.0,0.0,0.000262134300407,0.0,0.0,0.0,0.0,0.0,0.0,0.000262134300407,0.0,0.0,0.0,0.0,0.0,0.0,2.62134300407e-05,0.0,0.0,0.0,0.0,0.0,0.0,2.62134300407e-05,0.0,0.0,0.0,0.0,0.0,0.0,2.62134300407e-05,0.0265909526497,-0.168035626411,-0.230176746845,-0.0603542663157,-0.0230759046972,0.0032098046504,0.000131067150204,0.0,0.0,0.0,0.0,0.0,0.0,0.000131067150204,0.0,0.0,0.0,0.0,0.0,0.0,0.000131067150204,0.0,0.0,0.0,0.0,0.0,0.0,1.31067150204e-05,0.0,0.0,0.0,0.0,0.0,0.0,1.31067150204e-05,0.0,0.0,0.0,0.0,0.0,0.0,1.31067150204e-05
1662436539630473614,311,1662436539630473614,odom_ekf,base_link,-0.0100778397173,0.00455652363598,0.0225636381656,0.00348227080963,0.0029786361552,0.00207358894141,0.999987350793,0.000464785463582,0.0,0.0,0.0,0.0,0.0,0.0,0.000464785463582,0.0,0.0,0.0,0.0,0.0,0.0,0.000464785463582,0.0,0.0,0.0,0.0,0.0,0.0,4.64785463582e-05,0.0,0.0,0.0,0.0,0.0,0.0,4.64785463582e-05,0.0,0.0,0.0,0.0,0.0,0.0,4.64785463582e-05,-0.10848775506,0.00926135014743,0.137575641274,0.0996548607945,-0.0262263733894,0.0777877569199,0.000232392731791,0.0,0.0,0.0,0.0,0.0,0.0,0.000232392731791,0.0,0.0,0.0,0.0,0.0,0.0,0.000232392731791,0.0,0.0,0.0,0.0,0.0,0.0,2.32392731791e-05,0.0,0.0,0.0,0.0,0.0,0.0,2.32392731791e-05,0.0,0.0,0.0,0.0,0.0,0.0,2.32392731791e-05
1662436539728325844,312,1662436539728325844,odom_ekf,base_link,-0.00886212382466,0.000904611311853,0.00412225164473,0.00131782026626,0.00187663823738,0.0023453603929,0.999994620417,0.000390852741126,0.0,0.0,0.0,0.0,0.0,0.0,0.000390852741126,0.0,0.0,0.0,0.0,0.0,0.0,0.000390852741126,0.0,0.0,0.0,0.0,0.0,0.0,3.90852741126e-05,0.0,0.0,0.0,0.0,0.0,0.0,3.90852741126e-05,0.0,0.0,0.0,0.0,0.0,0.0,3.90852741126e-05,0.0133881065995,-0.0386855863035,-0.188120022416,-0.0443085283041,-0.0224008336663,0.00554958358407,0.000195426370563,0.0,0.0,0.0,0.0,0.0,0.0,0.000195426370563,0.0,0.0,0.0,0.0,0.0,0.0,0.000195426370563,0.0,0.0,0.0,0.0,0.0,0.0,1.95426370563e-05,0.0,0.0,0.0,0.0,0.0,0.0,1.95426370563e-05,0.0,0.0,0.0,0.0,0.0,0.0,1.95426370563e-05
1662436539833085537,313,1662436539833085537,odom_ekf,base_link,0.0163003169,0.0163418725133,0.00783304870129,-6.58945526013e-05,0.00450463863306,-0.00379352262918,0.999982656387,0.000457058328367,0.0,0.0,0.0,0.0,0.0,0.0,0.000457058328367,0.0,0.0,0.0,0.0,0.0,0.0,0.000457058328367,0.0,0.0,0.0,0.0,0.0,0.0,4.57058328367e-05,0.0,0.0,0.0,0.0,0.0,0.0,4.57058328367e-05,0.0,0.0,0.0,0.0,0.0,0.0,4.57058328367e-05,0.240746885538,0.146324843168,0.035937525332,-0.0263863988221,0.0499184541404,-0.11738409102,0.000228529164183,0.0,0.0,0.0,0.0,0.0,0.0,0.000228529164183,0.0,0.0,0.0,0.0,0.0,0.0,0.000228529164183,0.0,0.0,0.0,0.0,0.0,0.0,2.28529164183e-05,0.0,0.0,0.0,0.0,0.0,0.0,2.28529164183e-05,0.0,0.0,0.0,0.0,0.0,0.0,2.28529164183e-05
1662436539925781488,314,1662436539925781488,odom_ekf,base_link,0.0537061393261,0.0266114063561,0.00335565255955,-0.00480379002387,0.00325584731624,-0.00810450440442,0.9999503188,0.00134278227713,0.0,0.0,0.0,0.0,0.0,0.0,0.00134278227713,0.0,0.0,0.0,0.0,0.0,0.0,0.00134278227713,0.0,0.0,0.0,0.0,0.0,0.0,0.000134278227713,0.0,0.0,0.0,0.0,0.0,0.0,0.000134278227713,0.0,0.0,0.0,0.0,0.0,0.0,0.000134278227713,0.403099000454,0.11385346204,-0.0446535125375,-0.10158278048,-0.027761939913,-0.0933473259211,0.000671391138565,0.0,0.0,0.0,0.0,0.0,0.0,0.000671391138565,0.0,0.0,0.0,0.0,0.0,0.0,0.000671391138565,0.0,0.0,0.0,0.0,0.0,0.0,6.71391138565e-05,0.0,0.0,0.0,0.0,0.0,0.0,6.71391138565e-05,0.0,0.0,0.0,0.0,0.0,0.0,6.71391138565e-05
1662436540017940044,315,1662436540017940044,odom_ekf,base_link,0.043167643249,0.0169351641089,-0.00163320451975,-0.000717780101306,0.00104260641033,0.00199002067899,0.999997218787,0.000675414843711,0.0,0.0,0.0,0.0,0.0,0.0,0.000675414843711,0.0,0.0,0.0,0.0,0.0,0.0,0.000675414843711,0.0,0.0,0.0,0.0,0.0,0.0,6.75414843711e-05,0.0,0.0,0.0,0.0,0.0,0.0,6.75414843711e-05,0.0,0.0,0.0,0.0,0.0,0.0,6.75414843711e-05,-0.112281024456,-0.10630389303,-0.0558864213526,0.0878580361605,-0.0492550507188,0.218930661678,0.000337707421855,0.0,0.0,0.0,0.0,0.0,0.0,0.000337707421855,0.0,0.0,0.0,0.0,0.0,0.0,0.000337707421855,0.0,0.0,0.0,0.0,0.0,0.0,3.37707421855e-05,0.0,0.0,0.0,0.0,0.0,0.0,3.37707421855e-05,0.0,0.0,0.0,0.0,0.0,0.0,3.37707421855e-05
1662436540126356125,316,1662436540126356125,odom_ekf,base_link,0.0383735224605,0.000998862087727,0.0130720743909,0.00166774646991,0.0030772208815,0.00633320449851,0.999973819584,0.00113020079533,0.0,0.0,0.0,0.0,0.0,0.0,0.00113020079533,0.0,0.0,0.0,0.0,0.0,0.0,0.00113020079533,0.0,0.0,0.0,0.0,0.0,0.0,0.000113020079533,0.0,0.0,0.0,0.0,0.0,0.0,0.000113020079533,0.0,0.0,0.0,0.0,0.0,0.0,0.000113020079533,-0.0450872294605,-0.147008836269,0.135333299637,0.0441600307822,0.0371969938278,0.0802837908268,0.000565100397666,0.0,0.0,0.0,0.0,0.0,0.0,0.000565100397666,0.0,0.0,0.0,0.0,0.0,0.0,0.000565100397666,0.0,0.0,0.0,0.0,0.0,0.0,5.65100397666e-05,0.0,0.0,0.0,0.0,0.0,0.0,5.65100397666e-05,0.0,0.0,0.0,0.0,0.0,0.0,5.65100397666e-05
1662436540218841791,317,1662436540218841791,odom_ekf,base_link,0.0479153878987,-0.0127860866487,0.0126695958897,0.0011993433712,0.00326572492794,0.00891969063841,0.999954166817,0.00131374512944,0.0,0.0,0.0,0.0,0.0,0.0,0.00131374512944,0.0,0.0,0.0,0.0,0.0,0.0,0.00131374512944,0.0,0.0,0.0,0.0,0.0,0.0,0.000131374512944,0.0,0.0,0.0,0.0,0.0,0.0,0.000131374512944,0.0,0.0,0.0,0.0,0.0,0.0,0.000131374512944,0.101298369467,-0.150357186794,-0.00322322803549,-0.0102635528892,0.00426156818867,0.0558939725161,0.00065687256472,0.0,0.0,0.0,0.0,0.0,0.0,0.00065687256472,0.0,0.0,0.0,0.0,0.0,0.0,0.00065687256472,0.0,0.0,0.0,0.0,0.0,0.0,6.5687256472e-05,0.0,0.0,0.0,0.0,0.0,0.0,6.5687256472e-05,0.0,0.0,0.0,0.0,0.0,0.0,6.5687256472e-05
1662436540311506748,318,1662436540311506748,odom_ekf,base_link,0.0965095609426,0.00774428062141,-0.0187848359346,-0.00429890596082,-0.000486724473454,0.000410892576869,0.999990556792,0.00121537318725,0.0,0.0,0.0,0.0,0.0,0.0,0.00121537318725,0.0,0.0,0.0,0.0,0.0,0.0,0.00121537318725,0.0,0.0,0.0,0.0,0.0,0.0,0.000121537318725,0.0,0.0,0.0,0.0,0.0,0.0,0.000121537318725,0.0,0.0,0.0,0.0,0.0,0.0,0.000121537318725,0.530476212502,0.21133440733,-0.336516678333,-0.118103317916,-0.0811586380005,-0.183497697115,0.000607686593626,0.0,0.0,0.0,0.0,0.0,0.0,0.000607686593626,0.0,0.0,0.0,0.0,0.0,0.0,0.000607686593626,0.0,0.0,0.0,0.0,0.0,0.0,6.07686593626e-05,0.0,0.0,0.0,0.0,0.0,0.0,6.07686593626e-05,0.0,0.0,0.0,0.0,0.0,0.0,6.07686593626e-05
1662436540403841019,319,1662436540403841019,odom_ekf,base_link,0.124952830374,0.021726436913,-0.0384267494082,-0.00507052190927,-0.0031951596215,-0.00193192344404,0.999980174021,0.00135964538941,0.0,0.0,0.0,0.0,0.0,0.0,0.00135964538941,0.0,0.0,0.0,0.0,0.0,0.0,0.00135964538941,0.0,0.0,0.0,0.0,0.0,0.0,0.000135964538941,0.0,0.0,0.0,0.0,0.0,0.0,0.000135964538941,0.0,0.0,0.0,0.0,0.0,0.0,0.000135964538941,0.307965219021,0.15300129354,-0.211717218161,-0.0166256837547,-0.0584797486663,-0.0509452410042,0.000679822694706,0.0,0.0,0.0,0.0,0.0,0.0,0.000679822694706,0.0,0.0,0.0,0.0,0.0,0.0,0.000679822694706,0.0,0.0,0.0,0.0,0.0,0.0,6.79822694706e-05,0.0,0.0,0.0,0.0,0.0,0.0,6.79822694706e-05,0.0,0.0,0.0,0.0,0.0,0.0,6.79822694706e-05
1662436540514405966,320,1662436540514405966,odom_ekf,base_link,0.122953772545,0.0262099076062,-0.00940572284162,0.00245038314586,0.00149771188667,3.6465605829e-05,0.999995875567,0.0015088360505,0.0,0.0,0.0,0.0,0.0,0.0,0.0015088360505,0.0,0.0,0.0,0.0,0.0,0.0,0.0015088360505,0.0,0.0,0.0,0.0,0.0,0.0,0.00015088360505,0.0,0.0,0.0,0.0,0.0,0.0,0.00015088360505,0.0,0.0,0.0,0.0,0.0,0.0,0.00015088360505,-0.0165528096259,0.0378192029893,0.262987494469,0.136166259646,0.0847005397081,0.036240644753,0.00075441802525,0.0,0.0,0.0,0.0,0.0,0.0,0.00075441802525,0.0,0.0,0.0,0.0,0.0,0.0,0.00075441802525,0.0,0.0,0.0,0.0,0.0,0.0,7.5441802525e-05,0.0,0.0,0.0,0.0,0.0,0.0,7.5441802525e-05,0.0,0.0,0.0,0.0,0.0,0.0,7.5441802525e-05
1662436540607243299,321,1662436540607243299,odom_ekf,base_link,0.155355930328,0.0309089757502,-0.0289150569588,-0.00547617741019,-0.000974035445091,-0.000520999055596,0.999984395526,0.00133063720875,0.0,0.0,0.0,0.0,0.0,0.0,0.00133063720875,0.0,0.0,0.0,0.0,0.0,0.0,0.00133063720875,0.0,0.0,0.0,0.0,0.0,0.0,0.000133063720875,0.0,0.0,0.0,0.0,0.0,0.0,0.000133063720875,0.0,0.0,0.0,0.0,0.0,0.0,0.000133063720875,0.34965261817,0.0495627522469,-0.209344416857,-0.170718312263,-0.0533661544323,-0.0117122139782,0.000665318604377,0.0,0.0,0.0,0.0,0.0,0.0,0.000665318604377,0.0,0.0,0.0,0.0,0.0,0.0,0.000665318604377,0.0,0.0,0.0,0.0,0.0,0.0,6.65318604377e-05,0.0,0.0,0.0,0.0,0.0,0.0,6.65318604377e-05,0.0,0.0,0.0,0.0,0.0,0.0,6.65318604377e-05
1662436540699829102,322,1662436540699829102,odom_ekf,base_link,0.156872749329,0.0263669677079,-0.00153694860637,-0.000217231566212,0.00266871842299,0.00546508628292,0.999981481621,0.00189020126942,0.0,0.0,0.0,0.0,0.0,0.0,0.00189020126942,0.0,0.0,0.0,0.0,0.0,0.0,0.00189020126942,0.0,0.0,0.0,0.0,0.0,0.0,0.000189020126942,0.0,0.0,0.0,0.0,0.0,0.0,0.000189020126942,0.0,0.0,0.0,0.0,0.0,0.0,0.000189020126942,0.0170111730695,-0.0522753857076,0.295117795467,0.114153377712,0.077354490757,0.130039289594,0.000945100634708,0.0,0.0,0.0,0.0,0.0,0.0,0.000945100634708,0.0,0.0,0.0,0.0,0.0,0.0,0.000945100634708,0.0,0.0,0.0,0.0,0.0,0.0,9.45100634708e-05,0.0,0.0,0.0,0.0,0.0,0.0,9.45100634708e-05,0.0,0.0,0.0,0.0,0.0,0.0,9.45100634708e-05
1662436540792075872,323,1662436540792075872,odom_ekf,base_link,0.185636743903,0.0126490816474,0.00738328229636,-0.000850245468352,0.00180847429998,0.002999612996,0.999993504392,0.00104532800237,0.0,0.0,0.0,0.0,0.0,0.0,0.00104532800237,0.0,0.0,0.0,0.0,0.0,0.0,0.00104532800237,0.0,0.0,0.0,0.0,0.0,0.0,0.000104532800237,0.0,0.0,0.0,0.0,0.0,0.0,0.000104532800237,0.0,0.0,0.0,0.0,0.0,0.0,0.000104532800237,0.309651166201,-0.152147367597,0.0982928499579,-0.0136374905705,-0.0185983683914,-0.0534833595157,0.000522664001186,0.0,0.0,0.0,0.0,0.0,0.0,0.000522664001186,0.0,0.0,0.0,0.0,0.0,0.0,0.000522664001186,0.0,0.0,0.0,0.0,0.0,0.0,5.22664001186e-05,0.0,0.0,0.0,0.0,0.0,0.0,5.22664001186e-05,0.0,0.0,0.0,0.0,0.0,0.0,5.22664001186e-05
1662436540903059244,324,1662436540903059244,odom_ekf,base_link,0.193244606256,0.0169011875987,-0.0157703235745,-0.00130823631848,-0.000246587906659,0.00707868542064,0.999974059626,0.00184204229736,0.0,0.0,0.0,0.0,0.0,0.0,0.00184204229736,0.0,0.0,0.0,0.0,0.0,0.0,0.00184204229736,0.0,0.0,0.0,0.0,0.0,0.0,0.000184204229736,0.0,0.0,0.0,0.0,0.0,0.0,0.000184204229736,0.0,0.0,0.0,0.0,0.0,0.0,0.000184204229736,0.0695331916213,0.0382532961667,-0.208307474852,-0.00864869449288,-0.0370356366038,0.0734801068902,0.000921021148679,0.0,0.0,0.0,0.0,0.0,0.0,0.000921021148679,0.0,0.0,0.0,0.0,0.0,0.0,0.000921021148679,0.0,0.0,0.0,0.0,0.0,0.0,9.21021148679e-05,0.0,0.0,0.0,0.0,0.0,0.0,9.21021148679e-05,0.0,0.0,0.0,0.0,0.0,0.0,9.21021148679e-05
1662436540995206833,325,1662436540995206833,odom_ekf,base_link,0.235730782151,0.0205574501306,-0.0432881340384,-0.010825588028,-0.00158791481348,0.00386697548693,0.999932663568,0.00284530945111,0.0,0.0,0.0,0.0,0.0,0.0,0.00284530945111,0.0,0.0,0.0,0.0,0.0,0.0,0.00284530945111,0.0,0.0,0.0,0.0,0.0,0.0,0.000284530945111,0.0,0.0,0.0,0.0,0.0,0.0,0.000284530945111,0.0,0.0,0.0,0.0,0.0,0.0,0.000284530945111,0.461440324783,0.0339295715094,-0.298758774996,-0.206700727344,-0.0282211750746,-0.0694215297699,0.00142265472556,0.0,0.0,0.0,0.0,0.0,0.0,0.00142265472556,0.0,0.0,0.0,0.0,0.0,0.0,0.00142265472556,0.0,0.0,0.0,0.0,0.0,0.0,0.000142265472556,0.0,0.0,0.0,0.0,0.0,0.0,0.000142265472556,0.0,0.0,0.0,0.0,0.0,0.0,0.000142265472556
1662436541087677240,326,1662436541087677240,odom_ekf,base_link,0.237465053797,0.00278708711267,-0.0198140908033,-0.00855664361968,-0.000769369575333,0.0144320149964,0.999858944483,0.00288468639663,0.0,0.0,0.0,0.0,0.0,0.0,0.00288468639663,0.0,0.0,0.0,0.0,0.0,0.0,0.00288468639663,0.0,0.0,0.0,0.0,0.0,0.0,0.000288468639663,0.0,0.0,0.0,0.0,0.0,0.0,0.000288468639663,0.0,0.0,0.0,0.0,0.0,0.0,0.000288468639663,0.0180463269353,-0.197766110301,0.249574616551,0.0496409907937,0.0145128089935,0.228649049997,0.00144234319832,0.0,0.0,0.0,0.0,0.0,0.0,0.00144234319832,0.0,0.0,0.0,0.0,0.0,0.0,0.00144234319832,0.0,0.0,0.0,0.0,0.0,0.0,0.000144234319832,0.0,0.0,0.0,0.0,0.0,0.0,0.000144234319832,0.0,0.0,0.0,0.0,0.0,0.0,0.000144234319832
1662436541179664850,327,1662436541179664850,odom_ekf,base_link,0.311160862446,0.0377734676003,-0.039156101644,-0.0119713992249,-0.0014927198249,0.00199251641069,0.999925240839,0.00387580295473,0.0,0.0,0.0,0.0,0.0,0.0,0.00387580295473,0.0,0.0,0.0,0.0,0.0,0.0,0.00387580295473,0.0,0.0,0.0,0.0,0.0,0.0,0.000387580295473,0.0,0.0,0.0,0.0,0.0,0.0,0.000387580295473,0.0,0.0,0.0,0.0,0.0,0.0,0.000387580295473,0.811524510384,0.360615819693,-0.205167517066,-0.0744969248772,-0.0132659319788,-0.27048355341,0.00193790147737,0.0,0.0,0.0,0.0,0.0,0.0,0.00193790147737,0.0,0.0,0.0,0.0,0.0,0.0,0.00193790147737,0.0,0.0,0.0,0.0,0.0,0.0,0.000193790147737,0.0,0.0,0.0,0.0,0.0,0.0,0.000193790147737,0.0,0.0,0.0,0.0,0.0,0.0,0.000193790147737
1662436541288183689,328,1662436541288183689,odom_ekf,base_link,0.301307022572,0.0745168179274,-0.00218918919563,-0.00126749210548,0.00244208439776,-0.000861038193235,0.999995844142,0.0038719449144,0.0,0.0,0.0,0.0,0.0,0.0,0.0038719449144,0.0,0.0,0.0,0.0,0.0,0.0,0.0038719449144,0.0,0.0,0.0,0.0,0.0,0.0,0.00038719449144,0.0,0.0,0.0,0.0,0.0,0.0,0.00038719449144,0.0,0.0,0.0,0.0,0.0,0.0,0.00038719449144,-0.0884398594499,0.330690920353,0.34893015027,0.197141885757,0.0733041018248,-0.0512352436781,0.0019359724572,0.0,0.0,0.0,0.0,0.0,0.0,0.0019359724572,0.0,0.0,0.0,0.0,0.0,0.0,0.0019359724572,0.0,0.0,0.0,0.0,0.0,0.0,0.00019359724572,0.0,0.0,0.0,0.0,0.0,0.0,0.00019359724572,0.0,0.0,0.0,0.0,0.0,0.0,0.00019359724572
1662436541380450249,329,1662436541380450249,odom_ekf,base_link,0.336798191071,0.0674162507057,-0.0555527731776,0.00405368780336,-0.0052558447406,-0.00323247011007,0.999972747053,0.00355691338252,0.0,0.0,0.0,0.0,0.0,0.0,0.00355691338252,0.0,0.0,0.0,0.0,0.0,0.0,0.00355691338252,0.0,0.0,0.0,0.0,0.0,0.0,0.000355691338252,0.0,0.0,0.0,0.0,0.0,0.0,0.000355691338252,0.0,0.0,0.0,0.0,0.0,0.0,0.000355691338252,0.387610346079,-0.0748281106353,-0.576669633389,0.116016998887,-0.166421413422,-0.0522270128131,0.00177845669126,0.0,0.0,0.0,0.0,0.0,0.0,0.00177845669126,0.0,0.0,0.0,0.0,0.0,0.0,0.00177845669126,0.0,0.0,0.0,0.0,0.0,0.0,0.000177845669126,0.0,0.0,0.0,0.0,0.0,0.0,0.000177845669126,0.0,0.0,0.0,0.0,0.0,0.0,0.000177845669126
1662436541475290298,330,1662436541475290298,odom_ekf,base_link,0.369071394205,0.107917711139,-0.0746707469225,0.0121483611923,-0.00761113664828,-0.00636155037885,0.999877001734,0.00393894289842,0.0,0.0,0.0,0.0,0.0,0.0,0.00393894289842,0.0,0.0,0.0,0.0,0.0,0.0,0.00393894289842,0.0,0.0,0.0,0.0,0.0,0.0,0.000393894289842,0.0,0.0,0.0,0.0,0.0,0.0,0.000393894289842,0.0,0.0,0.0,0.0,0.0,0.0,0.000393894289842,0.335372418165,0.427571505308,-0.208596944809,0.170677393675,-0.0488526113331,-0.0670849084854,0.00196947144921,0.0,0.0,0.0,0.0,0.0,0.0,0.00196947144921,0.0,0.0,0.0,0.0,0.0,0.0,0.00196947144921,0.0,0.0,0.0,0.0,0.0,0.0,0.000196947144921,0.0,0.0,0.0,0.0,0.0,0.0,0.000196947144921,0.0,0.0,0.0,0.0,0.0,0.0,0.000196947144921
1662436541567421198,331,1662436541567421198,odom_ekf,base_link,0.338328361511,0.0637843161821,-0.124324530363,0.0147839091362,-0.0192274187632,0.00716593130749,0.99968014476,0.00360528361944,0.0,0.0,0.0,0.0,0.0,0.0,0.00360528361944,0.0,0.0,0.0,0.0,0.0,0.0,0.00360528361944,0.0,0.0,0.0,0.0,0.0,0.0,0.000360528361944,0.0,0.0,0.0,0.0,0.0,0.0,0.000360528361944,0.0,0.0,0.0,0.0,0.0,0.0,0.000360528361944,-0.335559934378,-0.496177613735,-0.522005140781,0.0577154234052,-0.249054431915,0.295590102673,0.00180264180972,0.0,0.0,0.0,0.0,0.0,0.0,0.00180264180972,0.0,0.0,0.0,0.0,0.0,0.0,0.00180264180972,0.0,0.0,0.0,0.0,0.0,0.0,0.000180264180972,0.0,0.0,0.0,0.0,0.0,0.0,0.000180264180972,0.0,0.0,0.0,0.0,0.0,0.0,0.000180264180972
1662436541659537315,332,1662436541659537315,odom_ekf,base_link,0.40069270134,0.0965473651886,-0.120877437294,0.00566469458039,-0.0175158247071,-0.00505817523683,0.999817744383,0.00362114117648,0.0,0.0,0.0,0.0,0.0,0.0,0.00362114117648,0.0,0.0,0.0,0.0,0.0,0.0,0.00362114117648,0.0,0.0,0.0,0.0,0.0,0.0,0.000362114117648,0.0,0.0,0.0,0.0,0.0,0.0,0.000362114117648,0.0,0.0,0.0,0.0,0.0,0.0,0.000362114117648,0.682788908482,0.346490293741,0.000883236760274,-0.203219294548,0.0322500653565,-0.262405484915,0.00181057058824,0.0,0.0,0.0,0.0,0.0,0.0,0.00181057058824,0.0,0.0,0.0,0.0,0.0,0.0,0.00181057058824,0.0,0.0,0.0,0.0,0.0,0.0,0.000181057058824,0.0,0.0,0.0,0.0,0.0,0.0,0.000181057058824,0.0,0.0,0.0,0.0,0.0,0.0,0.000181057058824
