%time,field.header.seq,field.header.stamp,field.header.frame_id,field.child_frame_id,field.pose.pose.position.x,field.pose.pose.position.y,field.pose.pose.position.z,field.pose.pose.orientation.x,field.pose.pose.orientation.y,field.pose.pose.orientation.z,field.pose.pose.orientation.w,field.pose.covariance0,field.pose.covariance1,field.pose.covariance2,field.pose.covariance3,field.pose.covariance4,field.pose.covariance5,field.pose.covariance6,field.pose.covariance7,field.pose.covariance8,field.pose.covariance9,field.pose.covariance10,field.pose.covariance11,field.pose.covariance12,field.pose.covariance13,field.pose.covariance14,field.pose.covariance15,field.pose.covariance16,field.pose.covariance17,field.pose.covariance18,field.pose.covariance19,field.pose.covariance20,field.pose.covariance21,field.pose.covariance22,field.pose.covariance23,field.pose.covariance24,field.pose.covariance25,field.pose.covariance26,field.pose.covariance27,field.pose.covariance28,field.pose.covariance29,field.pose.covariance30,field.pose.covariance31,field.pose.covariance32,field.pose.covariance33,field.pose.covariance34,field.pose.covariance35,field.twist.twist.linear.x,field.twist.twist.linear.y,field.twist.twist.linear.z,field.twist.twist.angular.x,field.twist.twist.angular.y,field.twist.twist.angular.z,field.twist.covariance0,field.twist.covariance1,field.twist.covariance2,field.twist.covariance3,field.twist.covariance4,field.twist.covariance5,field.twist.covariance6,field.twist.covariance7,field.twist.covariance8,field.twist.covariance9,field.twist.covariance10,field.twist.covariance11,field.twist.covariance12,field.twist.covariance13,field.twist.covariance14,field.twist.covariance15,field.twist.covariance16,field.twist.covariance17,field.twist.covariance18,field.twist.covariance19,field.twist.covariance20,field.twist.covariance21,field.twist.covariance22,field.twist.covariance23,field.twist.covariance24,field.twist.covariance25,field.twist.covariance26,field.twist.covariance27,field.twist.covariance28,field.twist.covariance29,field.twist.covariance30,field.twist.covariance31,field.twist.covariance32,field.twist.covariance33,field.twist.covariance34,field.twist.covariance35
1662436534205333948,0,1662436534205333948,icp_odom,base_link,0.0,0.0,0.0,0.0,0.0,0.0,1.0,19998.0,0.0,0.0,0.0,0.0,0.0,0.0,19998.0,0.0,0.0,0.0,0.0,0.0,0.0,19998.0,0.0,0.0,0.0,0.0,0.0,0.0,19998.0,0.0,0.0,0.0,0.0,0.0,0.0,19998.0,0.0,0.0,0.0,0.0,0.0,0.0,19998.0,0.0,0.0,0.0,0.0,0.0,0.0,9999.0,0.0,0.0,0.0,0.0,0.0,0.0,9999.0,0.0,0.0,0.0,0.0,0.0,0.0,9999.0,0.0,0.0,0.0,0.0,0.0,0.0,9999.0,0.0,0.0,0.0,0.0,0.0,0.0,9999.0,0.0,0.0,0.0,0.0,0.0,0.0,9999.0
1662436534298110247,1,1662436534298110247,icp_odom,base_link,0.00371039332822,0.00244950246997,-0.00190178083722,-0.000252376502203,-0.000563967093434,-0.0004625254584,0.999999702159,7.38945816754e-05,0.0,0.0,0.0,0.0,0.0,0.0,7.38945816754e-05,0.0,0.0,0.0,0.0,0.0,0.0,7.38945816754e-05,0.0,0.0,0.0,0.0,0.0,0.0,7.38945816754e-06,0.0,0.0,0.0,0.0,0.0,0.0,7.38945816754e-06,0.0,0.0,0.0,0.0,0.0,0.0,7.38945816754e-06,0.0399929024279,0.0264022443444,-0.0204985626042,-0.00543491728604,-0.012160083279,-0.00996770337224,3.69472908377e-05,0.0,0.0,0.0,0.0,0.0,0.0,3.69472908377e-05,0.0,0.0,0.0,0.0,0.0,0.0,3.69472908377e-05,0.0,0.0,0.0,0.0,0.0,0.0,3.69472908377e-06,0.0,0.0,0.0,0.0,0.0,0.0,3.69472908377e-06,0.0,0.0,0.0,0.0,0.0,0.0,3.69472908377e-06
1662436534390278578,2,1662436534390278578,icp_odom,base_link,-0.000278357416391,8.63966997713e-05,0.00123523792718,-0.000327927782072,1.84672257398e-05,0.000138301019194,0.999999936498,7.49381497514e-05,0.0,0.0,0.0,0.0,0.0,0.0,7.49381497514e-05,0.0,0.0,0.0,0.0,0.0,0.0,7.49381497514e-05,0.0,0.0,0.0,0.0,0.0,0.0,7.49381497514e-06,0.0,0.0,0.0,0.0,0.0,0.0,7.49381497514e-06,0.0,0.0,0.0,0.0,0.0,0.0,7.49381497514e-06,-0.043214648962,-0.0256962124258,0.0340715758502,-0.0016303176526,0.0126354238018,0.0130407568067,3.74690748757e-05,0.0,0.0,0.0,0.0,0.0,0.0,3.74690748757e-05,0.0,0.0,0.0,0.0,0.0,0.0,3.74690748757e-05,0.0,0.0,0.0,0.0,0.0,0.0,3.74690748757e-06,0.0,0.0,0.0,0.0,0.0,0.0,3.74690748757e-06,0.0,0.0,0.0,0.0,0.0,0.0,3.74690748757e-06
1662436534499031305,3,1662436534499031305,icp_odom,base_link,0.000188571517356,9.5579707704e-05,-0.000791850849055,-0.000190922081053,-0.000160076661637,9.80033839064e-05,0.99999996416,6.3424528153e-05,0.0,0.0,0.0,0.0,0.0,0.0,6.3424528153e-05,0.0,0.0,0.0,0.0,0.0,0.0,6.3424528153e-05,0.0,0.0,0.0,0.0,0.0,0.0,6.3424528153e-06,0.0,0.0,0.0,0.0,0.0,0.0,6.3424528153e-06,0.0,0.0,0.0,0.0,0.0,0.0,6.3424528153e-06,0.00429420499131,9.5476367278e-05,-0.0186392106116,0.00251927459612,-0.00328348646872,-0.000742567819543,3.17122640765e-05,0.0,0.0,0.0,0.0,0.0,0.0,3.17122640765e-05,0.0,0.0,0.0,0.0,0.0,0.0,3.17122640765e-05,0.0,0.0,0.0,0.0,0.0,0.0,3.17122640765e-06,0.0,0.0,0.0,0.0,0.0,0.0,3.17122640765e-06,0.0,0.0,0.0,0.0,0.0,0.0,3.17122640765e-06
1662436534593967438,4,1662436534593967438,icp_odom,base_link,-0.000236389343627,0.000272928475169,-0.00103323848452,-0.000380324357201,-0.000153877192347,0.000182635607091,0.99999989916,6.6630413603e-05,0.0,0.0,0.0,0.0,0.0,0.0,6.6630413603e-05,0.0,0.0,0.0,0.0,0.0,0.0,6.6630413603e-05,0.0,0.0,0.0,0.0,0.0,0.0,6.6630413603e-06,0.0,0.0,0.0,0.0,0.0,0.0,6.6630413603e-06,0.0,0.0,0.0,0.0,0.0,0.0,6.6630413603e-06,-0.00447672884911,0.00186993286479,-0.00254048476927,-0.00398978916928,0.000130991393235,0.00178356829565,3.33152068015e-05,0.0,0.0,0.0,0.0,0.0,0.0,3.33152068015e-05,0.0,0.0,0.0,0.0,0.0,0.0,3.33152068015e-05,0.0,0.0,0.0,0.0,0.0,0.0,3.33152068015e-06,0.0,0.0,0.0,0.0,0.0,0.0,3.33152068015e-06,0.0,0.0,0.0,0.0,0.0,0.0,3.33152068015e-06
1662436534686419010,5,1662436534686419010,icp_odom,base_link,0.000689949200023,0.000699124706443,-0.00155448098667,-0.000590095473897,-0.000228889201782,1.01017033043e-05,0.999999799647,7.69463302667e-05,0.0,0.0,0.0,0.0,0.0,0.0,7.69463302667e-05,0.0,0.0,0.0,0.0,0.0,0.0,7.69463302667e-05,0.0,0.0,0.0,0.0,0.0,0.0,7.69463302667e-06,0.0,0.0,0.0,0.0,0.0,0.0,7.69463302667e-06,0.0,0.0,0.0,0.0,0.0,0.0,7.69463302667e-06,0.010019665584,0.00461056875065,-0.00563758285716,-0.0045385598205,-0.00162126531359,-0.00373199535534,3.84731651333e-05,0.0,0.0,0.0,0.0,0.0,0.0,3.84731651333e-05,0.0,0.0,0.0,0.0,0.0,0.0,3.84731651333e-05,0.0,0.0,0.0,0.0,0.0,0.0,3.84731651333e-06,0.0,0.0,0.0,0.0,0.0,0.0,3.84731651333e-06,0.0,0.0,0.0,0.0,0.0,0.0,3.84731651333e-06
1662436534778669596,6,1662436534778669596,icp_odom,base_link,0.0004731627414,-0.000439136463683,-0.000604087952524,-0.000781018828219,-0.000152443220671,8.64487796701e-05,0.999999679649,5.75728547983e-05,0.0,0.0,0.0,0.0,0.0,0.0,5.75728547983e-05,0.0,0.0,0.0,0.0,0.0,0.0,5.75728547983e-05,0.0,0.0,0.0,0.0,0.0,0.0,5.75728547983e-06,0.0,0.0,0.0,0.0,0.0,0.0,5.75728547983e-06,0.0,0.0,0.0,0.0,0.0,0.0,5.75728547983e-06,-0.0023455102928,-0.0123508991674,0.0102888038382,-0.00413871044293,0.00165673578158,0.00165681936778,2.87864273992e-05,0.0,0.0,0.0,0.0,0.0,0.0,2.87864273992e-05,0.0,0.0,0.0,0.0,0.0,0.0,2.87864273992e-05,0.0,0.0,0.0,0.0,0.0,0.0,2.87864273992e-06,0.0,0.0,0.0,0.0,0.0,0.0,2.87864273992e-06,0.0,0.0,0.0,0.0,0.0,0.0,2.87864273992e-06
1662436534887255907,7,1662436534887255907,icp_odom,base_link,0.000304836372379,0.000643432780635,-0.000922046834603,-0.000576107154589,-2.84880069658e-05,9.67683815197e-05,0.999999828962,6.70853968989e-05,0.0,0.0,0.0,0.0,0.0,0.0,6.70853968989e-05,0.0,0.0,0.0,0.0,0.0,0.0,6.70853968989e-05,0.0,0.0,0.0,0.0,0.0,0.0,6.70853968989e-06,0.0,0.0,0.0,0.0,0.0,0.0,6.70853968989e-06,0.0,0.0,0.0,0.0,0.0,0.0,6.70853968989e-06,-0.00154932797886,0.00997449550778,-0.0029121178668,0.00377442175522,0.00228255847469,0.000191747079953,3.35426984495e-05,0.0,0.0,0.0,0.0,0.0,0.0,3.35426984495e-05,0.0,0.0,0.0,0.0,0.0,0.0,3.35426984495e-05,0.0,0.0,0.0,0.0,0.0,0.0,3.35426984495e-06,0.0,0.0,0.0,0.0,0.0,0.0,3.35426984495e-06,0.0,0.0,0.0,0.0,0.0,0.0,3.35426984495e-06
1662436534979564190,8,1662436534979564190,icp_odom,base_link,0.000368758366676,0.0012539352756,-0.00101833487861,-0.000689288649283,2.52919732096e-05,2.90871536242e-05,0.999999761698,5.95324861055e-05,0.0,0.0,0.0,0.0,0.0,0.0,5.95324861055e-05,0.0,0.0,0.0,0.0,0.0,0.0,5.95324861055e-05,0.0,0.0,0.0,0.0,0.0,0.0,5.95324861055e-06,0.0,0.0,0.0,0.0,0.0,0.0,5.95324861055e-06,0.0,0.0,0.0,0.0,0.0,0.0,5.95324861055e-06,0.000693704816513,0.00661479728296,-0.00103553279769,-0.00245225918479,0.00116614135914,-0.00146580755245,2.97662430527e-05,0.0,0.0,0.0,0.0,0.0,0.0,2.97662430527e-05,0.0,0.0,0.0,0.0,0.0,0.0,2.97662430527e-05,0.0,0.0,0.0,0.0,0.0,0.0,2.97662430527e-06,0.0,0.0,0.0,0.0,0.0,0.0,2.97662430527e-06,0.0,0.0,0.0,0.0,0.0,0.0,2.97662430527e-06
1662436535071857452,9,1662436535071857452,icp_odom,base_link,0.000146189442603,0.00144504942,0.000205609481782,-0.000633486526704,0.000274411586092,0.000135282669668,0.999999752546,5.61110687841e-05,0.0,0.0,0.0,0.0,0.0,0.0,5.61110687841e-05,0.0,0.0,0.0,0.0,0.0,0.0,5.61110687841e-05,0.0,0.0,0.0,0.0,0.0,0.0,5.61110687841e-06,0.0,0.0,0.0,0.0,0.0,0.0,5.61110687841e-06,0.0,0.0,0.0,0.0,0.0,0.0,5.61110687841e-06,-0.00241209124215,0.00205258326605,0.0132641913369,0.00120990839787,0.00539668416604,0.0023053153418,2.8055534392e-05,0.0,0.0,0.0,0.0,0.0,0.0,2.8055534392e-05,0.0,0.0,0.0,0.0,0.0,0.0,2.8055534392e-05,0.0,0.0,0.0,0.0,0.0,0.0,2.8055534392e-06,0.0,0.0,0.0,0.0,0.0,0.0,2.8055534392e-06,0.0,0.0,0.0,0.0,0.0,0.0,2.8055534392e-06
1662436535180202246,10,1662436535180202246,icp_odom,base_link,0.000458437658381,0.00119790469762,-0.000746475474443,-0.000560911350471,2.07180799782e-05,-5.79169379652e-05,0.999999840797,6.53181647795e-05,0.0,0.0,0.0,0.0,0.0,0.0,6.53181647795e-05,0.0,0.0,0.0,0.0,0.0,0.0,6.53181647795e-05,0.0,0.0,0.0,0.0,0.0,0.0,6.53181647795e-06,0.0,0.0,0.0,0.0,0.0,0.0,6.53181647795e-06,0.0,0.0,0.0,0.0,0.0,0.0,6.53181647795e-06,0.00288619380444,-0.00227074045688,-0.00878884736449,0.00134096143302,-0.00468073925003,-0.00356932263821,3.26590823897e-05,0.0,0.0,0.0,0.0,0.0,0.0,3.26590823897e-05,0.0,0.0,0.0,0.0,0.0,0.0,3.26590823897e-05,0.0,0.0,0.0,0.0,0.0,0.0,3.26590823897e-06,0.0,0.0,0.0,0.0,0.0,0.0,3.26590823897e-06,0.0,0.0,0.0,0.0,0.0,0.0,3.26590823897e-06
1662436535272501469,11,1662436535272501469,icp_odom,base_link,0.000924346153624,-0.000361489597708,0.00010148761794,-0.000669468034186,0.000174104634513,0.00029800628235,0.999999716346,6.34660339195e-05,0.0,0.0,0.0,0.0,0.0,0.0,6.34660339195e-05,0.0,0.0,0.0,0.0,0.0,0.0,6.34660339195e-05,0.0,0.0,0.0,0.0,0.0,0.0,6.34660339195e-06,0.0,0.0,0.0,0.0,0.0,0.0,6.34660339195e-06,0.0,0.0,0.0,0.0,0.0,0.0,6.34660339195e-06,0.00504938233644,-0.0169047005475,0.00916836038232,-0.00235144863836,0.00332005484961,0.00771383196115,3.17330169598e-05,0.0,0.0,0.0,0.0,0.0,0.0,3.17330169598e-05,0.0,0.0,0.0,0.0,0.0,0.0,3.17330169598e-05,0.0,0.0,0.0,0.0,0.0,0.0,3.17330169598e-06,0.0,0.0,0.0,0.0,0.0,0.0,3.17330169598e-06,0.0,0.0,0.0,0.0,0.0,0.0,3.17330169598e-06
1662436535367300510,12,1662436535367300510,icp_odom,base_link,0.00228665815666,0.00169726507738,0.000300298648654,-0.000312815330366,0.00030051989228,1.85596379429e-05,0.999999905745,6.43352816143e-05,0.0,0.0,0.0,0.0,0.0,0.0,6.43352816143e-05,0.0,0.0,0.0,0.0,0.0,0.0,6.43352816143e-05,0.0,0.0,0.0,0.0,0.0,0.0,6.43352816143e-06,0.0,0.0,0.0,0.0,0.0,0.0,6.43352816143e-06,0.0,0.0,0.0,0.0,0.0,0.0,6.43352816143e-06,0.0143827274442,0.0217056404799,0.00213126000017,0.00752547103912,0.00267082010396,-0.00589151028544,3.21676408072e-05,0.0,0.0,0.0,0.0,0.0,0.0,3.21676408072e-05,0.0,0.0,0.0,0.0,0.0,0.0,3.21676408072e-05,0.0,0.0,0.0,0.0,0.0,0.0,3.21676408072e-06,0.0,0.0,0.0,0.0,0.0,0.0,3.21676408072e-06,0.0,0.0,0.0,0.0,0.0,0.0,3.21676408072e-06
1662436535459254980,13,1662436535459254980,icp_odom,base_link,0.0026596125681,0.00120968394913,-0.000125016376842,-0.00052364771719,0.000186680929983,4.9638245186e-05,0.99999984424,7.06915110431e-05,0.0,0.0,0.0,0.0,0.0,0.0,7.06915110431e-05,0.0,0.0,0.0,0.0,0.0,0.0,7.06915110431e-05,0.0,0.0,0.0,0.0,0.0,0.0,7.06915110431e-06,0.0,0.0,0.0,0.0,0.0,0.0,7.06915110431e-06,0.0,0.0,0.0,0.0,0.0,0.0,7.06915110431e-06,0.00405844347551,-0.00529967574403,-0.00462615629658,-0.00458590732887,-0.00247596926056,0.000674325739965,3.53457555216e-05,0.0,0.0,0.0,0.0,0.0,0.0,3.53457555216e-05,0.0,0.0,0.0,0.0,0.0,0.0,3.53457555216e-05,0.0,0.0,0.0,0.0,0.0,0.0,3.53457555216e-06,0.0,0.0,0.0,0.0,0.0,0.0,3.53457555216e-06,0.0,0.0,0.0,0.0,0.0,0.0,3.53457555216e-06
1662436535567904711,14,1662436535567904711,icp_odom,base_link,0.00162794953212,0.00160522642545,0.000792390026618,-0.000563945797272,0.000311420626105,4.0404128668e-05,0.999999791675,5.49718288926e-05,0.0,0.0,0.0,0.0,0.0,0.0,5.49718288926e-05,0.0,0.0,0.0,0.0,0.0,0.0,5.49718288926e-05,0.0,0.0,0.0,0.0,0.0,0.0,5.49718288926e-06,0.0,0.0,0.0,0.0,0.0,0.0,5.49718288926e-06,0.0,0.0,0.0,0.0,0.0,0.0,5.49718288926e-06,-0.00949810352176,0.00363262882456,0.00844396837056,-0.000741672876757,0.00229629850946,-0.000169008271769,2.74859144463e-05,0.0,0.0,0.0,0.0,0.0,0.0,2.74859144463e-05,0.0,0.0,0.0,0.0,0.0,0.0,2.74859144463e-05,0.0,0.0,0.0,0.0,0.0,0.0,2.74859144463e-06,0.0,0.0,0.0,0.0,0.0,0.0,2.74859144463e-06,0.0,0.0,0.0,0.0,0.0,0.0,2.74859144463e-06
1662436535665911198,15,1662436535665911198,icp_odom,base_link,0.00120330159552,0.00219174125232,0.000298789003864,-0.000372620252643,0.000245430358816,2.81684127603e-05,0.999999900062,7.62863834604e-05,0.0,0.0,0.0,0.0,0.0,0.0,7.62863834604e-05,0.0,0.0,0.0,0.0,0.0,0.0,7.62863834604e-05,0.0,0.0,0.0,0.0,0.0,0.0,7.62863834604e-06,0.0,0.0,0.0,0.0,0.0,0.0,7.62863834604e-06,0.0,0.0,0.0,0.0,0.0,0.0,7.62863834604e-06,-0.00432923622429,0.00599047727883,-0.00503235589713,0.00390438595787,-0.00134662142955,-0.000249493255978,3.81431917302e-05,0.0,0.0,0.0,0.0,0.0,0.0,3.81431917302e-05,0.0,0.0,0.0,0.0,0.0,0.0,3.81431917302e-05,0.0,0.0,0.0,0.0,0.0,0.0,3.81431917302e-06,0.0,0.0,0.0,0.0,0.0,0.0,3.81431917302e-06,0.0,0.0,0.0,0.0,0.0,0.0,3.81431917302e-06
1662436535757877350,16,1662436535757877350,icp_odom,base_link,0.00164679589216,0.00332607328892,-0.00034020160092,-0.000540336873792,0.000305436872963,-1.6683788609e-05,0.999999807233,9.0584819369e-05,0.0,0.0,0.0,0.0,0.0,0.0,9.0584819369e-05,0.0,0.0,0.0,0.0,0.0,0.0,9.0584819369e-05,0.0,0.0,0.0,0.0,0.0,0.0,9.0584819369e-06,0.0,0.0,0.0,0.0,0.0,0.0,9.0584819369e-06,0.0,0.0,0.0,0.0,0.0,0.0,9.0584819369e-06,0.00482646748424,0.0123391374946,-0.00693654455245,-0.0036471367348,0.00130527163856,-0.000976034323685,4.52924096845e-05,0.0,0.0,0.0,0.0,0.0,0.0,4.52924096845e-05,0.0,0.0,0.0,0.0,0.0,0.0,4.52924096845e-05,0.0,0.0,0.0,0.0,0.0,0.0,4.52924096845e-06,0.0,0.0,0.0,0.0,0.0,0.0,4.52924096845e-06,0.0,0.0,0.0,0.0,0.0,0.0,4.52924096845e-06
1662436535850530624,17,1662436535850530624,icp_odom,base_link,0.00250648520887,0.00314822280779,0.00245035486296,-0.000621500861726,0.000662772613646,-8.90075273361e-06,0.999999587195,8.35002750502e-05,0.0,0.0,0.0,0.0,0.0,0.0,8.35002750502e-05,0.0,0.0,0.0,0.0,0.0,0.0,8.35002750502e-05,0.0,0.0,0.0,0.0,0.0,0.0,8.35002750502e-06,0.0,0.0,0.0,0.0,0.0,0.0,8.35002750502e-06,0.0,0.0,0.0,0.0,0.0,0.0,8.35002750502e-06,0.00926023069769,-0.00195176806301,0.0301218423992,-0.00175211287569,0.00771328900009,0.000171010062331,4.17501375251e-05,0.0,0.0,0.0,0.0,0.0,0.0,4.17501375251e-05,0.0,0.0,0.0,0.0,0.0,0.0,4.17501375251e-05,0.0,0.0,0.0,0.0,0.0,0.0,4.17501375251e-06,0.0,0.0,0.0,0.0,0.0,0.0,4.17501375251e-06,0.0,0.0,0.0,0.0,0.0,0.0,4.17501375251e-06
1662436535944684744,18,1662436535944684744,icp_odom,base_link,0.00208191247657,0.00310619175434,0.00150761287659,-0.000486062723543,0.000578061792763,-0.000146808292298,0.999999704017,8.45657219365e-05,0.0,0.0,0.0,0.0,0.0,0.0,8.45657219365e-05,0.0,0.0,0.0,0.0,0.0,0.0,8.45657219365e-05,0.0,0.0,0.0,0.0,0.0,0.0,8.45657219365e-06,0.0,0.0,0.0,0.0,0.0,0.0,8.45657219365e-06,0.0,0.0,0.0,0.0,0.0,0.0,8.45657219365e-06,-0.0044960542582,-0.000434037676314,-0.0100192697719,0.00287915137596,-0.00179716583807,-0.00292885373347,4.22828609683e-05,0.0,0.0,0.0,0.0,0.0,0.0,4.22828609683e-05,0.0,0.0,0.0,0.0,0.0,0.0,4.22828609683e-05,0.0,0.0,0.0,0.0,0.0,0.0,4.22828609683e-06,0.0,0.0,0.0,0.0,0.0,0.0,4.22828609683e-06,0.0,0.0,0.0,0.0,0.0,0.0,4.22828609683e-06
1662436536039669991,19,1662436536039669991,icp_odom,base_link,0.0022665199358,0.0024583756458,0.00103600276634,-0.000424204562405,0.000543782744904,-0.000138288225043,0.999999752614,8.4808135317e-05,0.0,0.0,0.0,0.0,0.0,0.0,8.4808135317e-05,0.0,0.0,0.0,0.0,0.0,0.0,8.4808135317e-05,0.0,0.0,0.0,0.0,0.0,0.0,8.4808135317e-06,0.0,0.0,0.0,0.0,0.0,0.0,8.4808135317e-06,0.0,0.0,0.0,0.0,0.0,0.0,8.4808135317e-06,0.00195128167979,-0.0068147755228,-0.00496946461499,0.00130247767083,-0.000721687101759,0.00017975573428,4.24040676585e-05,0.0,0.0,0.0,0.0,0.0,0.0,4.24040676585e-05,0.0,0.0,0.0,0.0,0.0,0.0,4.24040676585e-05,0.0,0.0,0.0,0.0,0.0,0.0,4.24040676585e-06,0.0,0.0,0.0,0.0,0.0,0.0,4.24040676585e-06,0.0,0.0,0.0,0.0,0.0,0.0,4.24040676585e-06
1662436536148415327,20,1662436536148415327,icp_odom,base_link,0.00214712275192,0.00168186193332,0.000604389933869,-0.000613048428534,0.000570763574399,-7.89406470748e-05,0.999999646084,8.9167884916e-05,0.0,0.0,0.0,0.0,0.0,0.0,8.9167884916e-05,0.0,0.0,0.0,0.0,0.0,0.0,8.9167884916e-05,0.0,0.0,0.0,0.0,0.0,0.0,8.9167884916e-06,0.0,0.0,0.0,0.0,0.0,0.0,8.9167884916e-06,0.0,0.0,0.0,0.0,0.0,0.0,8.9167884916e-06,-0.00109165767208,-0.00713759567589,-0.00397627102211,-0.00347377010621,0.000495481945109,0.00108972459566,4.4583942458e-05,0.0,0.0,0.0,0.0,0.0,0.0,4.4583942458e-05,0.0,0.0,0.0,0.0,0.0,0.0,4.4583942458e-05,0.0,0.0,0.0,0.0,0.0,0.0,4.4583942458e-06,0.0,0.0,0.0,0.0,0.0,0.0,4.4583942458e-06,0.0,0.0,0.0,0.0,0.0,0.0,4.4583942458e-06
1662436536241037130,21,1662436536241037130,icp_odom,base_link,0.0023883106187,0.000538581050932,0.00127874535974,-0.00064330320838,0.000807293660844,-2.52579056819e-05,0.9999994669,7.31588011212e-05,0.0,0.0,0.0,0.0,0.0,0.0,7.31588011212e-05,0.0,0.0,0.0,0.0,0.0,0.0,7.31588011212e-05,0.0,0.0,0.0,0.0,0.0,0.0,7.31588011212e-06,0.0,0.0,0.0,0.0,0.0,0.0,7.31588011212e-06,0.0,0.0,0.0,0.0,0.0,0.0,7.31588011212e-06,0.00259765284136,-0.0123520484194,0.00726857129484,-0.000654088275041,0.00510671082884,0.00116178463213,3.65794005606e-05,0.0,0.0,0.0,0.0,0.0,0.0,3.65794005606e-05,0.0,0.0,0.0,0.0,0.0,0.0,3.65794005606e-05,0.0,0.0,0.0,0.0,0.0,0.0,3.65794005606e-06,0.0,0.0,0.0,0.0,0.0,0.0,3.65794005606e-06,0.0,0.0,0.0,0.0,0.0,0.0,3.65794005606e-06
1662436536335441113,22,1662436536335441113,icp_odom,base_link,0.00209177704528,0.0014774329029,0.00176436349284,-0.000793410369748,0.000854138522294,-9.57625891843e-05,0.999999315888,8.4448280065e-05,0.0,0.0,0.0,0.0,0.0,0.0,8.4448280065e-05,0.0,0.0,0.0,0.0,0.0,0.0,8.4448280065e-05,0.0,0.0,0.0,0.0,0.0,0.0,8.4448280065e-06,0.0,0.0,0.0,0.0,0.0,0.0,8.4448280065e-06,0.0,0.0,0.0,0.0,0.0,0.0,8.4448280065e-06,-0.00314992549829,0.00993826240301,0.00515175517648,-0.00317899067886,0.000993090914562,-0.00149575725663,4.22241400325e-05,0.0,0.0,0.0,0.0,0.0,0.0,4.22241400325e-05,0.0,0.0,0.0,0.0,0.0,0.0,4.22241400325e-05,0.0,0.0,0.0,0.0,0.0,0.0,4.22241400325e-06,0.0,0.0,0.0,0.0,0.0,0.0,4.22241400325e-06,0.0,0.0,0.0,0.0,0.0,0.0,4.22241400325e-06
1662436536427698135,23,1662436536427698135,icp_odom,base_link,0.00152005953714,0.00038405356463,0.00156821729615,-0.000688341895649,0.000899221927775,0.00018536601153,0.999999341612,7.73721034316e-05,0.0,0.0,0.0,0.0,0.0,0.0,7.73721034316e-05,0.0,0.0,0.0,0.0,0.0,0.0,7.73721034316e-05,0.0,0.0,0.0,0.0,0.0,0.0,7.73721034316e-06,0.0,0.0,0.0,0.0,0.0,0.0,7.73721034316e-06,0.0,0.0,0.0,0.0,0.0,0.0,7.73721034316e-06,-0.00619108090177,-0.0118492376059,-0.00215547042899,0.00227270857431,0.000972085923422,0.00609728461131,3.86860517158e-05,0.0,0.0,0.0,0.0,0.0,0.0,3.86860517158e-05,0.0,0.0,0.0,0.0,0.0,0.0,3.86860517158e-05,0.0,0.0,0.0,0.0,0.0,0.0,3.86860517158e-06,0.0,0.0,0.0,0.0,0.0,0.0,3.86860517158e-06,0.0,0.0,0.0,0.0,0.0,0.0,3.86860517158e-06
1662436536536708832,24,1662436536536708832,icp_odom,base_link,0.00139736291021,0.00153505336493,0.0021572499536,-0.000695229052291,0.00103941255433,1.33684682502e-07,0.999999218139,7.66361949311e-05,0.0,0.0,0.0,0.0,0.0,0.0,7.66361949311e-05,0.0,0.0,0.0,0.0,0.0,0.0,7.66361949311e-05,0.0,0.0,0.0,0.0,0.0,0.0,7.66361949311e-06,0.0,0.0,0.0,0.0,0.0,0.0,7.66361949311e-06,0.0,0.0,0.0,0.0,0.0,0.0,7.66361949311e-06,-0.00113136204891,0.0105515662581,0.0054159401916,-0.000123302263091,0.00257439306006,-0.00339678279124,3.83180974655e-05,0.0,0.0,0.0,0.0,0.0,0.0,3.83180974655e-05,0.0,0.0,0.0,0.0,0.0,0.0,3.83180974655e-05,0.0,0.0,0.0,0.0,0.0,0.0,3.83180974655e-06,0.0,0.0,0.0,0.0,0.0,0.0,3.83180974655e-06,0.0,0.0,0.0,0.0,0.0,0.0,3.83180974655e-06
1662436536631297112,25,1662436536631297112,icp_odom,base_link,0.00168583833147,0.00189104210585,0.00259858625941,-0.000825131347057,0.00110839832758,0.000126641859979,0.999999037286,8.52342283475e-05,0.0,0.0,0.0,0.0,0.0,0.0,8.52342283475e-05,0.0,0.0,0.0,0.0,0.0,0.0,8.52342283475e-05,0.0,0.0,0.0,0.0,0.0,0.0,8.52342283475e-06,0.0,0.0,0.0,0.0,0.0,0.0,8.52342283475e-06,0.0,0.0,0.0,0.0,0.0,0.0,8.52342283475e-06,0.00304008997045,0.00375706492923,0.00467742467299,-0.00274928519502,0.00145714462269,0.00267289066687,4.26171141738e-05,0.0,0.0,0.0,0.0,0.0,0.0,4.26171141738e-05,0.0,0.0,0.0,0.0,0.0,0.0,4.26171141738e-05,0.0,0.0,0.0,0.0,0.0,0.0,4.26171141738e-06,0.0,0.0,0.0,0.0,0.0,0.0,4.26171141738e-06,0.0,0.0,0.0,0.0,0.0,0.0,4.26171141738e-06
1662436536723398209,26,1662436536723398209,icp_odom,base_link,0.0021605216898,0.0015263534151,0.00168304680847,-0.000925172169504,0.00099976873268,-4.33480750093e-05,0.99999907132,6.42300330213e-05,0.0,0.0,0.0,0.0,0.0,0.0,6.42300330213e-05,0.0,0.0,0.0,0.0,0.0,0.0,6.42300330213e-05,0.0,0.0,0.0,0.0,0.0,0.0,6.42300330213e-06,0.0,0.0,0.0,0.0,0.0,0.0,6.42300330213e-06,0.0,0.0,0.0,0.0,0.0,0.0,6.42300330213e-06,0.00517496746033,-0.00394456274807,-0.00993566494435,-0.00216821371578,-0.00235596904531,-0.00369549286552,3.21150165107e-05,0.0,0.0,0.0,0.0,0.0,0.0,3.21150165107e-05,0.0,0.0,0.0,0.0,0.0,0.0,3.21150165107e-05,0.0,0.0,0.0,0.0,0.0,0.0,3.21150165107e-06,0.0,0.0,0.0,0.0,0.0,0.0,3.21150165107e-06,0.0,0.0,0.0,0.0,0.0,0.0,3.21150165107e-06
1662436536818505764,27,1662436536818505764,icp_odom,base_link,0.00168992462568,0.00173070922028,0.00104914919939,-0.00097348805355,0.00101006362988,-5.77764752415e-05,0.999999014377,7.87250839468e-05,0.0,0.0,0.0,0.0,0.0,0.0,7.87250839468e-05,0.0,0.0,0.0,0.0,0.0,0.0,7.87250839468e-05,0.0,0.0,0.0,0.0,0.0,0.0,7.87250839468e-06,0.0,0.0,0.0,0.0,0.0,0.0,7.87250839468e-06,0.0,0.0,0.0,0.0,0.0,0.0,7.87250839468e-06,-0.00493490509689,0.00216059107333,-0.00667095417157,-0.00101573136635,0.000216706859646,-0.000304237823002,3.93625419734e-05,0.0,0.0,0.0,0.0,0.0,0.0,3.93625419734e-05,0.0,0.0,0.0,0.0,0.0,0.0,3.93625419734e-05,0.0,0.0,0.0,0.0,0.0,0.0,3.93625419734e-06,0.0,0.0,0.0,0.0,0.0,0.0,3.93625419734e-06,0.0,0.0,0.0,0.0,0.0,0.0,3.93625419734e-06
1662436536910820007,28,1662436536910820007,icp_odom,base_link,0.00176235008985,0.00227962713689,0.00171410059556,-0.00100165679848,0.00108624275016,-0.000129465707894,0.999998899999,9.48402032041e-05,0.0,0.0,0.0,0.0,0.0,0.0,9.48402032041e-05,0.0,0.0,0.0,0.0,0.0,0.0,9.48402032041e-05,0.0,0.0,0.0,0.0,0.0,0.0,9.48402032041e-06,0.0,0.0,0.0,0.0,0.0,0.0,9.48402032041e-06,0.0,0.0,0.0,0.0,0.0,0.0,9.48402032041e-06,0.00076930236537,0.00593224167824,0.00721626263112,-0.000608920410741,0.0016518603079,-0.0015522101894,4.7420101602e-05,0.0,0.0,0.0,0.0,0.0,0.0,4.7420101602e-05,0.0,0.0,0.0,0.0,0.0,0.0,4.7420101602e-05,0.0,0.0,0.0,0.0,0.0,0.0,4.7420101602e-06,0.0,0.0,0.0,0.0,0.0,0.0,4.7420101602e-06,0.0,0.0,0.0,0.0,0.0,0.0,4.7420101602e-06
1662436537018997192,29,1662436537018997192,icp_odom,base_link,0.00198345584795,0.00268622883596,0.00153244438116,-0.0011967997657,0.0011235718695,-5.51295023068e-05,0.999998651108,8.92937776379e-05,0.0,0.0,0.0,0.0,0.0,0.0,8.92937776379e-05,0.0,0.0,0.0,0.0,0.0,0.0,8.92937776379e-05,0.0,0.0,0.0,0.0,0.0,0.0,8.92937776379e-06,0.0,0.0,0.0,0.0,0.0,0.0,8.92937776379e-06,0.0,0.0,0.0,0.0,0.0,0.0,8.92937776379e-06,0.00204658461735,0.00376254622824,-0.00166726997122,-0.00360937137157,0.000688577361871,0.00137097737752,4.4646888819e-05,0.0,0.0,0.0,0.0,0.0,0.0,4.4646888819e-05,0.0,0.0,0.0,0.0,0.0,0.0,4.4646888819e-05,0.0,0.0,0.0,0.0,0.0,0.0,4.4646888819e-06,0.0,0.0,0.0,0.0,0.0,0.0,4.4646888819e-06,0.0,0.0,0.0,0.0,0.0,0.0,4.4646888819e-06
1662436537111452579,30,1662436537111452579,icp_odom,base_link,0.00305129634216,0.00278886035085,0.0026765181683,-0.00124836558675,0.00139495240725,-6.79691534801e-05,0.999998245534,8.0503287458e-05,0.0,0.0,0.0,0.0,0.0,0.0,8.0503287458e-05,0.0,0.0,0.0,0.0,0.0,0.0,8.0503287458e-05,0.0,0.0,0.0,0.0,0.0,0.0,8.0503287458e-06,0.0,0.0,0.0,0.0,0.0,0.0,8.0503287458e-06,0.0,0.0,0.0,0.0,0.0,0.0,8.0503287458e-06,0.0115218339488,0.00108168460429,0.0124028800055,-0.00111557054333,0.00587077764794,-0.000272278353805,4.0251643729e-05,0.0,0.0,0.0,0.0,0.0,0.0,4.0251643729e-05,0.0,0.0,0.0,0.0,0.0,0.0,4.0251643729e-05,0.0,0.0,0.0,0.0,0.0,0.0,4.0251643729e-06,0.0,0.0,0.0,0.0,0.0,0.0,4.0251643729e-06,0.0,0.0,0.0,0.0,0.0,0.0,4.0251643729e-06
1662436537204211235,31,1662436537204211235,icp_odom,base_link,0.0030021390412,0.00328082218766,0.00334007292986,-0.00109003188051,0.00144087727693,-0.00017001474642,0.999998353398,6.19785498991e-05,0.0,0.0,0.0,0.0,0.0,0.0,6.19785498991e-05,0.0,0.0,0.0,0.0,0.0,0.0,6.19785498991e-05,0.0,0.0,0.0,0.0,0.0,0.0,6.19785498991e-06,0.0,0.0,0.0,0.0,0.0,0.0,6.19785498991e-06,0.0,0.0,0.0,0.0,0.0,0.0,6.19785498991e-06,-0.000550642667804,0.0052857263945,0.00716527504846,0.00341678736731,0.000993518158793,-0.00219407840632,3.09892749495e-05,0.0,0.0,0.0,0.0,0.0,0.0,3.09892749495e-05,0.0,0.0,0.0,0.0,0.0,0.0,3.09892749495e-05,0.0,0.0,0.0,0.0,0.0,0.0,3.09892749495e-06,0.0,0.0,0.0,0.0,0.0,0.0,3.09892749495e-06,0.0,0.0,0.0,0.0,0.0,0.0,3.09892749495e-06
1662436537312494278,32,1662436537312494278,icp_odom,base_link,0.00369302625768,0.00160721712746,1.12499110401e-05,-0.0012019270761,0.000917937099032,-0.000117214285087,0.999998849511,5.92056985642e-05,0.0,0.0,0.0,0.0,0.0,0.0,5.92056985642e-05,0.0,0.0,0.0,0.0,0.0,0.0,5.92056985642e-05,0.0,0.0,0.0,0.0,0.0,0.0,5.92056985642e-06,0.0,0.0,0.0,0.0,0.0,0.0,5.92056985642e-06,0.0,0.0,0.0,0.0,0.0,0.0,5.92056985642e-06,0.00647423835471,-0.0153866158798,-0.0307569671422,-0.00206696963869,-0.00966007076204,0.00096280570142,2.96028492821e-05,0.0,0.0,0.0,0.0,0.0,0.0,2.96028492821e-05,0.0,0.0,0.0,0.0,0.0,0.0,2.96028492821e-05,0.0,0.0,0.0,0.0,0.0,0.0,2.96028492821e-06,0.0,0.0,0.0,0.0,0.0,0.0,2.96028492821e-06,0.0,0.0,0.0,0.0,0.0,0.0,2.96028492821e-06
1662436537404764175,33,1662436537404764175,icp_odom,base_link,0.00375167489983,0.00124824279919,-0.000611973693594,-0.00130702339274,0.000930178885636,-8.64836860435e-05,0.999998709488,6.5194735023e-05,0.0,0.0,0.0,0.0,0.0,0.0,6.5194735023e-05,0.0,0.0,0.0,0.0,0.0,0.0,6.5194735023e-05,0.0,0.0,0.0,0.0,0.0,0.0,6.5194735023e-06,0.0,0.0,0.0,0.0,0.0,0.0,6.5194735023e-06,0.0,0.0,0.0,0.0,0.0,0.0,6.5194735023e-06,0.000648938235827,-0.00387408467941,-0.0067625073716,-0.00227865460329,0.000264351983787,0.000664301391225,3.25973675115e-05,0.0,0.0,0.0,0.0,0.0,0.0,3.25973675115e-05,0.0,0.0,0.0,0.0,0.0,0.0,3.25973675115e-05,0.0,0.0,0.0,0.0,0.0,0.0,3.25973675115e-06,0.0,0.0,0.0,0.0,0.0,0.0,3.25973675115e-06,0.0,0.0,0.0,0.0,0.0,0.0,3.25973675115e-06
1662436537496986628,34,1662436537496986628,icp_odom,base_link,0.00399399362504,0.00153046753258,2.63996771537e-05,-0.00136356257852,0.000973217035387,-5.10997474373e-05,0.999998595466,5.31508785361e-05,0.0,0.0,0.0,0.0,0.0,0.0,5.31508785361e-05,0.0,0.0,0.0,0.0,0.0,0.0,5.31508785361e-05,0.0,0.0,0.0,0.0,0.0,0.0,5.31508785361e-06,0.0,0.0,0.0,0.0,0.0,0.0,5.31508785361e-06,0.0,0.0,0.0,0.0,0.0,0.0,5.31508785361e-06,0.00261413073167,0.00304260314442,0.00693495525047,-0.00122690526769,0.00093228823971,0.000767386169173,2.65754392681e-05,0.0,0.0,0.0,0.0,0.0,0.0,2.65754392681e-05,0.0,0.0,0.0,0.0,0.0,0.0,2.65754392681e-05,0.0,0.0,0.0,0.0,0.0,0.0,2.65754392681e-06,0.0,0.0,0.0,0.0,0.0,0.0,2.65754392681e-06,0.0,0.0,0.0,0.0,0.0,0.0,2.65754392681e-06
1662436537589289665,35,1662436537589289665,icp_odom,base_link,0.00517590995878,0.00365524017252,0.00125447614118,-0.0012264851855,0.00126364908904,-0.000225509186594,0.999998424034,5.54938688231e-05,0.0,0.0,0.0,0.0,0.0,0.0,5.54938688231e-05,0.0,0.0,0.0,0.0,0.0,0.0,5.54938688231e-05,0.0,0.0,0.0,0.0,0.0,0.0,5.54938688231e-06,0.0,0.0,0.0,0.0,0.0,0.0,5.54938688231e-06,0.0,0.0,0.0,0.0,0.0,0.0,5.54938688231e-06,0.0127764046192,0.0229844339192,0.0133924568072,0.00297242333181,0.00629882374778,-0.00376672041602,2.77469344116e-05,0.0,0.0,0.0,0.0,0.0,0.0,2.77469344116e-05,0.0,0.0,0.0,0.0,0.0,0.0,2.77469344116e-05,0.0,0.0,0.0,0.0,0.0,0.0,2.77469344116e-06,0.0,0.0,0.0,0.0,0.0,0.0,2.77469344116e-06,0.0,0.0,0.0,0.0,0.0,0.0,2.77469344116e-06
1662436537697654486,36,1662436537697654486,icp_odom,base_link,0.00470586819574,0.00551240658388,0.00152094708756,-0.00115656838987,0.00138149597814,-0.000403308817812,0.999998295579,6.89841321838e-05,0.0,0.0,0.0,0.0,0.0,0.0,6.89841321838e-05,0.0,0.0,0.0,0.0,0.0,0.0,6.89841321838e-05,0.0,0.0,0.0,0.0,0.0,0.0,6.89841321838e-06,0.0,0.0,0.0,0.0,0.0,0.0,6.89841321838e-06,0.0,0.0,0.0,0.0,0.0,0.0,6.89841321838e-06,-0.00435156608,0.0171300638467,0.00249006622471,0.00129366328474,0.00217954441905,-0.00327704357915,3.44920660919e-05,0.0,0.0,0.0,0.0,0.0,0.0,3.44920660919e-05,0.0,0.0,0.0,0.0,0.0,0.0,3.44920660919e-05,0.0,0.0,0.0,0.0,0.0,0.0,3.44920660919e-06,0.0,0.0,0.0,0.0,0.0,0.0,3.44920660919e-06,0.0,0.0,0.0,0.0,0.0,0.0,3.44920660919e-06
1662436537792568684,37,1662436537792568684,icp_odom,base_link,0.00360427098349,0.00459457701072,0.000841953034978,-0.000955029225636,0.00115693851992,-0.000423253190008,0.999998785134,5.9830479341e-05,0.0,0.0,0.0,0.0,0.0,0.0,5.9830479341e-05,0.0,0.0,0.0,0.0,0.0,0.0,5.9830479341e-05,0.0,0.0,0.0,0.0,0.0,0.0,5.9830479341e-06,0.0,0.0,0.0,0.0,0.0,0.0,5.9830479341e-06,0.0,0.0,0.0,0.0,0.0,0.0,5.9830479341e-06,-0.0115786036476,-0.00966283585876,-0.00720815639943,0.00424935715273,-0.00472952891141,-0.000420813827077,2.99152396705e-05,0.0,0.0,0.0,0.0,0.0,0.0,2.99152396705e-05,0.0,0.0,0.0,0.0,0.0,0.0,2.99152396705e-05,0.0,0.0,0.0,0.0,0.0,0.0,2.99152396705e-06,0.0,0.0,0.0,0.0,0.0,0.0,2.99152396705e-06,0.0,0.0,0.0,0.0,0.0,0.0,2.99152396705e-06
1662436537884984255,38,1662436537884984255,icp_odom,base_link,0.00348761724308,0.0032575186342,0.00186896650121,-0.00116335683505,0.00140820370562,-0.000302838680409,0.999998285924,6.23115108474e-05,0.0,0.0,0.0,0.0,0.0,0.0,6.23115108474e-05,0.0,0.0,0.0,0.0,0.0,0.0,6.23115108474e-05,0.0,0.0,0.0,0.0,0.0,0.0,6.23115108474e-06,0.0,0.0,0.0,0.0,0.0,0.0,6.23115108474e-06,0.0,0.0,0.0,0.0,0.0,0.0,6.23115108474e-06,-0.00127569504548,-0.0144901592284,0.0110824005678,-0.00451316125691,0.00543386815116,0.00260477350093,3.11557554237e-05,0.0,0.0,0.0,0.0,0.0,0.0,3.11557554237e-05,0.0,0.0,0.0,0.0,0.0,0.0,3.11557554237e-05,0.0,0.0,0.0,0.0,0.0,0.0,3.11557554237e-06,0.0,0.0,0.0,0.0,0.0,0.0,3.11557554237e-06,0.0,0.0,0.0,0.0,0.0,0.0,3.11557554237e-06
1662436537977081537,39,1662436537977081537,icp_odom,base_link,0.00322507950477,0.00300551531836,0.00191310746595,-0.00112562076072,0.0013835634233,-0.000257064249341,0.999998376323,6.03956883395e-05,0.0,0.0,0.0,0.0,0.0,0.0,6.03956883395e-05,0.0,0.0,0.0,0.0,0.0,0.0,6.03956883395e-05,0.0,0.0,0.0,0.0,0.0,0.0,6.03956883395e-06,0.0,0.0,0.0,0.0,0.0,0.0,6.03956883395e-06,0.0,0.0,0.0,0.0,0.0,0.0,6.03956883395e-06,-0.00285032903776,-0.00273909815587,0.000464888784336,0.000818225496914,-0.000536045467015,0.000994556583464,3.01978441697e-05,0.0,0.0,0.0,0.0,0.0,0.0,3.01978441697e-05,0.0,0.0,0.0,0.0,0.0,0.0,3.01978441697e-05,0.0,0.0,0.0,0.0,0.0,0.0,3.01978441697e-06,0.0,0.0,0.0,0.0,0.0,0.0,3.01978441697e-06,0.0,0.0,0.0,0.0,0.0,0.0,3.01978441697e-06
1662436538085818529,40,1662436538085818529,icp_odom,base_link,0.00389136793092,0.00453562475741,0.00119707244448,-0.00111470709161,0.00129491584749,-0.000452499847339,0.999998437931,6.53853173737e-05,0.0,0.0,0.0,0.0,0.0,0.0,6.53853173737e-05,0.0,0.0,0.0,0.0,0.0,0.0,6.53853173737e-05,0.0,0.0,0.0,0.0,0.0,0.0,6.53853173737e-06,0.0,0.0,0.0,0.0,0.0,0.0,6.53853173737e-06,0.0,0.0,0.0,0.0,0.0,0.0,6.53853173737e-06,0.00613843882456,0.0140895778313,-0.00653634825721,0.000206445227377,-0.00162635697052,-0.00359621737152,3.26926586869e-05,0.0,0.0,0.0,0.0,0.0,0.0,3.26926586869e-05,0.0,0.0,0.0,0.0,0.0,0.0,3.26926586869e-05,0.0,0.0,0.0,0.0,0.0,0.0,3.26926586869e-06,0.0,0.0,0.0,0.0,0.0,0.0,3.26926586869e-06,0.0,0.0,0.0,0.0,0.0,0.0,3.26926586869e-06
1662436538178426027,41,1662436538178426027,icp_odom,base_link,0.00437064701691,0.00255364878103,0.000949381967075,-0.00141448736154,0.00121126332879,-0.00036963130432,0.999998197718,7.25626611145e-05,0.0,0.0,0.0,0.0,0.0,0.0,7.25626611145e-05,0.0,0.0,0.0,0.0,0.0,0.0,7.25626611145e-05,0.0,0.0,0.0,0.0,0.0,0.0,7.25626611145e-06,0.0,0.0,0.0,0.0,0.0,0.0,7.25626611145e-06,0.0,0.0,0.0,0.0,0.0,0.0,7.25626611145e-06,0.00520171457902,-0.0213911999017,-0.00270889070816,-0.00647585792467,-0.00181098689791,0.00177981366869,3.62813305572e-05,0.0,0.0,0.0,0.0,0.0,0.0,3.62813305572e-05,0.0,0.0,0.0,0.0,0.0,0.0,3.62813305572e-05,0.0,0.0,0.0,0.0,0.0,0.0,3.62813305572e-06,0.0,0.0,0.0,0.0,0.0,0.0,3.62813305572e-06,0.0,0.0,0.0,0.0,0.0,0.0,3.62813305572e-06
1662436538273266077,42,1662436538273266077,icp_odom,base_link,0.00470040971413,0.00198733154684,0.000965408922639,-0.00152626371612,0.00131583641066,-0.000386677852947,0.999997894785,7.54870967803e-05,0.0,0.0,0.0,0.0,0.0,0.0,7.54870967803e-05,0.0,0.0,0.0,0.0,0.0,0.0,7.54870967803e-05,0.0,0.0,0.0,0.0,0.0,0.0,7.54870967803e-06,0.0,0.0,0.0,0.0,0.0,0.0,7.54870967803e-06,0.0,0.0,0.0,0.0,0.0,0.0,7.54870967803e-06,0.00348105630837,-0.00596918258816,0.000160527604748,-0.00235757324845,0.00220485031605,-0.000359462574124,3.77435483901e-05,0.0,0.0,0.0,0.0,0.0,0.0,3.77435483901e-05,0.0,0.0,0.0,0.0,0.0,0.0,3.77435483901e-05,0.0,0.0,0.0,0.0,0.0,0.0,3.77435483901e-06,0.0,0.0,0.0,0.0,0.0,0.0,3.77435483901e-06,0.0,0.0,0.0,0.0,0.0,0.0,3.77435483901e-06
1662436538365205526,43,1662436538365205526,icp_odom,base_link,0.00486891297624,0.000591322197579,0.000797040294856,-0.00164606072835,0.00122744338166,-0.000188117256327,0.999997874237,6.70716490733e-05,0.0,0.0,0.0,0.0,0.0,0.0,6.70716490733e-05,0.0,0.0,0.0,0.0,0.0,0.0,6.70716490733e-05,0.0,0.0,0.0,0.0,0.0,0.0,6.70716490733e-06,0.0,0.0,0.0,0.0,0.0,0.0,6.70716490733e-06,0.0,0.0,0.0,0.0,0.0,0.0,6.70716490733e-06,0.00184937799349,-0.0151769313961,-0.00187279295642,-0.00261131185107,-0.00192993483506,0.00431323656812,3.35358245367e-05,0.0,0.0,0.0,0.0,0.0,0.0,3.35358245367e-05,0.0,0.0,0.0,0.0,0.0,0.0,3.35358245367e-05,0.0,0.0,0.0,0.0,0.0,0.0,3.35358245367e-06,0.0,0.0,0.0,0.0,0.0,0.0,3.35358245367e-06,0.0,0.0,0.0,0.0,0.0,0.0,3.35358245367e-06
1662436538474209309,44,1662436538474209309,icp_odom,base_link,0.00556397205219,0.00246912101284,-0.00208949833177,-0.00150640043041,0.000793572646074,-0.000492464470766,0.999998429238,7.77540997838e-05,0.0,0.0,0.0,0.0,0.0,0.0,7.77540997838e-05,0.0,0.0,0.0,0.0,0.0,0.0,7.77540997838e-05,0.0,0.0,0.0,0.0,0.0,0.0,7.77540997838e-06,0.0,0.0,0.0,0.0,0.0,0.0,7.77540997838e-06,0.0,0.0,0.0,0.0,0.0,0.0,7.77540997838e-06,0.00643488764763,0.017316384241,-0.0264084991068,0.00257328012958,-0.00795019604266,-0.00559521699324,3.88770498919e-05,0.0,0.0,0.0,0.0,0.0,0.0,3.88770498919e-05,0.0,0.0,0.0,0.0,0.0,0.0,3.88770498919e-05,0.0,0.0,0.0,0.0,0.0,0.0,3.88770498919e-06,0.0,0.0,0.0,0.0,0.0,0.0,3.88770498919e-06,0.0,0.0,0.0,0.0,0.0,0.0,3.88770498919e-06
1662436538569033146,45,1662436538569033146,icp_odom,base_link,0.00578024890274,0.00193842919543,-0.00612839218229,-0.00140264713658,-4.20994643303e-05,-0.00044458256695,0.999998916577,6.30264105721e-05,0.0,0.0,0.0,0.0,0.0,0.0,6.30264105721e-05,0.0,0.0,0.0,0.0,0.0,0.0,6.30264105721e-05,0.0,0.0,0.0,0.0,0.0,0.0,6.30264105721e-06,0.0,0.0,0.0,0.0,0.0,0.0,6.30264105721e-06,0.0,0.0,0.0,0.0,0.0,0.0,6.30264105721e-06,0.00235388660803,-0.00546598015353,-0.0426066368818,0.00219540763646,-0.01762631163,0.000983267324045,3.1513205286e-05,0.0,0.0,0.0,0.0,0.0,0.0,3.1513205286e-05,0.0,0.0,0.0,0.0,0.0,0.0,3.1513205286e-05,0.0,0.0,0.0,0.0,0.0,0.0,3.1513205286e-06,0.0,0.0,0.0,0.0,0.0,0.0,3.1513205286e-06,0.0,0.0,0.0,0.0,0.0,0.0,3.1513205286e-06
1662436538661177874,46,1662436538661177874,icp_odom,base_link,0.00530919618905,0.00166836660355,-0.00618397817016,-0.00142654944595,4.42310677606e-05,-0.000425815001322,0.99999889084,6.78680825519e-05,0.0,0.0,0.0,0.0,0.0,0.0,6.78680825519e-05,0.0,0.0,0.0,0.0,0.0,0.0,6.78680825519e-05,0.0,0.0,0.0,0.0,0.0,0.0,6.78680825519e-06,0.0,0.0,0.0,0.0,0.0,0.0,6.78680825519e-06,0.0,0.0,0.0,0.0,0.0,0.0,6.78680825519e-06,-0.00510954111814,-0.00293369288556,-0.000611044233665,-0.000519574095961,0.0018730085576,0.000409955653595,3.39340412759e-05,0.0,0.0,0.0,0.0,0.0,0.0,3.39340412759e-05,0.0,0.0,0.0,0.0,0.0,0.0,3.39340412759e-05,0.0,0.0,0.0,0.0,0.0,0.0,3.39340412759e-06,0.0,0.0,0.0,0.0,0.0,0.0,3.39340412759e-06,0.0,0.0,0.0,0.0,0.0,0.0,3.39340412759e-06
1662436538755717516,47,1662436538755717516,icp_odom,base_link,0.00578908622265,0.00237347651273,-0.00569888204336,-0.00124849342846,-1.65839254021e-05,-0.000540629760619,0.999999074354,6.83726002421e-05,0.0,0.0,0.0,0.0,0.0,0.0,6.83726002421e-05,0.0,0.0,0.0,0.0,0.0,0.0,6.83726002421e-05,0.0,0.0,0.0,0.0,0.0,0.0,6.83726002421e-06,0.0,0.0,0.0,0.0,0.0,0.0,6.83726002421e-06,0.0,0.0,0.0,0.0,0.0,0.0,6.83726002421e-06,0.00506927119568,0.00744799990207,0.00515285274014,0.00376760819927,-0.00128104689065,-0.00243081292138,3.41863001211e-05,0.0,0.0,0.0,0.0,0.0,0.0,3.41863001211e-05,0.0,0.0,0.0,0.0,0.0,0.0,3.41863001211e-05,0.0,0.0,0.0,0.0,0.0,0.0,3.41863001211e-06,0.0,0.0,0.0,0.0,0.0,0.0,3.41863001211e-06,0.0,0.0,0.0,0.0,0.0,0.0,3.41863001211e-06
1662436538864470959,48,1662436538864470959,icp_odom,base_link,0.00605956185609,0.00412076571956,-0.00463753938675,-0.000853937774908,8.27769922344e-05,-0.000730868832269,0.999999364884,9.3981312759e-05,0.0,0.0,0.0,0.0,0.0,0.0,9.3981312759e-05,0.0,0.0,0.0,0.0,0.0,0.0,9.3981312759e-05,0.0,0.0,0.0,0.0,0.0,0.0,9.3981312759e-06,0.0,0.0,0.0,0.0,0.0,0.0,9.3981312759e-06,0.0,0.0,0.0,0.0,0.0,0.0,9.3981312759e-06,0.002470015781,0.0160447787493,0.00979917217046,0.00725457398221,0.00183693738654,-0.00349564361386,4.69906563795e-05,0.0,0.0,0.0,0.0,0.0,0.0,4.69906563795e-05,0.0,0.0,0.0,0.0,0.0,0.0,4.69906563795e-05,0.0,0.0,0.0,0.0,0.0,0.0,4.69906563795e-06,0.0,0.0,0.0,0.0,0.0,0.0,4.69906563795e-06,0.0,0.0,0.0,0.0,0.0,0.0,4.69906563795e-06
1662436538959465265,49,1662436538959465265,icp_odom,base_link,0.00602416088805,0.00398227898404,-0.00471286056563,-0.000929004499649,0.00014883004631,-0.000668382199505,0.999999334033,7.86597226001e-05,0.0,0.0,0.0,0.0,0.0,0.0,7.86597226001e-05,0.0,0.0,0.0,0.0,0.0,0.0,7.86597226001e-05,0.0,0.0,0.0,0.0,0.0,0.0,7.86597226001e-06,0.0,0.0,0.0,0.0,0.0,0.0,7.86597226001e-06,0.0,0.0,0.0,0.0,0.0,0.0,7.86597226001e-06,-0.000370400288375,-0.0014570299536,-0.000795452273451,-0.00158148340415,0.0013884936925,0.00131653842982,3.93298613001e-05,0.0,0.0,0.0,0.0,0.0,0.0,3.93298613001e-05,0.0,0.0,0.0,0.0,0.0,0.0,3.93298613001e-05,0.0,0.0,0.0,0.0,0.0,0.0,3.93298613001e-06,0.0,0.0,0.0,0.0,0.0,0.0,3.93298613001e-06,0.0,0.0,0.0,0.0,0.0,0.0,3.93298613001e-06
1662436539051496267,50,1662436539051496267,icp_odom,base_link,0.00561095308512,0.00345117365941,-0.00357938255183,-0.00111324526459,0.00024435218891,-0.000603378789983,0.999999168455,6.69048647268e-05,0.0,0.0,0.0,0.0,0.0,0.0,6.69048647268e-05,0.0,0.0,0.0,0.0,0.0,0.0,6.69048647268e-05,0.0,0.0,0.0,0.0,0.0,0.0,6.69048647268e-06,0.0,0.0,0.0,0.0,0.0,0.0,6.69048647268e-06,0.0,0.0,0.0,0.0,0.0,0.0,6.69048647268e-06,-0.00448580970988,-0.00579981086776,0.0123041775078,-0.00400534830987,0.00207214010879,0.00141358945984,3.34524323634e-05,0.0,0.0,0.0,0.0,0.0,0.0,3.34524323634e-05,0.0,0.0,0.0,0.0,0.0,0.0,3.34524323634e-05,0.0,0.0,0.0,0.0,0.0,0.0,3.34524323634e-06,0.0,0.0,0.0,0.0,0.0,0.0,3.34524323634e-06,0.0,0.0,0.0,0.0,0.0,0.0,3.34524323634e-06
1662436539146426916,51,1662436539146426916,icp_odom,base_link,0.00575612531975,0.00417922530323,-0.00291176629253,-0.00115106746713,0.000576850275805,-0.000640914683373,0.999998965757,9.34046013918e-05,0.0,0.0,0.0,0.0,0.0,0.0,9.34046013918e-05,0.0,0.0,0.0,0.0,0.0,0.0,9.34046013918e-05,0.0,0.0,0.0,0.0,0.0,0.0,9.34046013918e-06,0.0,0.0,0.0,0.0,0.0,0.0,9.34046013918e-06,0.0,0.0,0.0,0.0,0.0,0.0,9.34046013918e-06,0.00151655822992,0.0076554575935,0.00705047789961,-0.000801131594926,0.00700543634593,-0.000783468945883,4.67023006959e-05,0.0,0.0,0.0,0.0,0.0,0.0,4.67023006959e-05,0.0,0.0,0.0,0.0,0.0,0.0,4.67023006959e-05,0.0,0.0,0.0,0.0,0.0,0.0,4.67023006959e-06,0.0,0.0,0.0,0.0,0.0,0.0,4.67023006959e-06,0.0,0.0,0.0,0.0,0.0,0.0,4.67023006959e-06
1662436539241563320,52,1662436539241563320,icp_odom,base_link,0.00531464489177,0.00411253981292,-0.00104050780647,-0.0010020739442,0.00106328880494,-0.000583909009374,0.999998762157,8.89051216829e-05,0.0,0.0,0.0,0.0,0.0,0.0,8.89051216829e-05,0.0,0.0,0.0,0.0,0.0,0.0,8.89051216829e-05,0.0,0.0,0.0,0.0,0.0,0.0,8.89051216829e-06,0.0,0.0,0.0,0.0,0.0,0.0,8.89051216829e-06,0.0,0.0,0.0,0.0,0.0,0.0,8.89051216829e-06,-0.0046622576192,-0.00075218162965,0.0196621771902,0.00312554440461,0.0102265654132,0.00121349224355,4.44525608415e-05,0.0,0.0,0.0,0.0,0.0,0.0,4.44525608415e-05,0.0,0.0,0.0,0.0,0.0,0.0,4.44525608415e-05,0.0,0.0,0.0,0.0,0.0,0.0,4.44525608415e-06,0.0,0.0,0.0,0.0,0.0,0.0,4.44525608415e-06,0.0,0.0,0.0,0.0,0.0,0.0,4.44525608415e-06
1662436539350017071,53,1662436539350017071,icp_odom,base_link,0.00606047222391,0.00374938989989,0.000200250884518,-0.000910861677945,0.00123742299445,-0.000615204597257,0.999998630318,7.92650363536e-05,0.0,0.0,0.0,0.0,0.0,0.0,7.92650363536e-05,0.0,0.0,0.0,0.0,0.0,0.0,7.92650363536e-05,0.0,0.0,0.0,0.0,0.0,0.0,7.92650363536e-06,0.0,0.0,0.0,0.0,0.0,0.0,7.92650363536e-06,0.0,0.0,0.0,0.0,0.0,0.0,7.92650363536e-06,0.00685649737716,-0.00336334807798,0.0114483181387,0.001680684858,0.0032128286548,-0.000571823329665,3.96325181768e-05,0.0,0.0,0.0,0.0,0.0,0.0,3.96325181768e-05,0.0,0.0,0.0,0.0,0.0,0.0,3.96325181768e-05,0.0,0.0,0.0,0.0,0.0,0.0,3.96325181768e-06,0.0,0.0,0.0,0.0,0.0,0.0,3.96325181768e-06,0.0,0.0,0.0,0.0,0.0,0.0,3.96325181768e-06
1662436539442618847,54,1662436539442618847,icp_odom,base_link,0.00674480479211,0.00341217266396,0.00133825046942,-0.00118044930553,0.00149803606229,-0.000608799220252,0.999997995893,6.74972111269e-05,0.0,0.0,0.0,0.0,0.0,0.0,6.74972111269e-05,0.0,0.0,0.0,0.0,0.0,0.0,6.74972111269e-05,0.0,0.0,0.0,0.0,0.0,0.0,6.74972111269e-06,0.0,0.0,0.0,0.0,0.0,0.0,6.74972111269e-06,0.0,0.0,0.0,0.0,0.0,0.0,6.74972111269e-06,0.0073641189374,-0.00365490582772,0.0123007874936,-0.00582611747086,0.00562502024695,0.000134738598717,3.37486055635e-05,0.0,0.0,0.0,0.0,0.0,0.0,3.37486055635e-05,0.0,0.0,0.0,0.0,0.0,0.0,3.37486055635e-05,0.0,0.0,0.0,0.0,0.0,0.0,3.37486055635e-06,0.0,0.0,0.0,0.0,0.0,0.0,3.37486055635e-06,0.0,0.0,0.0,0.0,0.0,0.0,3.37486055635e-06
1662436539537174225,55,1662436539537174225,icp_odom,base_link,0.00838227663189,0.00200326764025,0.00242147315294,-0.00111042819763,0.00153535736221,-0.000336273640375,0.999998148272,8.65708061523e-05,0.0,0.0,0.0,0.0,0.0,0.0,8.65708061523e-05,0.0,0.0,0.0,0.0,0.0,0.0,8.65708061523e-05,0.0,0.0,0.0,0.0,0.0,0.0,8.65708061523e-06,0.0,0.0,0.0,0.0,0.0,0.0,8.65708061523e-06,0.0,0.0,0.0,0.0,0.0,0.0,8.65708061523e-06,0.0173013973981,-0.0149063067511,0.0114726349711,0.00147215870675,0.000783093390055,0.00576755497605,4.32854030762e-05,0.0,0.0,0.0,0.0,0.0,0.0,4.32854030762e-05,0.0,0.0,0.0,0.0,0.0,0.0,4.32854030762e-05,0.0,0.0,0.0,0.0,0.0,0.0,4.32854030762e-06,0.0,0.0,0.0,0.0,0.0,0.0,4.32854030762e-06,0.0,0.0,0.0,0.0,0.0,0.0,4.32854030762e-06
1662436539630473614,56,1662436539630473614,icp_odom,base_link,0.0110733956099,0.00348263024352,0.00196951674297,-0.000981839790429,0.00148204498666,-0.000237924648179,0.999998391461,7.16450433363e-05,0.0,0.0,0.0,0.0,0.0,0.0,7.16450433363e-05,0.0,0.0,0.0,0.0,0.0,0.0,7.16450433363e-05,0.0,0.0,0.0,0.0,0.0,0.0,7.16450433363e-06,0.0,0.0,0.0,0.0,0.0,0.0,7.16450433363e-06,0.0,0.0,0.0,0.0,0.0,0.0,7.16450433363e-06,0.028847919777,0.0158861018717,-0.00472032651305,0.00275350455195,-0.00114451767877,0.0021110593807,3.58225216682e-05,0.0,0.0,0.0,0.0,0.0,0.0,3.58225216682e-05,0.0,0.0,0.0,0.0,0.0,0.0,3.58225216682e-05,0.0,0.0,0.0,0.0,0.0,0.0,3.58225216682e-06,0.0,0.0,0.0,0.0,0.0,0.0,3.58225216682e-06,0.0,0.0,0.0,0.0,0.0,0.0,3.58225216682e-06
1662436539728325844,57,1662436539728325844,icp_odom,base_link,0.0165695305914,0.00514246663079,0.00713424291462,-0.00116766779416,0.00275846512257,-0.000637165693814,0.99999531071,8.55993805747e-05,0.0,0.0,0.0,0.0,0.0,0.0,8.55993805747e-05,0.0,0.0,0.0,0.0,0.0,0.0,8.55993805747e-05,0.0,0.0,0.0,0.0,0.0,0.0,8.55993805747e-06,0.0,0.0,0.0,0.0,0.0,0.0,8.55993805747e-06,0.0,0.0,0.0,0.0,0.0,0.0,8.55993805747e-06,0.0560029037297,0.0168855320662,0.0529803484678,-0.00380270276219,0.0260943863541,-0.0081449598074,4.27996902874e-05,0.0,0.0,0.0,0.0,0.0,0.0,4.27996902874e-05,0.0,0.0,0.0,0.0,0.0,0.0,4.27996902874e-05,0.0,0.0,0.0,0.0,0.0,0.0,4.27996902874e-06,0.0,0.0,0.0,0.0,0.0,0.0,4.27996902874e-06,0.0,0.0,0.0,0.0,0.0,0.0,4.27996902874e-06
1662436539833085537,58,1662436539833085537,icp_odom,base_link,0.0231221783906,0.0067410855554,0.0044031846337,-0.00120237329409,0.00235063861181,-0.00123898560294,0.999995746847,0.000102452589816,0.0,0.0,0.0,0.0,0.0,0.0,0.000102452589816,0.0,0.0,0.0,0.0,0.0,0.0,0.000102452589816,0.0,0.0,0.0,0.0,0.0,0.0,1.02452589816e-05,0.0,0.0,0.0,0.0,0.0,0.0,1.02452589816e-05,0.0,0.0,0.0,0.0,0.0,0.0,1.02452589816e-05,0.0626725628972,0.0154000893235,-0.0256885178387,-0.000621222192422,-0.00777331506833,-0.0115001359954,5.12262949081e-05,0.0,0.0,0.0,0.0,0.0,0.0,5.12262949081e-05,0.0,0.0,0.0,0.0,0.0,0.0,5.12262949081e-05,0.0,0.0,0.0,0.0,0.0,0.0,5.12262949081e-06,0.0,0.0,0.0,0.0,0.0,0.0,5.12262949081e-06,0.0,0.0,0.0,0.0,0.0,0.0,5.12262949081e-06
1662436539925781488,59,1662436539925781488,icp_odom,base_link,0.0338964909315,0.00259385211393,0.00440342444927,-0.00215036941432,0.00253494910082,-0.000204478784338,0.999994454051,0.000148057313121,0.0,0.0,0.0,0.0,0.0,0.0,0.000148057313121,0.0,0.0,0.0,0.0,0.0,0.0,0.000148057313121,0.0,0.0,0.0,0.0,0.0,0.0,1.48057313121e-05,0.0,0.0,0.0,0.0,0.0,0.0,1.48057313121e-05,0.0,0.0,0.0,0.0,0.0,0.0,1.48057313121e-05,0.116342283785,-0.0444525554776,0.000442045857199,-0.0205071568489,0.00394570687786,0.0222732685506,7.40286565607e-05,0.0,0.0,0.0,0.0,0.0,0.0,7.40286565607e-05,0.0,0.0,0.0,0.0,0.0,0.0,7.40286565607e-05,0.0,0.0,0.0,0.0,0.0,0.0,7.40286565607e-06,0.0,0.0,0.0,0.0,0.0,0.0,7.40286565607e-06,0.0,0.0,0.0,0.0,0.0,0.0,7.40286565607e-06
1662436540017940044,60,1662436540017940044,icp_odom,base_link,0.0473848059773,0.00146232370753,0.00287767034024,-0.00199955576964,0.00251125902016,0.00147600567275,0.999993758362,0.000200001562471,0.0,0.0,0.0,0.0,0.0,0.0,0.000200001562471,0.0,0.0,0.0,0.0,0.0,0.0,0.000200001562471,0.0,0.0,0.0,0.0,0.0,0.0,2.00001562471e-05,0.0,0.0,0.0,0.0,0.0,0.0,2.00001562471e-05,0.0,0.0,0.0,0.0,0.0,0.0,2.00001562471e-05,0.146447047591,-0.0121484706178,-0.0158660244197,0.0031795212999,-0.000597166945226,0.0364763364196,0.000100000781236,0.0,0.0,0.0,0.0,0.0,0.0,0.000100000781236,0.0,0.0,0.0,0.0,0.0,0.0,0.000100000781236,0.0,0.0,0.0,0.0,0.0,0.0,1.00000781236e-05,0.0,0.0,0.0,0.0,0.0,0.0,1.00000781236e-05,0.0,0.0,0.0,0.0,0.0,0.0,1.00000781236e-05
1662436540126356125,61,1662436540126356125,icp_odom,base_link,0.0599022656679,-0.00106361799408,0.00275596184656,-0.00205668210348,0.00229691936735,0.00375891168547,0.999988182332,0.000174204832926,0.0,0.0,0.0,0.0,0.0,0.0,0.000174204832926,0.0,0.0,0.0,0.0,0.0,0.0,0.000174204832926,0.0,0.0,0.0,0.0,0.0,0.0,1.74204832926e-05,0.0,0.0,0.0,0.0,0.0,0.0,1.74204832926e-05,0.0,0.0,0.0,0.0,0.0,0.0,1.74204832926e-05,0.115392744541,-0.0236358102411,-0.000636726326775,-0.00117482896894,-0.00403373455629,0.0421034060419,8.7102416463e-05,0.0,0.0,0.0,0.0,0.0,0.0,8.7102416463e-05,0.0,0.0,0.0,0.0,0.0,0.0,8.7102416463e-05,0.0,0.0,0.0,0.0,0.0,0.0,8.7102416463e-06,0.0,0.0,0.0,0.0,0.0,0.0,8.7102416463e-06,0.0,0.0,0.0,0.0,0.0,0.0,8.7102416463e-06
1662436540218841791,62,1662436540218841791,icp_odom,base_link,0.072931304574,-0.000515027844813,0.00581014808267,-0.00264208860073,0.00311764226195,0.00388080593826,0.999984119384,0.000114028239761,0.0,0.0,0.0,0.0,0.0,0.0,0.000114028239761,0.0,0.0,0.0,0.0,0.0,0.0,0.000114028239761,0.0,0.0,0.0,0.0,0.0,0.0,1.14028239761e-05,0.0,0.0,0.0,0.0,0.0,0.0,1.14028239761e-05,0.0,0.0,0.0,0.0,0.0,0.0,1.14028239761e-05,0.140763133764,0.00473573897034,0.0336921960115,-0.0125965997577,0.0177917927504,0.00263330852613,5.70141198806e-05,0.0,0.0,0.0,0.0,0.0,0.0,5.70141198806e-05,0.0,0.0,0.0,0.0,0.0,0.0,5.70141198806e-05,0.0,0.0,0.0,0.0,0.0,0.0,5.70141198806e-06,0.0,0.0,0.0,0.0,0.0,0.0,5.70141198806e-06,0.0,0.0,0.0,0.0,0.0,0.0,5.70141198806e-06
1662436540311506748,63,1662436540311506748,icp_odom,base_link,0.0832260996103,-0.000380898709409,0.0064590247348,-0.00319771005269,0.00366297632937,0.0027983987502,0.999984262986,0.000124180289253,0.0,0.0,0.0,0.0,0.0,0.0,0.000124180289253,0.0,0.0,0.0,0.0,0.0,0.0,0.000124180289253,0.0,0.0,0.0,0.0,0.0,0.0,1.24180289253e-05,0.0,0.0,0.0,0.0,0.0,0.0,1.24180289253e-05,0.0,0.0,0.0,0.0,0.0,0.0,1.24180289253e-05,0.11105889082,0.000546459748875,0.00770027702674,-0.0118862017989,0.011865220964,-0.0233742166311,6.20901446266e-05,0.0,0.0,0.0,0.0,0.0,0.0,6.20901446266e-05,0.0,0.0,0.0,0.0,0.0,0.0,6.20901446266e-05,0.0,0.0,0.0,0.0,0.0,0.0,6.20901446266e-06,0.0,0.0,0.0,0.0,0.0,0.0,6.20901446266e-06,0.0,0.0,0.0,0.0,0.0,0.0,6.20901446266e-06
1662436540403841019,64,1662436540403841019,icp_odom,base_link,0.0937468037009,-0.00419848551974,0.010456985794,-0.00340500672709,0.00456813544747,0.00408864806438,0.99997541021,0.000120968633427,0.0,0.0,0.0,0.0,0.0,0.0,0.000120968633427,0.0,0.0,0.0,0.0,0.0,0.0,0.000120968633427,0.0,0.0,0.0,0.0,0.0,0.0,1.20968633427e-05,0.0,0.0,0.0,0.0,0.0,0.0,1.20968633427e-05,0.0,0.0,0.0,0.0,0.0,0.0,1.20968633427e-05,0.113388255239,-0.0422601774335,0.0438641421497,-0.0045129256323,0.0195355564356,0.0279896259308,6.04843167134e-05,0.0,0.0,0.0,0.0,0.0,0.0,6.04843167134e-05,0.0,0.0,0.0,0.0,0.0,0.0,6.04843167134e-05,0.0,0.0,0.0,0.0,0.0,0.0,6.04843167134e-06,0.0,0.0,0.0,0.0,0.0,0.0,6.04843167134e-06,0.0,0.0,0.0,0.0,0.0,0.0,6.04843167134e-06
1662436540514405966,65,1662436540514405966,icp_odom,base_link,0.104722827673,-0.00537209771574,0.0129837319255,-0.00375405490628,0.00508227249862,0.0050299919315,0.999967387848,0.000146004159496,0.0,0.0,0.0,0.0,0.0,0.0,0.000146004159496,0.0,0.0,0.0,0.0,0.0,0.0,0.000146004159496,0.0,0.0,0.0,0.0,0.0,0.0,1.46004159496e-05,0.0,0.0,0.0,0.0,0.0,0.0,1.46004159496e-05,0.0,0.0,0.0,0.0,0.0,0.0,1.46004159496e-05,0.0989688187838,-0.0115837007761,0.0236830767244,-0.00634526927024,0.00927443057299,0.0170276388526,7.3002079748e-05,0.0,0.0,0.0,0.0,0.0,0.0,7.3002079748e-05,0.0,0.0,0.0,0.0,0.0,0.0,7.3002079748e-05,0.0,0.0,0.0,0.0,0.0,0.0,7.3002079748e-06,0.0,0.0,0.0,0.0,0.0,0.0,7.3002079748e-06,0.0,0.0,0.0,0.0,0.0,0.0,7.3002079748e-06
1662436540607243299,66,1662436540607243299,icp_odom,base_link,0.116564527154,-0.00936449319124,0.0173898674548,-0.00437417747746,0.00613293130047,0.00701454327172,0.999947023551,0.000221554634456,0.0,0.0,0.0,0.0,0.0,0.0,0.000221554634456,0.0,0.0,0.0,0.0,0.0,0.0,0.000221554634456,0.0,0.0,0.0,0.0,0.0,0.0,2.21554634456e-05,0.0,0.0,0.0,0.0,0.0,0.0,2.21554634456e-05,0.0,0.0,0.0,0.0,0.0,0.0,2.21554634456e-05,0.126624971628,-0.0446427278221,0.0484236143529,-0.0134192211553,0.0225692708045,0.0427571833134,0.000110777317228,0.0,0.0,0.0,0.0,0.0,0.0,0.000110777317228,0.0,0.0,0.0,0.0,0.0,0.0,0.000110777317228,0.0,0.0,0.0,0.0,0.0,0.0,1.10777317228e-05,0.0,0.0,0.0,0.0,0.0,0.0,1.10777317228e-05,0.0,0.0,0.0,0.0,0.0,0.0,1.10777317228e-05
1662436540699829102,67,1662436540699829102,icp_odom,base_link,0.132183998823,-0.0105588277802,0.0161542929709,-0.0041512736977,0.00583351041608,0.0085235983982,0.999938040757,0.000201932540213,0.0,0.0,0.0,0.0,0.0,0.0,0.000201932540213,0.0,0.0,0.0,0.0,0.0,0.0,0.000201932540213,0.0,0.0,0.0,0.0,0.0,0.0,2.01932540213e-05,0.0,0.0,0.0,0.0,0.0,0.0,2.01932540213e-05,0.0,0.0,0.0,0.0,0.0,0.0,2.01932540213e-05,0.168657615781,-0.0151580702513,-0.0113987978548,0.00455866707489,-0.00664970232174,0.0325974486768,0.000100966270107,0.0,0.0,0.0,0.0,0.0,0.0,0.000100966270107,0.0,0.0,0.0,0.0,0.0,0.0,0.000100966270107,0.0,0.0,0.0,0.0,0.0,0.0,1.00966270107e-05,0.0,0.0,0.0,0.0,0.0,0.0,1.00966270107e-05,0.0,0.0,0.0,0.0,0.0,0.0,1.00966270107e-05
1662436540792075872,68,1662436540792075872,icp_odom,base_link,0.147665977478,-0.0131943821907,0.0198577232659,-0.00465773105161,0.00677423437533,0.0100308199165,0.999915895434,0.000189258043011,0.0,0.0,0.0,0.0,0.0,0.0,0.000189258043011,0.0,0.0,0.0,0.0,0.0,0.0,0.000189258043011,0.0,0.0,0.0,0.0,0.0,0.0,1.89258043011e-05,0.0,0.0,0.0,0.0,0.0,0.0,1.89258043011e-05,0.0,0.0,0.0,0.0,0.0,0.0,1.89258043011e-05,0.166839599609,-0.0317638926208,0.0418489426374,-0.0109678767622,0.020371844992,0.0326904430985,9.46290215055e-05,0.0,0.0,0.0,0.0,0.0,0.0,9.46290215055e-05,0.0,0.0,0.0,0.0,0.0,0.0,9.46290215055e-05,0.0,0.0,0.0,0.0,0.0,0.0,9.46290215055e-06,0.0,0.0,0.0,0.0,0.0,0.0,9.46290215055e-06,0.0,0.0,0.0,0.0,0.0,0.0,9.46290215055e-06
1662436540903059244,69,1662436540903059244,icp_odom,base_link,0.164546310902,-0.0182554479688,0.0224781893194,-0.00579073674135,0.00796546740703,0.0124864441653,0.999873545709,0.000144857198048,0.0,0.0,0.0,0.0,0.0,0.0,0.000144857198048,0.0,0.0,0.0,0.0,0.0,0.0,0.000144857198048,0.0,0.0,0.0,0.0,0.0,0.0,1.44857198048e-05,0.0,0.0,0.0,0.0,0.0,0.0,1.44857198048e-05,0.0,0.0,0.0,0.0,0.0,0.0,1.44857198048e-05,0.15081936121,-0.0488682612777,0.0252234954387,-0.0204511508346,0.0215191226453,0.0441933758557,7.24285990238e-05,0.0,0.0,0.0,0.0,0.0,0.0,7.24285990238e-05,0.0,0.0,0.0,0.0,0.0,0.0,7.24285990238e-05,0.0,0.0,0.0,0.0,0.0,0.0,7.24285990238e-06,0.0,0.0,0.0,0.0,0.0,0.0,7.24285990238e-06,0.0,0.0,0.0,0.0,0.0,0.0,7.24285990238e-06
1662436540995206833,70,1662436540995206833,icp_odom,base_link,0.182813808322,-0.0191725436598,0.0228225905448,-0.00606981882321,0.00805904471302,0.0145729902369,0.999842906187,0.00016312287002,0.0,0.0,0.0,0.0,0.0,0.0,0.00016312287002,0.0,0.0,0.0,0.0,0.0,0.0,0.00016312287002,0.0,0.0,0.0,0.0,0.0,0.0,1.6312287002e-05,0.0,0.0,0.0,0.0,0.0,0.0,1.6312287002e-05,0.0,0.0,0.0,0.0,0.0,0.0,1.6312287002e-05,0.197847038507,-0.0149595644325,0.00674863951281,-0.00639185681939,0.00186278880574,0.045252609998,8.15614350102e-05,0.0,0.0,0.0,0.0,0.0,0.0,8.15614350102e-05,0.0,0.0,0.0,0.0,0.0,0.0,8.15614350102e-05,0.0,0.0,0.0,0.0,0.0,0.0,8.15614350102e-06,0.0,0.0,0.0,0.0,0.0,0.0,8.15614350102e-06,0.0,0.0,0.0,0.0,0.0,0.0,8.15614350102e-06
1662436541087677240,71,1662436541087677240,icp_odom,base_link,0.198864549398,-0.0214120037854,0.0258337054402,-0.00669165439035,0.00858688623146,0.0162770423561,0.999808254136,0.000143272647597,0.0,0.0,0.0,0.0,0.0,0.0,0.000143272647597,0.0,0.0,0.0,0.0,0.0,0.0,0.000143272647597,0.0,0.0,0.0,0.0,0.0,0.0,1.43272647597e-05,0.0,0.0,0.0,0.0,0.0,0.0,1.43272647597e-05,0.0,0.0,0.0,0.0,0.0,0.0,1.43272647597e-05,0.172246918082,-0.0296689011157,0.0350233241916,-0.0135630723089,0.011416095309,0.0368150658906,7.16363237987e-05,0.0,0.0,0.0,0.0,0.0,0.0,7.16363237987e-05,0.0,0.0,0.0,0.0,0.0,0.0,7.16363237987e-05,0.0,0.0,0.0,0.0,0.0,0.0,7.16363237987e-06,0.0,0.0,0.0,0.0,0.0,0.0,7.16363237987e-06,0.0,0.0,0.0,0.0,0.0,0.0,7.16363237987e-06
1662436541179664850,72,1662436541179664850,icp_odom,base_link,0.211872160435,-0.0205677673221,0.032120898366,-0.00686541677232,0.00983922921215,0.0177131154322,0.999771124389,0.000140473106673,0.0,0.0,0.0,0.0,0.0,0.0,0.000140473106673,0.0,0.0,0.0,0.0,0.0,0.0,0.000140473106673,0.0,0.0,0.0,0.0,0.0,0.0,1.40473106673e-05,0.0,0.0,0.0,0.0,0.0,0.0,1.40473106673e-05,0.0,0.0,0.0,0.0,0.0,0.0,1.40473106673e-05,0.140419602394,0.00365787441842,0.0708546414971,-0.00356845953502,0.0270879734308,0.0313757173717,7.02365533364e-05,0.0,0.0,0.0,0.0,0.0,0.0,7.02365533364e-05,0.0,0.0,0.0,0.0,0.0,0.0,7.02365533364e-05,0.0,0.0,0.0,0.0,0.0,0.0,7.02365533364e-06,0.0,0.0,0.0,0.0,0.0,0.0,7.02365533364e-06,0.0,0.0,0.0,0.0,0.0,0.0,7.02365533364e-06
1662436541288183689,73,1662436541288183689,icp_odom,base_link,0.2255384624,-0.0203598365188,0.0328305624425,-0.00693113172776,0.0103450103799,0.0191405926203,0.99973925495,0.00018496258001,0.0,0.0,0.0,0.0,0.0,0.0,0.00018496258001,0.0,0.0,0.0,0.0,0.0,0.0,0.00018496258001,0.0,0.0,0.0,0.0,0.0,0.0,1.8496258001e-05,0.0,0.0,0.0,0.0,0.0,0.0,1.8496258001e-05,0.0,0.0,0.0,0.0,0.0,0.0,1.8496258001e-05,0.125768721104,-0.00265019084327,0.00901165511459,-0.00129549414851,0.00916783697903,0.0263641402125,9.24812900051e-05,0.0,0.0,0.0,0.0,0.0,0.0,9.24812900051e-05,0.0,0.0,0.0,0.0,0.0,0.0,9.24812900051e-05,0.0,0.0,0.0,0.0,0.0,0.0,9.24812900051e-06,0.0,0.0,0.0,0.0,0.0,0.0,9.24812900051e-06,0.0,0.0,0.0,0.0,0.0,0.0,9.24812900051e-06
1662436541380450249,74,1662436541380450249,icp_odom,base_link,0.237955123186,-0.0193505752832,0.0335422605276,-0.00713951410749,0.0106941745857,0.0199742489998,0.999717805856,0.000164921116313,0.0,0.0,0.0,0.0,0.0,0.0,0.000164921116313,0.0,0.0,0.0,0.0,0.0,0.0,0.000164921116313,0.0,0.0,0.0,0.0,0.0,0.0,1.64921116313e-05,0.0,0.0,0.0,0.0,0.0,0.0,1.64921116313e-05,0.0,0.0,0.0,0.0,0.0,0.0,1.64921116313e-05,0.13470184803,0.00565603049472,0.0106149483472,-0.0045547792688,0.00753640616313,0.0180788803846,8.24605581566e-05,0.0,0.0,0.0,0.0,0.0,0.0,8.24605581566e-05,0.0,0.0,0.0,0.0,0.0,0.0,8.24605581566e-05,0.0,0.0,0.0,0.0,0.0,0.0,8.24605581566e-06,0.0,0.0,0.0,0.0,0.0,0.0,8.24605581566e-06,0.0,0.0,0.0,0.0,0.0,0.0,8.24605581566e-06
1662436541475290298,75,1662436541475290298,icp_odom,base_link,0.249272078276,-0.0179189443588,0.0290817394853,-0.00744647304213,0.0100279767134,0.0199774863441,0.999722406352,0.000131380605745,0.0,0.0,0.0,0.0,0.0,0.0,0.000131380605745,0.0,0.0,0.0,0.0,0.0,0.0,0.000131380605745,0.0,0.0,0.0,0.0,0.0,0.0,1.31380605745e-05,0.0,0.0,0.0,0.0,0.0,0.0,1.31380605745e-05,0.0,0.0,0.0,0.0,0.0,0.0,1.31380605745e-05,0.120823897421,0.0109491180629,-0.0442771166563,-0.00675193406641,-0.0139172133058,-9.87856474239e-05,6.56903028724e-05,0.0,0.0,0.0,0.0,0.0,0.0,6.56903028724e-05,0.0,0.0,0.0,0.0,0.0,0.0,6.56903028724e-05,0.0,0.0,0.0,0.0,0.0,0.0,6.56903028724e-06,0.0,0.0,0.0,0.0,0.0,0.0,6.56903028724e-06,0.0,0.0,0.0,0.0,0.0,0.0,6.56903028724e-06
1662436541567421198,76,1662436541567421198,icp_odom,base_link,0.260958015919,-0.0197726991028,0.0246448796242,-0.007606419275,0.00982374519545,0.019186504966,0.999738723089,0.000140930092328,0.0,0.0,0.0,0.0,0.0,0.0,0.000140930092328,0.0,0.0,0.0,0.0,0.0,0.0,0.000140930092328,0.0,0.0,0.0,0.0,0.0,0.0,1.40930092328e-05,0.0,0.0,0.0,0.0,0.0,0.0,1.40930092328e-05,0.0,0.0,0.0,0.0,0.0,0.0,1.40930092328e-05,0.126893147826,-0.0244903098792,-0.045945353806,-0.00338152889162,-0.00424134079367,-0.0172404069453,7.04650461639e-05,0.0,0.0,0.0,0.0,0.0,0.0,7.04650461639e-05,0.0,0.0,0.0,0.0,0.0,0.0,7.04650461639e-05,0.0,0.0,0.0,0.0,0.0,0.0,7.04650461639e-06,0.0,0.0,0.0,0.0,0.0,0.0,7.04650461639e-06,0.0,0.0,0.0,0.0,0.0,0.0,7.04650461639e-06
1662436541659537315,77,1662436541659537315,icp_odom,base_link,0.274148851633,-0.02051121369,0.0280272718519,-0.00821330007689,0.0109001025051,0.0194623196572,0.999717433869,0.000127382144396,0.0,0.0,0.0,0.0,0.0,0.0,0.000127382144396,0.0,0.0,0.0,0.0,0.0,0.0,0.000127382144396,0.0,0.0,0.0,0.0,0.0,0.0,1.27382144396e-05,0.0,0.0,0.0,0.0,0.0,0.0,1.27382144396e-05,0.0,0.0,0.0,0.0,0.0,0.0,1.27382144396e-05,0.142026439309,-0.0140698840842,0.0393534488976,-0.0127803916112,0.0235788300633,0.00603014882654,6.3691072198e-05,0.0,0.0,0.0,0.0,0.0,0.0,6.3691072198e-05,0.0,0.0,0.0,0.0,0.0,0.0,6.3691072198e-05,0.0,0.0,0.0,0.0,0.0,0.0,6.3691072198e-06,0.0,0.0,0.0,0.0,0.0,0.0,6.3691072198e-06,0.0,0.0,0.0,0.0,0.0,0.0,6.3691072198e-06
